{"29110|계림동|(250-89)|250-89":{"city_code":"29110","dong":"계림동","name":"(250-89)","addr":"250-89","query":"광주 계림동 250-89","lat":35.1571470722066,"lng":126.920898711759,"road":"광주 동구 중앙로 284","region":"광주 동구 계림동 250-89","building":"","method":"address"},"29110|계림동|SG빌리지|175-7":{"city_code":"29110","dong":"계림동","name":"SG빌리지","addr":"175-7","query":"광주 계림동 175-7","lat":35.1597390351275,"lng":126.920231624532,"road":"광주 동구 중앙로 313","region":"광주 동구 계림동 175-7","building":"","method":"address"},"29110|계림동|계림동금호2|100-11":{"city_code":"29110","dong":"계림동","name":"계림동금호2","addr":"100-11","query":"광주 계림동 100-11","lat":35.1637890280406,"lng":126.920241171131,"road":"광주 동구 중앙로 358","region":"광주 동구 계림동 100-11","building":"금호계림주상복합","method":"address"},"29110|계림동|계림아이파크에스케이뷰|1869":{"city_code":"29110","dong":"계림동","name":"계림아이파크에스케이뷰","addr":"1869","query":"광주 계림동 1869","lat":35.1617139713136,"lng":126.926004695904,"road":"광주 동구 필문대로 70","region":"광주 동구 계림동 1869","building":"계림아이파크SK뷰","method":"address"},"29110|계림동|그랜드센트럴|1827":{"city_code":"29110","dong":"계림동","name":"그랜드센트럴","addr":"1827","query":"광주 계림동 1827","lat":35.1570767776401,"lng":126.915314859578,"road":"광주 동구 경양로 234","region":"광주 동구 계림동 1827","building":"그랜드센트럴","method":"address"},"29110|계림동|금호|100-1":{"city_code":"29110","dong":"계림동","name":"금호","addr":"100-1","query":"광주 계림동 100-1","lat":35.1631737410644,"lng":126.92229167803,"road":"광주 동구 필문대로 12-7","region":"광주 동구 계림동 100-1","building":"금호타운","method":"address"},"29110|계림동|대명|191-1":{"city_code":"29110","dong":"계림동","name":"대명","addr":"191-1","query":"광주 계림동 191-1","lat":35.1586952025479,"lng":126.923352882882,"road":"광주 동구 동계로 79-26","region":"광주 동구 계림동 191-1","building":"대명맨션","method":"address"},"29110|계림동|두산위브|52":{"city_code":"29110","dong":"계림동","name":"두산위브","addr":"52","query":"광주 계림동 52","lat":35.1595108550354,"lng":126.923944474179,"road":"광주 동구 무등로 374","region":"광주 동구 계림동 52","building":"두산위브","method":"address"},"29110|계림동|두산위브2차|1815":{"city_code":"29110","dong":"계림동","name":"두산위브2차","addr":"1815","query":"광주 계림동 1815","lat":35.1573953979418,"lng":126.924575441957,"road":"광주 동구 계림로30번길 15","region":"광주 동구 계림동 1815","building":"푸른길 두산위브","method":"address"},"29110|계림동|두산위브3차(두산위브더파크)|1845":{"city_code":"29110","dong":"계림동","name":"두산위브3차(두산위브더파크)","addr":"1845","query":"광주 계림동 1845","lat":35.1565879370717,"lng":126.922117507708,"road":"광주 동구 중앙로290번길 16","region":"광주 동구 계림동 1845","building":"두산위브더파크","method":"address"},"29110|계림동|아름진|250-89":{"city_code":"29110","dong":"계림동","name":"아름진","addr":"250-89","query":"광주 계림동 250-89","lat":35.1571470722066,"lng":126.920898711759,"road":"광주 동구 중앙로 284","region":"광주 동구 계림동 250-89","building":"","method":"address"},"29110|궁동|광주금남로한신더휴펜트하우스|66-2":{"city_code":"29110","dong":"궁동","name":"광주금남로한신더휴펜트하우스","addr":"66-2","query":"광주 궁동 66-2","lat":35.1510270954106,"lng":126.916974768761,"road":null,"region":"광주 동구 궁동 66-2","building":null,"method":"address"},"29110|금남로2가|무등맨션|35":{"city_code":"29110","dong":"금남로2가","name":"무등맨션","addr":"35","query":"광주 금남로2가 35","lat":35.1480924959824,"lng":126.917313447963,"road":"광주 동구 충장로 93-5","region":"광주 동구 금남로2가 35","building":"무등맨션","method":"address"},"29110|금남로3가|금남맨션|3-7":{"city_code":"29110","dong":"금남로3가","name":"금남맨션","addr":"3-7","query":"광주 금남로3가 3-7","lat":35.1497836037197,"lng":126.91701213745,"road":"광주 동구 중앙로196번길 14","region":"광주 동구 금남로3가 3-7","building":"금남맨션","method":"address"},"29110|금남로5가|AM-City하이클래스|154-1":{"city_code":"29110","dong":"금남로5가","name":"AM-City하이클래스","addr":"154-1","query":"광주 금남로5가 154-1","lat":35.1517659240301,"lng":126.913725421103,"road":"광주 동구 금남로 185","region":"광주 동구 금남로5가 154-1","building":"금남로 AM-City 하이클래스","method":"address"},"29110|대인동|루체클래식|153":{"city_code":"29110","dong":"대인동","name":"루체클래식","addr":"153","query":"광주 대인동 153","lat":35.1519636591162,"lng":126.916131293806,"road":"광주 동구 구성로204번길 22","region":"광주 동구 대인동 153","building":"","method":"address"},"29110|대인동|영무파라드주상복합|148-1":{"city_code":"29110","dong":"대인동","name":"영무파라드주상복합","addr":"148-1","query":"광주 대인동 148-1","lat":35.1522157841489,"lng":126.915762395587,"road":"광주 동구 구성로194번길 15-10","region":"광주 동구 대인동 148-1","building":"영무 파라드 주상복합","method":"address"},"29110|동명동|금석빌라|154-42":{"city_code":"29110","dong":"동명동","name":"금석빌라","addr":"154-42","query":"광주 동명동 154-42","lat":35.1502985918419,"lng":126.92408484978,"road":"광주 동구 동명로14번길 9","region":"광주 동구 동명동 154-42","building":"금석빌라","method":"address"},"29110|동명동|동명(166-1)|166-1":{"city_code":"29110","dong":"동명동","name":"동명(166-1)","addr":"166-1","query":"광주 동명동 166-1","lat":35.1504239447162,"lng":126.927274783692,"road":"광주 동구 동명로20번길 33","region":"광주 동구 동명동 166-1","building":"동명맨션","method":"address"},"29110|동명동|동명파크맨션|207-88":{"city_code":"29110","dong":"동명동","name":"동명파크맨션","addr":"207-88","query":"광주 동명동 207-88","lat":35.1530527195819,"lng":126.922974605809,"road":"광주 동구 동계로9번길 12","region":"광주 동구 동명동 207-88","building":"동명파크맨션","method":"address"},"29110|산수동|광명|84":{"city_code":"29110","dong":"산수동","name":"광명","addr":"84","query":"광주 산수동 84","lat":35.1563774420364,"lng":126.938349320333,"road":"광주 동구 무등로 532","region":"광주 동구 산수동 84","building":"광명아파트","method":"address"},"29110|산수동|금호두암타운|568-1":{"city_code":"29110","dong":"산수동","name":"금호두암타운","addr":"568-1","lat":35.1598776705898,"lng":126.934029603145,"road":"광주 동구 밤실로 147","region":"광주 동구 산수동 568-1","building":"두암타운","query":"광주광역시 동구 산수동 568-1","method":"address"},"29110|산수동|남양빌라|21-5":{"city_code":"29110","dong":"산수동","name":"남양빌라","addr":"21-5","query":"광주 산수동 21-5","lat":35.1547955420157,"lng":126.93692310151,"road":"광주 동구 밤실로 82","region":"광주 동구 산수동 21-5","building":"남양빌라","method":"address"},"29110|산수동|동산로얄|12":{"city_code":"29110","dong":"산수동","name":"동산로얄","addr":"12","query":"광주 산수동 12","lat":35.1541613059103,"lng":126.938070582329,"road":"광주 동구 밤실로82번길 23","region":"광주 동구 산수동 12","building":"동산로얄","method":"address"},"29110|산수동|동진맨션|463-6":{"city_code":"29110","dong":"산수동","name":"동진맨션","addr":"463-6","query":"광주 산수동 463-6","lat":35.1588392255655,"lng":126.928489205035,"road":"광주 동구 무등로 417-9","region":"광주 동구 산수동 463-6","building":"동진맨션","method":"address"},"29110|산수동|두암그린파크|689":{"city_code":"29110","dong":"산수동","name":"두암그린파크","addr":"689","query":"광주 산수동 689","lat":35.1608064675783,"lng":126.937323579548,"road":"광주 동구 밤실로 150","region":"광주 동구 산수동 689","building":"두암그린파크","method":"address"},"29110|산수동|라도스하임|715":{"city_code":"29110","dong":"산수동","name":"라도스하임","addr":"715","lat":35.1530962721894,"lng":126.929208579983,"road":"광주 동구 필문대로192번길 21","region":"광주 동구 산수동 715","building":"","query":"광주광역시 동구 산수동 715","method":"address"},"29110|산수동|명성맨션|25":{"city_code":"29110","dong":"산수동","name":"명성맨션","addr":"25","query":"광주 산수동 25","lat":35.1530357053475,"lng":126.936710561036,"road":"광주 동구 밤실로 56-3","region":"광주 동구 산수동 25","building":"명성아파트","method":"address"},"29110|산수동|명지로드힐포레|730":{"city_code":"29110","dong":"산수동","name":"명지로드힐포레","addr":"730","query":"광주 산수동 730","lat":35.1552494205712,"lng":126.93840965629,"road":"광주 동구 밤실로90번길 20","region":"광주 동구 산수동 730","building":"명지로드힐 포레","method":"address"},"29110|산수동|무등산광신프로그레스|716":{"city_code":"29110","dong":"산수동","name":"무등산광신프로그레스","addr":"716","lat":35.1569481469738,"lng":126.936361698807,"road":"광주 동구 밤실로 100","region":"광주 동구 산수동 716","building":"무등산광신프로그레스","query":"광주광역시 동구 산수동 716","method":"address"},"29110|산수동|무등산그린웰로제비앙|723":{"city_code":"29110","dong":"산수동","name":"무등산그린웰로제비앙","addr":"723","lat":35.1552350290753,"lng":126.925320119966,"road":"광주 동구 동계로 38","region":"광주 동구 산수동 723","building":"무등산 그린웰로제비앙","query":"광주광역시 동구 산수동 723","method":"address"},"29110|산수동|무등파크|79-3":{"city_code":"29110","dong":"산수동","name":"무등파크","addr":"79-3","query":"광주 산수동 79-3","lat":35.1563215173314,"lng":126.939521078437,"road":"광주 동구 무등로 548","region":"광주 동구 산수동 79-3","building":"무등파크맨션","method":"address"},"29110|산수동|산수맨션|552-17":{"city_code":"29110","dong":"산수동","name":"산수맨션","addr":"552-17","query":"광주 산수동 552-17","lat":35.1557275454361,"lng":126.928938945997,"road":"광주 동구 경양로367번길 17","region":"광주 동구 산수동 552-17","building":"산수맨션","method":"address"},"29110|산수동|해광파크|240-14":{"city_code":"29110","dong":"산수동","name":"해광파크","addr":"240-14","query":"광주 산수동 240-14","lat":35.1581029745978,"lng":126.933518261873,"road":"광주 동구 필문대로145번길 11-12","region":"광주 동구 산수동 240-14","building":"해광아파트","method":"address"},"29110|산수동|호남|104-3":{"city_code":"29110","dong":"산수동","name":"호남","addr":"104-3","lat":35.1579402256618,"lng":126.936441815274,"road":"","region":"광주 동구 산수동 104-3","building":"","query":"광주광역시 동구 산수동 104-3","method":"address"},"29110|선교동|선교2차우방아이유쉘리포레|488":{"city_code":"29110","dong":"선교동","name":"선교2차우방아이유쉘리포레","addr":"488","query":"광주 선교동 488","lat":35.0896380738679,"lng":126.953846377596,"road":"광주 동구 선교로 38-33","region":"광주 동구 선교동 488","building":"선교2차 우방아이유쉘 리포레","method":"address"},"29110|소태동|NK아이리스1차|690":{"city_code":"29110","dong":"소태동","name":"NK아이리스1차","addr":"690","query":"광주 소태동 690","lat":35.1207312529185,"lng":126.934067541504,"road":"광주 동구 소태길 16","region":"광주 동구 소태동 690","building":"NK 아이리스 1차","method":"address"},"29110|소태동|e편한세상무등산|1113":{"city_code":"29110","dong":"소태동","name":"e편한세상무등산","addr":"1113","query":"광주 소태동 1113","lat":35.1234862523501,"lng":126.937250591396,"road":"광주 동구 지원로42번길 10","region":"광주 동구 소태동 1113","building":"e편한세상무등산아파트","method":"address"},"29110|소태동|그린빌라|206":{"city_code":"29110","dong":"소태동","name":"그린빌라","addr":"206","query":"광주 소태동 206","lat":35.1203553880524,"lng":126.93524628547,"road":"광주 동구 소태길 22-3","region":"광주 동구 소태동 206","building":"그린빌라","method":"address"},"29110|소태동|대아1차|480-2":{"city_code":"29110","dong":"소태동","name":"대아1차","addr":"480-2","query":"광주 소태동 480-2","lat":35.1249807193137,"lng":126.936051299324,"road":"광주 동구 지원로 35","region":"광주 동구 소태동 480-2","building":"대아아파트","method":"address"},"29110|소태동|대아2차|440":{"city_code":"29110","dong":"소태동","name":"대아2차","addr":"440","query":"광주 소태동 440","lat":35.1238060528536,"lng":126.936207345541,"road":"광주 동구 지원로 32","region":"광주 동구 소태동 440","building":"대아아파트","method":"address"},"29110|소태동|대주빌라|698-23":{"city_code":"29110","dong":"소태동","name":"대주빌라","addr":"698-23","query":"광주 소태동 698-23","lat":35.1291052892484,"lng":126.93523409359,"road":"광주 동구 학소로86번안길 10-14","region":"광주 동구 소태동 698-23","building":"대주빌라","method":"address"},"29110|소태동|모아미래도|501":{"city_code":"29110","dong":"소태동","name":"모아미래도","addr":"501","query":"광주 소태동 501","lat":35.1270254415855,"lng":126.936866843576,"road":"광주 동구 학소로76번길 14","region":"광주 동구 소태동 501","building":"모아미래도아파트","method":"address"},"29110|소태동|무등산골드클래스|1103":{"city_code":"29110","dong":"소태동","name":"무등산골드클래스","addr":"1103","query":"광주 소태동 1103","lat":35.12942413372,"lng":126.931361516544,"road":"광주 동구 학소로 109","region":"광주 동구 소태동 1103","building":"무등산골드클래스","method":"address"},"29110|소태동|무등산아델리움|761-3":{"city_code":"29110","dong":"소태동","name":"무등산아델리움","addr":"761-3","query":"광주 소태동 761-3","lat":35.1316658419373,"lng":126.940976746152,"road":"광주 동구 의재로 120","region":"광주 동구 소태동 761-3","building":"무등산아델리움","method":"address"},"29110|소태동|백조맨션|618":{"city_code":"29110","dong":"소태동","name":"백조맨션","addr":"618","query":"광주 소태동 618","lat":35.1263808806415,"lng":126.934664759862,"road":"광주 동구 학소로76번길 2","region":"광주 동구 소태동 618","building":"백조아파트","method":"address"},"29110|소태동|삼호|717-5":{"city_code":"29110","dong":"소태동","name":"삼호","addr":"717-5","query":"광주 소태동 717-5","lat":35.1302733751664,"lng":126.935249736075,"road":"광주 동구 학소로106번길 29","region":"광주 동구 소태동 717-5","building":"삼호아파트","method":"address"},"29110|소태동|수정맨션|717-1":{"city_code":"29110","dong":"소태동","name":"수정맨션","addr":"717-1","query":"광주 소태동 717-1","lat":35.1308028720478,"lng":126.935995838753,"road":"광주 동구 의재로82번길 9","region":"광주 동구 소태동 717-1","building":"수정맨션","method":"address"},"29110|소태동|신흥맨션|560-11":{"city_code":"29110","dong":"소태동","name":"신흥맨션","addr":"560-11","query":"광주 소태동 560-11","lat":35.1270796548829,"lng":126.934232371097,"road":"광주 동구 학소로 80","region":"광주 동구 소태동 560-11","building":"신흥맨션","method":"address"},"29110|소태동|온세계아이조움|691":{"city_code":"29110","dong":"소태동","name":"온세계아이조움","addr":"691","query":"광주 소태동 691","lat":35.1201498876204,"lng":126.934261746828,"road":"광주 동구 남문로 550","region":"광주 동구 소태동 691","building":"소태동 온세계아이조움","method":"address"},"29110|소태동|우영타워|911":{"city_code":"29110","dong":"소태동","name":"우영타워","addr":"911","query":"광주 소태동 911","lat":35.1286687936508,"lng":126.927950007181,"road":"광주 동구 천변좌로 608","region":"광주 동구 소태동 911","building":"우영타워","method":"address"},"29110|소태동|진아하이빌|443":{"city_code":"29110","dong":"소태동","name":"진아하이빌","addr":"443","query":"광주 소태동 443","lat":35.1231727876922,"lng":126.935589525846,"road":"광주 동구 학소로42번길 12","region":"광주 동구 소태동 443","building":"소태동 2차진아하이빌","method":"address"},"29110|소태동|진아하이빌1차|615-1":{"city_code":"29110","dong":"소태동","name":"진아하이빌1차","addr":"615-1","query":"광주 소태동 615-1","lat":35.1256300498146,"lng":126.934175718646,"road":"광주 동구 학소로 65","region":"광주 동구 소태동 615-1","building":"진아아파트","method":"address"},"29110|소태동|진양|700-2":{"city_code":"29110","dong":"소태동","name":"진양","addr":"700-2","query":"광주 소태동 700-2","lat":35.1290869554719,"lng":126.934830463756,"road":"광주 동구 학소로86번안길 10","region":"광주 동구 소태동 700-2","building":"진양아파트","method":"address"},"29110|수기동|가도스타디움|43":{"city_code":"29110","dong":"수기동","name":"가도스타디움","addr":"43","query":"광주 수기동 43","lat":35.1511524145664,"lng":126.909949291548,"road":"광주 동구 독립로226번길 17","region":"광주 동구 수기동 43","building":"아트리뷰스","method":"address"},"29110|수기동|고운하이츠(21-3)|21-3":{"city_code":"29110","dong":"수기동","name":"고운하이츠(21-3)","addr":"21-3","query":"광주 수기동 21-3","lat":35.151027125516,"lng":126.908864378804,"road":"광주 동구 천변우로 329-5","region":"광주 동구 수기동 21-3","building":"고운하이츠1차","method":"address"},"29110|수기동|고운하이츠(22-0)|22":{"city_code":"29110","dong":"수기동","name":"고운하이츠(22-0)","addr":"22","query":"광주 수기동 22","lat":35.1508234797889,"lng":126.909307097405,"road":"광주 동구 천변우로 329-10","region":"광주 동구 수기동 22","building":"고운하이츠2차","method":"address"},"29110|수기동|더원에버빌|4-5":{"city_code":"29110","dong":"수기동","name":"더원에버빌","addr":"4-5","query":"광주 수기동 4-5","lat":35.1517210859982,"lng":126.909349012159,"road":"광주 동구 독립로226번길 11","region":"광주 동구 수기동 4-5","building":"더원에버빌","method":"address"},"29110|용산동|광주용산지구2BL계룡리슈빌더포레스트아파트|662":{"city_code":"29110","dong":"용산동","name":"광주용산지구2BL계룡리슈빌더포레스트아파트","addr":"662","query":"광주 용산동 662","lat":35.120310050763,"lng":126.92493392542,"road":"광주 동구 용산1길 2","region":"광주 동구 용산동 662","building":"계룡리슈빌 더 포레스트","method":"address"},"29110|용산동|다보애주상복합APT|270-4":{"city_code":"29110","dong":"용산동","name":"다보애주상복합APT","addr":"270-4","query":"광주 용산동 270-4","lat":35.1207835485464,"lng":126.932947305257,"road":"광주 동구 남문로 555","region":"광주 동구 용산동 270-4","building":"다보애주상복합APT","method":"address"},"29110|용산동|동산타워|177":{"city_code":"29110","dong":"용산동","name":"동산타워","addr":"177","query":"광주 용산동 177","lat":35.1181868818079,"lng":126.93227520958,"road":"광주 동구 화산로350번길 18","region":"광주 동구 용산동 177","building":"동산타워","method":"address"},"29110|용산동|무등산골드클래스2차|747":{"city_code":"29110","dong":"용산동","name":"무등산골드클래스2차","addr":"747","query":"광주 용산동 747","lat":35.1239894153317,"lng":126.931305077941,"road":"광주 동구 남문로 589","region":"광주 동구 용산동 747","building":"무등산골드클래스2차","method":"address"},"29110|용산동|용산|636-137":{"city_code":"29110","dong":"용산동","name":"용산","addr":"636-137","query":"광주 용산동 636-137","lat":35.120809269115,"lng":126.93219405187,"road":"광주 동구 화산로351번길 10","region":"광주 동구 용산동 636-137","building":"용산아파트","method":"address"},"29110|용산동|용산지구모아엘가에듀파크|663":{"city_code":"29110","dong":"용산동","name":"용산지구모아엘가에듀파크","addr":"663","query":"광주 용산동 663","lat":35.1185961671273,"lng":126.925767585005,"road":"광주 동구 용산3길 17","region":"광주 동구 용산동 663","building":"모아엘가 에듀파크","method":"address"},"29110|용산동|일광맨션|산39-9":{"city_code":"29110","dong":"용산동","name":"일광맨션","addr":"산39-9","query":"광주 용산동 산39-9","lat":35.1205435879111,"lng":126.930202370693,"road":"광주 동구 천변좌로 714-11","region":"광주 동구 용산동 산 39-9","building":"일광아파트","method":"address"},"29110|용산동|한국|636-31":{"city_code":"29110","dong":"용산동","name":"한국","addr":"636-31","query":"광주 용산동 636-31","lat":35.1192921407065,"lng":126.932931633115,"road":"광주 동구 화산로 352","region":"광주 동구 용산동 636-31","building":"용산동한국아파트","method":"address"},"29110|용산동|호반맨션|147-1":{"city_code":"29110","dong":"용산동","name":"호반맨션","addr":"147-1","query":"광주 용산동 147-1","lat":35.117908881912,"lng":126.930963747322,"road":"광주 동구 화산로 328-6","region":"광주 동구 용산동 147-1","building":"호반아파트","method":"address"},"29110|운림동|남해오네뜨빌|598":{"city_code":"29110","dong":"운림동","name":"남해오네뜨빌","addr":"598","query":"광주 운림동 598","lat":35.1347881932213,"lng":126.941034731052,"road":"광주 동구 운림길 27","region":"광주 동구 운림동 598","building":"남해오네뜨빌","method":"address"},"29110|운림동|라인1차|583":{"city_code":"29110","dong":"운림동","name":"라인1차","addr":"583","query":"광주 운림동 583","lat":35.1340051056061,"lng":126.943337380898,"road":"광주 동구 운림길 71","region":"광주 동구 운림동 583","building":"라인1차아파트","method":"address"},"29110|운림동|라인2차|654":{"city_code":"29110","dong":"운림동","name":"라인2차","addr":"654","query":"광주 운림동 654","lat":35.1331154196084,"lng":126.943444097648,"road":"광주 동구 의재로 149-7","region":"광주 동구 운림동 654","building":"라인2차아파트","method":"address"},"29110|운림동|라인광명|567-1":{"city_code":"29110","dong":"운림동","name":"라인광명","addr":"567-1","query":"광주 운림동 567-1","lat":35.1355636120052,"lng":126.942485387842,"road":"광주 동구 운림길 58","region":"광주 동구 운림동 567-1","building":"라인광명아파트","method":"address"},"29110|운림동|무등스위트맨션|588":{"city_code":"29110","dong":"운림동","name":"무등스위트맨션","addr":"588","query":"광주 운림동 588","lat":35.13406093332,"lng":126.942073229806,"road":"광주 동구 운림길 68","region":"광주 동구 운림동 588","building":"무등스위트맨션","method":"address"},"29110|운림동|무등스위트빌라|681":{"city_code":"29110","dong":"운림동","name":"무등스위트빌라","addr":"681","query":"광주 운림동 681","lat":35.1326078368712,"lng":126.944560635346,"road":"광주 동구 의재로 149-4","region":"광주 동구 운림동 681","building":"무등스위트빌라","method":"address"},"29110|운림동|무등파크맨션1차|603":{"city_code":"29110","dong":"운림동","name":"무등파크맨션1차","addr":"603","query":"광주 운림동 603","lat":35.134276096451,"lng":126.940415825093,"road":"광주 동구 운림길 23","region":"광주 동구 운림동 603","building":"무등파크맨션","method":"address"},"29110|운림동|무등파크맨션2차|597":{"city_code":"29110","dong":"운림동","name":"무등파크맨션2차","addr":"597","query":"광주 운림동 597","lat":35.1353389681917,"lng":126.941121235494,"road":"광주 동구 운림길 29-10","region":"광주 동구 운림동 597","building":"무등파크맨션","method":"address"},"29110|운림동|무등파크맨션3차|628":{"city_code":"29110","dong":"운림동","name":"무등파크맨션3차","addr":"628","query":"광주 운림동 628","lat":35.1325882979278,"lng":126.941163044189,"road":"광주 동구 의재로 123","region":"광주 동구 운림동 628","building":"무등파크맨션","method":"address"},"29110|운림동|보라빌라|582":{"city_code":"29110","dong":"운림동","name":"보라빌라","addr":"582","query":"광주 운림동 582","lat":35.1336749812642,"lng":126.944407837399,"road":"광주 동구 운림길75번길 17","region":"광주 동구 운림동 582","building":"운림빌라트","method":"address"},"29110|운림동|샤인빌|570":{"city_code":"29110","dong":"운림동","name":"샤인빌","addr":"570","query":"광주 운림동 570","lat":35.1349267622985,"lng":126.942980140602,"road":"광주 동구 운림길 59","region":"광주 동구 운림동 570","building":"광명샤인빌","method":"address"},"29110|운림동|운림글로벌|689":{"city_code":"29110","dong":"운림동","name":"운림글로벌","addr":"689","query":"광주 운림동 689","lat":35.1325818528406,"lng":126.945299620345,"road":"광주 동구 의재로 161","region":"광주 동구 운림동 689","building":"운림글로벌아파트","method":"address"},"29110|월남동|월남호반베르디움2차|638":{"city_code":"29110","dong":"월남동","name":"월남호반베르디움2차","addr":"638","query":"광주 월남동 638","lat":35.0994003901752,"lng":126.938853870479,"road":"광주 동구 남문로 307","region":"광주 동구 월남동 638","building":"월남호반베르디움 2차","method":"address"},"29110|지산동|동산|315":{"city_code":"29110","dong":"지산동","name":"동산","addr":"315","query":"광주 지산동 315","lat":35.1507603815352,"lng":126.937193554116,"road":"광주 동구 밤실로 36","region":"광주 동구 지산동 315","building":"동산아파트","method":"address"},"29110|지산동|삼성|315-1":{"city_code":"29110","dong":"지산동","name":"삼성","addr":"315-1","query":"광주 지산동 315-1","lat":35.1508085595434,"lng":126.93868999896,"road":"광주 동구 밤실로30번길 11","region":"광주 동구 지산동 315-1","building":"삼성아파트","method":"address"},"29110|지산동|서석맨션|513":{"city_code":"29110","dong":"지산동","name":"서석맨션","addr":"513","lat":35.145647958161,"lng":126.928581183599,"road":"광주 동구 필문대로287번길 15-9","region":"광주 동구 지산동 513","building":"서석맨션","query":"광주광역시 동구 지산동 513","method":"address"},"29110|지산동|이화맨션|315-24":{"city_code":"29110","dong":"지산동","name":"이화맨션","addr":"315-24","query":"광주 지산동 315-24","lat":35.1506513323635,"lng":126.937572366932,"road":"광주 동구 밤실로 38","region":"광주 동구 지산동 315-24","building":"이화맨션","method":"address"},"29110|지산동|제일맨션|산1-9":{"city_code":"29110","dong":"지산동","name":"제일맨션","addr":"산1-9","query":"광주 지산동 제일맨션","lat":35.15205061199595,"lng":126.9368902107993,"road":"광주 동구 밤실로 52","region":"광주 동구 지산동 산 1-9","building":"제일맨션","method":"keyword"},"29110|지산동|지산휴먼시아|671":{"city_code":"29110","dong":"지산동","name":"지산휴먼시아","addr":"671","query":"광주 지산동 671","lat":35.1525299586293,"lng":126.928460374864,"road":"광주 동구 동명로69번길 20","region":"광주 동구 지산동 671","building":"지산휴먼시아","method":"address"},"29110|지산동|진아하이빌|198-13":{"city_code":"29110","dong":"지산동","name":"진아하이빌","addr":"198-13","query":"광주 지산동 198-13","lat":35.1476184370887,"lng":126.938639935624,"road":"광주 동구 지호로86번길 3","region":"광주 동구 지산동 198-13","building":"진아하이빌아파트","method":"address"},"29110|지산동|푸른맨션|187-1":{"city_code":"29110","dong":"지산동","name":"푸른맨션","addr":"187-1","query":"광주 지산동 187-1","lat":35.1472295903035,"lng":126.936368936135,"road":"광주 동구 지호로 68","region":"광주 동구 지산동 187-1","building":"푸른맨션","method":"address"},"29110|충장로4가|충장고운라피네|34":{"city_code":"29110","dong":"충장로4가","name":"충장고운라피네","addr":"34","query":"광주 충장로4가 34","lat":35.1493869644383,"lng":126.913097129313,"road":"광주 동구 충장로58번길 14","region":"광주 동구 충장로4가 34","building":"충장고운라피네","method":"address"},"29110|충장로4가|충장아트원|14":{"city_code":"29110","dong":"충장로4가","name":"충장아트원","addr":"14","query":"광주 충장로4가 14","lat":35.1499465518239,"lng":126.914522764183,"road":"광주 동구 중앙로 179","region":"광주 동구 충장로4가 14","building":"충장아트원","method":"address"},"29110|충장로5가|로머스파크헤리티지|96-4":{"city_code":"29110","dong":"충장로5가","name":"로머스파크헤리티지","addr":"96-4","query":"광주 충장로5가 96-4","lat":35.152220744811,"lng":126.909516041347,"road":"광주 동구 독립로226번길 5-10","region":"광주 동구 충장로5가 96-4","building":"로머스파크 헤리티지","method":"address"},"29110|학동|광주|637-208":{"city_code":"29110","dong":"학동","name":"광주","addr":"637-208","query":"광주 학동 637-208","lat":35.1349657686079,"lng":126.924044442498,"road":null,"region":"광주 동구 학동 637-208","building":null,"method":"address"},"29110|학동|금호베스트빌|262-1":{"city_code":"29110","dong":"학동","name":"금호베스트빌","addr":"262-1","query":"광주 학동 262-1","lat":35.133835655355,"lng":126.938186372401,"road":"광주 동구 증심천로 88","region":"광주 동구 학동 262-1","building":"금호베스트빌","method":"address"},"29110|학동|금호빌라트|265":{"city_code":"29110","dong":"학동","name":"금호빌라트","addr":"265","query":"광주 학동 265","lat":35.1340829639454,"lng":126.937434037875,"road":"광주 동구 증심천로 99","region":"광주 동구 학동 265","building":"금호빌라트","method":"address"},"29110|학동|무등산리버파크|1012":{"city_code":"29110","dong":"학동","name":"무등산리버파크","addr":"1012","query":"광주 학동 1012","lat":35.1308139472167,"lng":126.927794512385,"road":"광주 동구 남문로693번길 11","region":"광주 동구 학동 1012","building":"무등산리버파크","method":"address"},"29110|학동|무등산아이파크|1022":{"city_code":"29110","dong":"학동","name":"무등산아이파크","addr":"1022","query":"광주 학동 1022","lat":35.1374152664614,"lng":126.922971890865,"road":"광주 동구 남문로753번길 20","region":"광주 동구 학동 1022","building":"무등산 아이파크","method":"address"},"29110|학동|무등파크|719-1":{"city_code":"29110","dong":"학동","name":"무등파크","addr":"719-1","query":"광주 학동 719-1","lat":35.1331623541869,"lng":126.932152651653,"road":"광주 동구 의재로43번길 3","region":"광주 동구 학동 719-1","building":"학동무등파크맨션","method":"address"},"29110|학동|미라보|248-7":{"city_code":"29110","dong":"학동","name":"미라보","addr":"248-7","query":"광주 학동 248-7","lat":35.1353709929357,"lng":126.938808994125,"road":"광주 동구 증심천로 121","region":"광주 동구 학동 248-7","building":"미라보아파트","method":"address"},"29110|학동|백화|898-4":{"city_code":"29110","dong":"학동","name":"백화","addr":"898-4","query":"광주 학동 898-4","lat":35.1306330563435,"lng":126.926615314934,"road":"광주 동구 천변우로 603","region":"광주 동구 학동 898-4","building":"백화아파트","method":"address"},"29110|학동|삼성맨션|901-305":{"city_code":"29110","dong":"학동","name":"삼성맨션","addr":"901-305","query":"광주 학동 901-305","lat":35.1345386392136,"lng":126.923943125881,"road":null,"region":"광주 동구 학동 901-305","building":null,"method":"address"},"29110|학동|삼익세라믹|750-1":{"city_code":"29110","dong":"학동","name":"삼익세라믹","addr":"750-1","query":"광주 학동 750-1","lat":35.1313002249445,"lng":126.930243334617,"road":"광주 동구 남문로 676","region":"광주 동구 학동 750-1","building":"삼익세라믹아파트","method":"address"},"29110|학동|신영루체클래식(784-0)|784":{"city_code":"29110","dong":"학동","name":"신영루체클래식(784-0)","addr":"784","query":"광주 학동 784","lat":35.1316099128028,"lng":126.933575680284,"road":"광주 동구 증심천로33번길 16","region":"광주 동구 학동 784","building":"신영루체클래식","method":"address"},"29110|학동|신영루체클래식(784-1)|784-1":{"city_code":"29110","dong":"학동","name":"신영루체클래식(784-1)","addr":"784-1","query":"광주 학동 784-1","lat":35.1316098951536,"lng":126.934038475722,"road":"광주 동구 증심천로43번길 11","region":"광주 동구 학동 784-1","building":"신영루체클래식","method":"address"},"29110|학동|아남|676-1":{"city_code":"29110","dong":"학동","name":"아남","addr":"676-1","query":"광주 학동 676-1","lat":35.1338593407925,"lng":126.930652829641,"road":"광주 동구 의재로 23-8","region":"광주 동구 학동 676-1","building":"아남아파트","method":"address"},"29110|학동|자민맨션|721-5":{"city_code":"29110","dong":"학동","name":"자민맨션","addr":"721-5","query":"광주 학동 721-5","lat":35.1326789579461,"lng":126.933134722801,"road":"광주 동구 의재로51번길 1","region":"광주 동구 학동 721-5","building":"자민맨션","method":"address"},"29110|학동|자민맨션2동|721-6":{"city_code":"29110","dong":"학동","name":"자민맨션2동","addr":"721-6","query":"광주 학동 721-6","lat":35.132752940615,"lng":126.932774010397,"road":"광주 동구 의재로51번길 1","region":"광주 동구 학동 721-6","building":"자민맨션","method":"address"},"29110|학동|평화맨션|768":{"city_code":"29110","dong":"학동","name":"평화맨션","addr":"768","query":"광주 학동 768","lat":35.1313385246888,"lng":126.931493108753,"road":"광주 동구 학소로 125","region":"광주 동구 학동 768","building":"평화맨션","method":"address"},"29110|학동|학1마을|623":{"city_code":"29110","dong":"학동","name":"학1마을","addr":"623","query":"광주 학동 623","lat":35.1355549458627,"lng":126.927505043285,"road":"광주 동구 남문로 734","region":"광주 동구 학동 623","building":"학1마을","method":"address"},"29110|학동|학2마을아파트|1012":{"city_code":"29110","dong":"학동","name":"학2마을아파트","addr":"1012","query":"광주 학동 1012","lat":35.1308139472167,"lng":126.927794512385,"road":"광주 동구 남문로693번길 11","region":"광주 동구 학동 1012","building":"무등산리버파크","method":"address"},"29110|학동|학동남해오네뜨|1020":{"city_code":"29110","dong":"학동","name":"학동남해오네뜨","addr":"1020","query":"광주 학동 1020","lat":35.1348723469344,"lng":126.938252410512,"road":"광주 동구 증심천로 117","region":"광주 동구 학동 1020","building":"학동 남해 오네뜨","method":"address"},"29110|학동|학동대주피오레|713-1":{"city_code":"29110","dong":"학동","name":"학동대주피오레","addr":"713-1","query":"광주 학동 713-1","lat":35.1345436820112,"lng":126.934091958733,"road":"광주 동구 의재로51번길 22-2","region":"광주 동구 학동 713-1","building":"학동대주피오레-힐즈","method":"address"},"29110|학동|현대|270":{"city_code":"29110","dong":"학동","name":"현대","addr":"270","query":"광주 학동 270","lat":35.1347054799421,"lng":126.935268610901,"road":"광주 동구 증심천로89번길 16","region":"광주 동구 학동 270","building":"현대아파트","method":"address"},"29110|학동|화이트빌|259-7":{"city_code":"29110","dong":"학동","name":"화이트빌","addr":"259-7","query":"광주 학동 259-7","lat":35.134525895943,"lng":126.937964100388,"road":"광주 동구 증심천로 101","region":"광주 동구 학동 259-7","building":"화이트빌","method":"address"},"29140|광천동|e편한세상|895":{"city_code":"29140","dong":"광천동","name":"e편한세상","addr":"895","query":"광주 광천동 895","lat":35.1638596748602,"lng":126.878359713267,"road":"광주 서구 화운로 278","region":"광주 서구 광천동 895","building":"광천 e편한세상","method":"address"},"29140|광천동|남화|670":{"city_code":"29140","dong":"광천동","name":"남화","addr":"670","query":"광주 광천동 670","lat":35.1674662598669,"lng":126.879513045895,"road":"광주 서구 광천효광길 6","region":"광주 서구 광천동 670","building":"광천동남화아파트","method":"address"},"29140|광천동|대광|60-18":{"city_code":"29140","dong":"광천동","name":"대광","addr":"60-18","query":"광주 광천동 60-18","lat":35.1625284117565,"lng":126.884576560738,"road":"광주 서구 죽봉대로102번길 3","region":"광주 서구 광천동 60-18","building":"대광아파트","method":"address"},"29140|광천동|대아맨션|711-16":{"city_code":"29140","dong":"광천동","name":"대아맨션","addr":"711-16","query":"광주 광천동 711-16","lat":35.1673518926565,"lng":126.874729345389,"road":"광주 서구 칠성로153번길 16","region":"광주 서구 광천동 711-16","building":"대아맨션","method":"address"},"29140|광천동|삼화맨션|112":{"city_code":"29140","dong":"광천동","name":"삼화맨션","addr":"112","query":"광주 광천동 112","lat":35.163099991472,"lng":126.880606342615,"road":"광주 서구 죽봉대로111번길 25","region":"광주 서구 광천동 112","building":"삼화아파트","method":"address"},"29140|광천동|선우|710-60":{"city_code":"29140","dong":"광천동","name":"선우","addr":"710-60","query":"광주 광천동 710-60","lat":35.1668830391647,"lng":126.8747611283,"road":"광주 서구 칠성로153번길 10","region":"광주 서구 광천동 710-60","building":"선우아파트","method":"address"},"29140|광천동|성진맨션|106-42":{"city_code":"29140","dong":"광천동","name":"성진맨션","addr":"106-42","query":"광주 광천동 106-42","lat":35.1631912892015,"lng":126.881330196063,"road":"광주 서구 죽봉대로111번길 19","region":"광주 서구 광천동 106-42","building":"성진아파트","method":"address"},"29140|광천동|성진조합|653-6":{"city_code":"29140","dong":"광천동","name":"성진조합","addr":"653-6","query":"광주 광천동 653-6","lat":35.1679698111938,"lng":126.875553084106,"road":"광주 서구 화운로333번길 19","region":"광주 서구 광천동 653-6","building":"성진아파트","method":"address"},"29140|광천동|인동|571-1":{"city_code":"29140","dong":"광천동","name":"인동","addr":"571-1","query":"광주 광천동 571-1","lat":35.1679912472341,"lng":126.881930349729,"road":"광주 서구 광천효광길 25","region":"광주 서구 광천동 571-1","building":"인동아파트","method":"address"},"29140|광천동|호반써밋광주|896":{"city_code":"29140","dong":"광천동","name":"호반써밋광주","addr":"896","query":"광주 광천동 896","lat":35.1622287171774,"lng":126.880767975515,"road":"광주 서구 무진대로 919","region":"광주 서구 광천동 896","building":"호반 써밋 광주","method":"address"},"29140|광천동|힐스테이트광천|899":{"city_code":"29140","dong":"광천동","name":"힐스테이트광천","addr":"899","query":"광주 광천동 899","lat":35.1627464698249,"lng":126.88640904036,"road":"광주 서구 천변좌로 56","region":"광주 서구 광천동 899","building":"힐스테이트 광천","method":"address"},"29140|금호동|EG스위트밸리|1077":{"city_code":"29140","dong":"금호동","name":"EG스위트밸리","addr":"1077","query":"광주 금호동 1077","lat":35.1277578059857,"lng":126.851053510461,"road":"광주 서구 화개중앙로87번길 16-1","region":"광주 서구 금호동 1077","building":"EG스위트밸리","method":"address"},"29140|금호동|금호2지구도개공1단지|770":{"city_code":"29140","dong":"금호동","name":"금호2지구도개공1단지","addr":"770","query":"광주 금호동 770","lat":35.133549091566,"lng":126.861885001852,"road":"광주 서구 금화로115번길 12","region":"광주 서구 금호동 770","building":"금호2지구 도개공1단지아파트","method":"address"},"29140|금호동|금호2지구도시공사|767":{"city_code":"29140","dong":"금호동","name":"금호2지구도시공사","addr":"767","query":"광주 금호동 767","lat":35.1348486149729,"lng":126.860415475995,"road":"광주 서구 금화로115번길 23","region":"광주 서구 금호동 767","building":"금호2지구도시공사2단지아파트","method":"address"},"29140|금호동|금호동우미호반아파트|738-2":{"city_code":"29140","dong":"금호동","name":"금호동우미호반아파트","addr":"738-2","query":"광주 금호동 738-2","lat":35.1381269962756,"lng":126.857887786379,"road":"광주 서구 운천로 61","region":"광주 서구 금호동 738-2","building":"금호동 우미호반아파트","method":"address"},"29140|금호동|금호베스트빌|808":{"city_code":"29140","dong":"금호동","name":"금호베스트빌","addr":"808","query":"광주 금호동 808","lat":35.1303524350967,"lng":126.85747087343,"road":"광주 서구 화개1로78번길 18","region":"광주 서구 금호동 808","building":"금호베스트빌","method":"address"},"29140|금호동|금호시영1단지|741-1":{"city_code":"29140","dong":"금호동","name":"금호시영1단지","addr":"741-1","query":"광주 금호동 741-1","lat":35.1366226288309,"lng":126.85812356795,"road":"광주 서구 운천로 41","region":"광주 서구 금호동 741-1","building":"금호시영1단지 아파트","method":"address"},"29140|금호동|금호시영5단지|742-2":{"city_code":"29140","dong":"금호동","name":"금호시영5단지","addr":"742-2","query":"광주 금호동 742-2","lat":35.1362804668946,"lng":126.860135536747,"road":"광주 서구 운천로32번길 7","region":"광주 서구 금호동 742-2","building":"금호시영일반분양아파트","method":"address"},"29140|금호동|금호지구대광로제비앙|1112":{"city_code":"29140","dong":"금호동","name":"금호지구대광로제비앙","addr":"1112","query":"광주 금호동 1112","lat":35.1364718395715,"lng":126.856067023307,"road":"광주 서구 금호심곡길 21","region":"광주 서구 금호동 1112","building":"금호지구 대광로제비앙","method":"address"},"29140|금호동|남양파크|805":{"city_code":"29140","dong":"금호동","name":"남양파크","addr":"805","query":"광주 금호동 805","lat":35.1314869682256,"lng":126.856619672197,"road":"광주 서구 풍금로151번길 17","region":"광주 서구 금호동 805","building":"마재마을남양파크아파트","method":"address"},"29140|금호동|대주|743-2":{"city_code":"29140","dong":"금호동","name":"대주","addr":"743-2","query":"광주 금호동 743-2","lat":35.1376399942427,"lng":126.862025127366,"road":"광주 서구 운천로56번길 24","region":"광주 서구 금호동 743-2","building":"금호지구 대주아파트","method":"address"},"29140|금호동|대주파크빌|813":{"city_code":"29140","dong":"금호동","name":"대주파크빌","addr":"813","query":"광주 금호동 813","lat":35.1276106807937,"lng":126.856336383311,"road":"광주 서구 풍금로 117","region":"광주 서구 금호동 813","building":"대주파크빌아파트","method":"address"},"29140|금호동|라인|739-1":{"city_code":"29140","dong":"금호동","name":"라인","addr":"739-1","query":"광주 금호동 739-1","lat":35.1390417796242,"lng":126.859814904005,"road":"광주 서구 금부로 100","region":"광주 서구 금호동 739-1","building":"금호동 라인아파트","method":"address"},"29140|금호동|로렌시아|240-10":{"city_code":"29140","dong":"금호동","name":"로렌시아","addr":"240-10","query":"광주 금호동 240-10","lat":35.1309852856153,"lng":126.850954592627,"road":"광주 서구 화개중앙로 146","region":"광주 서구 금호동 240-10","building":"로렌시아","method":"address"},"29140|금호동|마재마을주은|786":{"city_code":"29140","dong":"금호동","name":"마재마을주은","addr":"786","query":"광주 금호동 786","lat":35.1307262062592,"lng":126.864200866178,"road":"광주 서구 마재로 57","region":"광주 서구 금호동 786","building":"마재마을주은아파트","method":"address"},"29140|금호동|매월동아델리움로제비앙|1110":{"city_code":"29140","dong":"금호동","name":"매월동아델리움로제비앙","addr":"1110","query":"광주 금호동 1110","lat":35.1263632763366,"lng":126.851249142572,"road":"광주 서구 화개중앙로87번길 15","region":"광주 서구 금호동 1110","building":"아델리움로제비앙 아파트","method":"address"},"29140|금호동|명지|738-1":{"city_code":"29140","dong":"금호동","name":"명지","addr":"738-1","query":"광주 금호동 738-1","lat":35.1390554263891,"lng":126.857834271033,"road":"광주 서구 운천로 69","region":"광주 서구 금호동 738-1","building":"일신명지아파트","method":"address"},"29140|금호동|모아엘가|769":{"city_code":"29140","dong":"금호동","name":"모아엘가","addr":"769","query":"광주 금호동 769","lat":35.1348451208694,"lng":126.862802076017,"road":"광주 서구 금화로149번길 25","region":"광주 서구 금호동 769","building":"모아아파트","method":"address"},"29140|금호동|부영(마재마을)|818":{"city_code":"29140","dong":"금호동","name":"부영(마재마을)","addr":"818","query":"광주 금호동 818","lat":35.1253854311485,"lng":126.85751309853,"road":"광주 서구 화개1로24번길 10","region":"광주 서구 금호동 818","building":"풍암부영1차아파트(마재마을)","method":"address"},"29140|금호동|삼능공간|740-2":{"city_code":"29140","dong":"금호동","name":"삼능공간","addr":"740-2","query":"광주 금호동 740-2","lat":35.1383067644482,"lng":126.861658498185,"road":"광주 서구 운천로56번길 17","region":"광주 서구 금호동 740-2","building":"금호동 삼능공간아파트","method":"address"},"29140|금호동|송촌파인힐|785":{"city_code":"29140","dong":"금호동","name":"송촌파인힐","addr":"785","query":"광주 금호동 785","lat":35.1318209077696,"lng":126.864277827228,"road":"광주 서구 마재로 65","region":"광주 서구 금호동 785","building":"마재마을송촌파인힐아파트","method":"address"},"29140|금호동|쌍용예가|931":{"city_code":"29140","dong":"금호동","name":"쌍용예가","addr":"931","query":"광주 금호동 931","lat":35.133098021313,"lng":126.852898510948,"road":"광주 서구 금화로 25","region":"광주 서구 금호동 931","building":"금호동 쌍용예가 만호마을","method":"address"},"29140|금호동|이지더원|206-20":{"city_code":"29140","dong":"금호동","name":"이지더원","addr":"206-20","query":"광주 금호동 206-20","lat":35.1291149278739,"lng":126.851960253576,"road":"광주 서구 화개중앙로 116","region":"광주 서구 금호동 206-20","building":"이지더원아파트","method":"address"},"29140|금호동|일신|738-1":{"city_code":"29140","dong":"금호동","name":"일신","addr":"738-1","query":"광주 금호동 738-1","lat":35.1390554263891,"lng":126.857834271033,"road":"광주 서구 운천로 69","region":"광주 서구 금호동 738-1","building":"일신명지아파트","method":"address"},"29140|금호동|종원팰리스빌|240-2":{"city_code":"29140","dong":"금호동","name":"종원팰리스빌","addr":"240-2","query":"광주 금호동 240-2","lat":35.1298984352836,"lng":126.85243862704,"road":"광주 서구 화개1로 59-2","region":"광주 서구 금호동 240-2","building":"종원팰리스빌아파트","method":"address"},"29140|금호동|중흥|787":{"city_code":"29140","dong":"금호동","name":"중흥","addr":"787","query":"광주 금호동 787","lat":35.1314469845548,"lng":126.861930134885,"road":"광주 서구 마재로 19","region":"광주 서구 금호동 787","building":"중흥아파트","method":"address"},"29140|금호동|진흥더루벤스|268-1":{"city_code":"29140","dong":"금호동","name":"진흥더루벤스","addr":"268-1","query":"광주 금호동 268-1","lat":35.1337123141168,"lng":126.856139139252,"road":"광주 서구 금화로59번길 12","region":"광주 서구 금호동 268-1","building":"금호동 진흥 더루벤스","method":"address"},"29140|금호동|진흥더블파크|613-6":{"city_code":"29140","dong":"금호동","name":"진흥더블파크","addr":"613-6","query":"광주 금호동 613-6","lat":35.1281212755464,"lng":126.853526908023,"road":"광주 서구 화개중앙로114번길 19","region":"광주 서구 금호동 613-6","building":"진흥더블파크아파트","method":"address"},"29140|금호동|코아루|447-9":{"city_code":"29140","dong":"금호동","name":"코아루","addr":"447-9","query":"광주 금호동 447-9","lat":35.1389529189304,"lng":126.856286722801,"road":"광주 서구 금호운천길 41","region":"광주 서구 금호동 447-9","building":"금호동 코아루","method":"address"},"29140|금호동|한국|739-2":{"city_code":"29140","dong":"금호동","name":"한국","addr":"739-2","query":"광주 금호동 739-2","lat":35.1381156413097,"lng":126.859902408548,"road":"광주 서구 운천로 58","region":"광주 서구 금호동 739-2","building":"한국아파트","method":"address"},"29140|금호동|한국APT(2차)|771":{"city_code":"29140","dong":"금호동","name":"한국APT(2차)","addr":"771","query":"광주 금호동 771","lat":35.1336743463165,"lng":126.860516778357,"road":"광주 서구 금화로115번길 9","region":"광주 서구 금호동 771","building":"한국아파트","method":"address"},"29140|금호동|해광대덕무지개|742-1":{"city_code":"29140","dong":"금호동","name":"해광대덕무지개","addr":"742-1","query":"광주 금호동 742-1","lat":35.1373237003798,"lng":126.85997673356,"road":"광주 서구 운천로 54","region":"광주 서구 금호동 742-1","building":"해광대덕 무지개아파트","method":"address"},"29140|금호동|호반리젠시빌2차|815":{"city_code":"29140","dong":"금호동","name":"호반리젠시빌2차","addr":"815","query":"광주 금호동 815","lat":35.1265090673622,"lng":126.854625490551,"road":"광주 서구 화개1로 31","region":"광주 서구 금호동 815","building":"호반리젠시빌아파트","method":"address"},"29140|금호동|호반리젠시빌3차|770-1":{"city_code":"29140","dong":"금호동","name":"호반리젠시빌3차","addr":"770-1","query":"광주 금호동 770-1","lat":35.1335163034725,"lng":126.863415125443,"road":"광주 서구 금화로149번길 11","region":"광주 서구 금호동 770-1","building":"금부마을 호반리젠시빌","method":"address"},"29140|금호동|호반리젠시빌5차|809":{"city_code":"29140","dong":"금호동","name":"호반리젠시빌5차","addr":"809","query":"광주 금호동 809","lat":35.1298967499876,"lng":126.856059063984,"road":"광주 서구 화개1로78번길 10","region":"광주 서구 금호동 809","building":"금호5차호반리젠시빌아파트","method":"address"},"29140|내방동|개나리|311":{"city_code":"29140","dong":"내방동","name":"개나리","addr":"311","query":"광주 내방동 311","lat":35.1572252380154,"lng":126.874573216853,"road":"광주 서구 내방로 310","region":"광주 서구 내방동 311","building":"개나리아파트","method":"address"},"29140|내방동|내방마을주공|848":{"city_code":"29140","dong":"내방동","name":"내방마을주공","addr":"848","query":"광주 내방동 848","lat":35.1550251093043,"lng":126.873015282679,"road":"광주 서구 화운로193번길 25","region":"광주 서구 내방동 848","building":"화정 센트럴파크","method":"address"},"29140|내방동|솔뫼타운|475-1":{"city_code":"29140","dong":"내방동","name":"솔뫼타운","addr":"475-1","query":"광주 내방동 475-1","lat":35.1567753178284,"lng":126.871598177783,"road":"광주 서구 내방로278번길 7","region":"광주 서구 내방동 475-1","building":"솔뫼타운아파트","method":"address"},"29140|내방동|한성|841-9":{"city_code":"29140","dong":"내방동","name":"한성","addr":"841-9","query":"광주 내방동 841-9","lat":35.1520335370209,"lng":126.871090916429,"road":"광주 서구 상무대로 997","region":"광주 서구 내방동 841-9","building":"한성아파트","method":"address"},"29140|내방동|해태(385-1)|385-1":{"city_code":"29140","dong":"내방동","name":"해태(385-1)","addr":"385-1","query":"광주 내방동 385-1","lat":35.1557846343988,"lng":126.870835644157,"road":"광주 서구 월드컵4강로226번길 14","region":"광주 서구 내방동 385-1","building":"해태아파트","method":"address"},"29140|내방동|해태(590-3)|590-3":{"city_code":"29140","dong":"내방동","name":"해태(590-3)","addr":"590-3","query":"광주 내방동 590-3","lat":35.1572507370236,"lng":126.873351072352,"road":"광주 서구 내방로 304","region":"광주 서구 내방동 590-3","building":"해태아파트","method":"address"},"29140|농성동|농성SKVIEWCentral|702":{"city_code":"29140","dong":"농성동","name":"농성SKVIEWCentral","addr":"702","query":"광주 농성동 702","lat":35.1553066246725,"lng":126.88647700157,"road":"광주 서구 상무대로1147번길 16","region":"광주 서구 농성동 702","building":"농성 SK VIEW Central","method":"address"},"29140|농성동|농성동유탑유블레스|112-1":{"city_code":"29140","dong":"농성동","name":"농성동유탑유블레스","addr":"112-1","query":"광주 농성동 112-1","lat":35.1522648956677,"lng":126.891494681592,"road":"광주 서구 경열로45번길 13","region":"광주 서구 농성동 112-1","building":"농성동 유탑 유블레스","method":"address"},"29140|농성동|더리미티드|415-55":{"city_code":"29140","dong":"농성동","name":"더리미티드","addr":"415-55","query":"광주 농성동 415-55","lat":35.1603886250036,"lng":126.885758930514,"road":"광주 서구 죽봉대로78번길 19","region":"광주 서구 농성동 415-55","building":"더 리미티드 광주","method":"address"},"29140|농성동|동산|414":{"city_code":"29140","dong":"농성동","name":"동산","addr":"414","query":"광주 농성동 414","lat":35.1586421688819,"lng":126.886544696527,"road":"광주 서구 내방로418번길 11","region":"광주 서구 농성동 414","building":"동산아파트","method":"address"},"29140|농성동|무등맨션|471":{"city_code":"29140","dong":"농성동","name":"무등맨션","addr":"471","query":"광주 농성동 471","lat":35.157722634688,"lng":126.885049255723,"road":"광주 서구 내방로404번길 7","region":"광주 서구 농성동 471","building":"무등아파트","method":"address"},"29140|농성동|빌리브트레비체|260-7":{"city_code":"29140","dong":"농성동","name":"빌리브트레비체","addr":"260-7","query":"광주 농성동 260-7","lat":35.1543148351608,"lng":126.887709440373,"road":"광주 서구 상무대로 1153","region":"광주 서구 농성동 260-7","building":"빌리브 트레비체","method":"address"},"29140|농성동|삼익|422-3":{"city_code":"29140","dong":"농성동","name":"삼익","addr":"422-3","query":"광주 농성동 422-3","lat":35.1593746313442,"lng":126.886756606894,"road":"광주 서구 내방로 430","region":"광주 서구 농성동 422-3","building":"삼익아파트","method":"address"},"29140|농성동|세종|380-5":{"city_code":"29140","dong":"농성동","name":"세종","addr":"380-5","query":"광주 농성동 380-5","lat":35.1573455926828,"lng":126.886865111585,"road":"광주 서구 월산로255번길 22-1","region":"광주 서구 농성동 380-5","building":"세종아파트","method":"address"},"29140|농성동|제일파크맨션|117":{"city_code":"29140","dong":"농성동","name":"제일파크맨션","addr":"117","query":"광주 농성동 117","lat":35.1520326437507,"lng":126.89243661514,"road":"광주 서구 경열로65번길 7","region":"광주 서구 농성동 117","building":"제일파크","method":"address"},"29140|농성동|중흥파크맨션|20":{"city_code":"29140","dong":"농성동","name":"중흥파크맨션","addr":"20","query":"광주 농성동 20","lat":35.1560532122995,"lng":126.892800748401,"road":"광주 서구 월산로 210","region":"광주 서구 농성동 20","building":"중흥 아파트","method":"address"},"29140|농성동|코스모스|470":{"city_code":"29140","dong":"농성동","name":"코스모스","addr":"470","query":"광주 농성동 470","lat":35.1578503165829,"lng":126.88472178869,"road":"광주 서구 내방로404번길 5","region":"광주 서구 농성동 470","building":"코스모스아파트","method":"address"},"29140|농성동|평화맨션|125-4":{"city_code":"29140","dong":"농성동","name":"평화맨션","addr":"125-4","query":"광주 농성동 125-4","lat":35.1523420526727,"lng":126.893527421825,"road":"광주 서구 경열로75번길 11","region":"광주 서구 농성동 125-4","building":"평화맨션","method":"address"},"29140|동천동|동천 리버팰리스|515":{"city_code":"29140","dong":"동천동","name":"동천 리버팰리스","addr":"515","query":"광주 동천동 515","lat":35.1709842502575,"lng":126.862016243518,"road":"광주 서구 동천로18번길 15","region":"광주 서구 동천동 515","building":"동천 리버팰리스","method":"address"},"29140|동천동|동천마을2단지휴먼시아|506":{"city_code":"29140","dong":"동천동","name":"동천마을2단지휴먼시아","addr":"506","query":"광주 동천동 506","lat":35.1693910659042,"lng":126.858238462976,"road":"광주 서구 동천로 11","region":"광주 서구 동천동 506","building":"동천 센트럴파크","method":"address"},"29140|동천동|동천센트럴파크|506":{"city_code":"29140","dong":"동천동","name":"동천센트럴파크","addr":"506","query":"광주 동천동 506","lat":35.1693910659042,"lng":126.858238462976,"road":"광주 서구 동천로 11","region":"광주 서구 동천동 506","building":"동천 센트럴파크","method":"address"},"29140|동천동|우미린|648":{"city_code":"29140","dong":"동천동","name":"우미린","addr":"648","query":"광주 동천동 648","lat":35.1696373238314,"lng":126.868556099264,"road":"광주 서구 하남대로710번길 16","region":"광주 서구 동천동 648","building":"우미린","method":"address"},"29140|동천동|호반베르디움|615":{"city_code":"29140","dong":"동천동","name":"호반베르디움","addr":"615","query":"광주 동천동 615","lat":35.1700425478579,"lng":126.865250690803,"road":"광주 서구 유림로 88","region":"광주 서구 동천동 615","building":"호반베르디움","method":"address"},"29140|동천동|휴먼시아3단지|515":{"city_code":"29140","dong":"동천동","name":"휴먼시아3단지","addr":"515","query":"광주 동천동 515","lat":35.1709842502575,"lng":126.862016243518,"road":"광주 서구 동천로18번길 15","region":"광주 서구 동천동 515","building":"동천 리버팰리스","method":"address"},"29140|마륵동|광주상무역골드클래스아파트|815":{"city_code":"29140","dong":"마륵동","name":"광주상무역골드클래스아파트","addr":"815","query":"광주 마륵동 815","lat":35.1444189139771,"lng":126.850442987342,"road":"광주 서구 북촌길 31","region":"광주 서구 마륵동 815","building":"광주 상무역 골드클래스 아파트","method":"address"},"29140|마륵동|상무양우내안애|812":{"city_code":"29140","dong":"마륵동","name":"상무양우내안애","addr":"812","query":"광주 마륵동 812","lat":35.1416225685236,"lng":126.851058763698,"road":"광주 서구 백석길 12","region":"광주 서구 마륵동 812","building":"","method":"address"},"29140|마륵동|상무자이|1":{"city_code":"29140","dong":"마륵동","name":"상무자이","addr":"1","query":"광주 마륵동 1","lat":35.1411635399654,"lng":126.852709638129,"road":"광주 서구 백석길 22-17","region":"광주 서구 마륵동 1","building":"상무자이","method":"address"},"29140|마륵동|한신휴플러스|803":{"city_code":"29140","dong":"마륵동","name":"한신휴플러스","addr":"803","query":"광주 마륵동 803","lat":35.1455626887829,"lng":126.851132681948,"road":"광주 서구 마륵복개로 98","region":"광주 서구 마륵동 803","building":"상무 한신휴플러스","method":"address"},"29140|마륵동|효성해링턴플레이스상무역|820":{"city_code":"29140","dong":"마륵동","name":"효성해링턴플레이스상무역","addr":"820","query":"광주 마륵동 820","lat":35.1439696439666,"lng":126.851737482704,"road":"광주 서구 신기길 10","region":"광주 서구 마륵동 820","building":"효성해링턴 플레이스 상무역","method":"address"},"29140|마륵동|희망가|100":{"city_code":"29140","dong":"마륵동","name":"희망가","addr":"100","query":"광주 마륵동 100","lat":35.1431367180683,"lng":126.851460925845,"road":"광주 서구 백석길 15","region":"광주 서구 마륵동 100","building":"희망가아파트","method":"address"},"29140|쌍촌동|광명중흥|1232-1":{"city_code":"29140","dong":"쌍촌동","name":"광명중흥","addr":"1232-1","query":"광주 쌍촌동 1232-1","lat":35.1445393898065,"lng":126.86786013197,"road":"광주 서구 화정로 96","region":"광주 서구 쌍촌동 1232-1","building":"광명 중흥아파트","method":"address"},"29140|쌍촌동|광명하이츠|96":{"city_code":"29140","dong":"쌍촌동","name":"광명하이츠","addr":"96","query":"광주 쌍촌동 96","lat":35.1595777367483,"lng":126.866759543303,"road":"광주 서구 내방로251번길 10","region":"광주 서구 쌍촌동 96","building":"광명하이츠타운","method":"address"},"29140|쌍촌동|광천모아엘가|1389":{"city_code":"29140","dong":"쌍촌동","name":"광천모아엘가","addr":"1389","query":"광주 쌍촌동 1389","lat":35.1666546083691,"lng":126.867121316006,"road":"광주 서구 칠성로 85","region":"광주 서구 쌍촌동 1389","building":"","method":"address"},"29140|쌍촌동|대건맨션|282-9":{"city_code":"29140","dong":"쌍촌동","name":"대건맨션","addr":"282-9","query":"광주 쌍촌동 282-9","lat":35.1560057141614,"lng":126.869635268165,"road":"광주 서구 월드컵4강로 220","region":"광주 서구 쌍촌동 282-9","building":"대건맨션","method":"address"},"29140|쌍촌동|대림|965-13":{"city_code":"29140","dong":"쌍촌동","name":"대림","addr":"965-13","query":"광주 쌍촌동 965-13","lat":35.1513902646719,"lng":126.860614076656,"road":"광주 서구 상무민주로6번길 18","region":"광주 서구 쌍촌동 965-13","building":"대림아파트","method":"address"},"29140|쌍촌동|대주|1233-10":{"city_code":"29140","dong":"쌍촌동","name":"대주","addr":"1233-10","query":"광주 쌍촌동 1233-10","lat":35.1443114268654,"lng":126.869767055974,"road":"광주 서구 화정로 106-15","region":"광주 서구 쌍촌동 1233-10","building":"백일대주아파트","method":"address"},"29140|쌍촌동|동남|1135":{"city_code":"29140","dong":"쌍촌동","name":"동남","addr":"1135","query":"광주 쌍촌동 1135","lat":35.1672883275522,"lng":126.861545000545,"road":"광주 서구 칠성로35번길 6-10","region":"광주 서구 쌍촌동 1135","building":"동남아파트","method":"address"},"29140|쌍촌동|명지|879":{"city_code":"29140","dong":"쌍촌동","name":"명지","addr":"879","query":"광주 쌍촌동 879","lat":35.1458504404475,"lng":126.858305961969,"road":"광주 서구 운천로154번길 12","region":"광주 서구 쌍촌동 879","building":"쌍촌동명지아파트","method":"address"},"29140|쌍촌동|명지맨션|966-2":{"city_code":"29140","dong":"쌍촌동","name":"명지맨션","addr":"966-2","query":"광주 쌍촌동 966-2","lat":35.1511611128161,"lng":126.859576606003,"road":"광주 서구 상무대로 899-1","region":"광주 서구 쌍촌동 966-2","building":"명지맨션","method":"address"},"29140|쌍촌동|모아제일|1282":{"city_code":"29140","dong":"쌍촌동","name":"모아제일","addr":"1282","query":"광주 쌍촌동 1282","lat":35.1587606431213,"lng":126.862077387847,"road":"광주 서구 내방로 185","region":"광주 서구 쌍촌동 1282","building":"모아제일아파트","method":"address"},"29140|쌍촌동|부건빛고을|11":{"city_code":"29140","dong":"쌍촌동","name":"부건빛고을","addr":"11","query":"광주 쌍촌동 11","lat":35.1664686828892,"lng":126.869131212308,"road":"광주 서구 천변좌하로 532","region":"광주 서구 쌍촌동 11","building":"부건빛고을아파트","method":"address"},"29140|쌍촌동|빛고을파크|1228-1":{"city_code":"29140","dong":"쌍촌동","name":"빛고을파크","addr":"1228-1","query":"광주 쌍촌동 1228-1","lat":35.1458172750244,"lng":126.869046201467,"road":"광주 서구 화정로 103","region":"광주 서구 쌍촌동 1228-1","building":"빛고을파크","method":"address"},"29140|쌍촌동|삼우|6-2":{"city_code":"29140","dong":"쌍촌동","name":"삼우","addr":"6-2","query":"광주 쌍촌동 6-2","lat":35.1665489680882,"lng":126.870786574471,"road":"광주 서구 천변좌하로 546","region":"광주 서구 쌍촌동 6-2","building":"삼우아파트","method":"address"},"29140|쌍촌동|상무|968-1":{"city_code":"29140","dong":"쌍촌동","name":"상무","addr":"968-1","query":"광주 쌍촌동 968-1","lat":35.1515790350885,"lng":126.859232822394,"road":"광주 서구 상무민주로6번길 9","region":"광주 서구 쌍촌동 968-1","building":"쌍촌동 상무아파트","method":"address"},"29140|쌍촌동|상무센트럴자이|1393":{"city_code":"29140","dong":"쌍촌동","name":"상무센트럴자이","addr":"1393","query":"광주 쌍촌동 1393","lat":35.1534142203393,"lng":126.860572432523,"road":"광주 서구 상무민주로32번길 10","region":"광주 서구 쌍촌동 1393","building":"상무센트럴자이","method":"address"},"29140|쌍촌동|상무엘리체|1380":{"city_code":"29140","dong":"쌍촌동","name":"상무엘리체","addr":"1380","query":"광주 쌍촌동 1380","lat":35.1547796706814,"lng":126.868454555932,"road":"광주 서구 월드컵4강로 205","region":"광주 서구 쌍촌동 1380","building":"상무엘리체","method":"address"},"29140|쌍촌동|상무지오스테이션|1378":{"city_code":"29140","dong":"쌍촌동","name":"상무지오스테이션","addr":"1378","query":"광주 쌍촌동 1378","lat":35.1614009334635,"lng":126.864500582145,"road":"광주 서구 무진대로772번길 4","region":"광주 서구 쌍촌동 1378","building":"상무 지오스테이션","method":"address"},"29140|쌍촌동|상무푸르지오|904":{"city_code":"29140","dong":"쌍촌동","name":"상무푸르지오","addr":"904","query":"광주 쌍촌동 904","lat":35.1426452722397,"lng":126.855164458955,"road":"광주 서구 금호운천길 83","region":"광주 서구 쌍촌동 904","building":"상무 푸르지오","method":"address"},"29140|쌍촌동|상무한국아델리움|1385":{"city_code":"29140","dong":"쌍촌동","name":"상무한국아델리움","addr":"1385","query":"광주 쌍촌동 1385","lat":35.1585955822556,"lng":126.867303665306,"road":"광주 서구 내방로 247","region":"광주 서구 쌍촌동 1385","building":"상무 한국아델리움","method":"address"},"29140|쌍촌동|상무힐스테이트|364":{"city_code":"29140","dong":"쌍촌동","name":"상무힐스테이트","addr":"364","query":"광주 쌍촌동 364","lat":35.1544484333897,"lng":126.862776966966,"road":"광주 서구 상무대로911번길 42","region":"광주 서구 쌍촌동 364","building":"상무 힐스테이트","method":"address"},"29140|쌍촌동|성우|891-2":{"city_code":"29140","dong":"쌍촌동","name":"성우","addr":"891-2","query":"광주 쌍촌동 891-2","lat":35.1462305245221,"lng":126.854411335573,"road":"광주 서구 마륵복개로 164","region":"광주 서구 쌍촌동 891-2","building":"성우아파트","method":"address"},"29140|쌍촌동|성우행복한집|890-5":{"city_code":"29140","dong":"쌍촌동","name":"성우행복한집","addr":"890-5","query":"광주 쌍촌동 890-5","lat":35.1451465134229,"lng":126.854607720398,"road":"광주 서구 마륵복개로 166","region":"광주 서구 쌍촌동 890-5","building":"성우행복한집","method":"address"},"29140|쌍촌동|신천파크맨션|963-2":{"city_code":"29140","dong":"쌍촌동","name":"신천파크맨션","addr":"963-2","query":"광주 쌍촌동 963-2","lat":35.1528919537675,"lng":126.863965623084,"road":"광주 서구 상무대로935번길 15","region":"광주 서구 쌍촌동 963-2","building":"신천맨션","method":"address"},"29140|쌍촌동|신천힐탑맨션|137-4":{"city_code":"29140","dong":"쌍촌동","name":"신천힐탑맨션","addr":"137-4","query":"광주 쌍촌동 137-4","lat":35.1558367562411,"lng":126.865554204788,"road":"광주 서구 상무오월로51번길 2","region":"광주 서구 쌍촌동 137-4","building":"신천힐탑맨션","method":"address"},"29140|쌍촌동|쌍촌|323-11":{"city_code":"29140","dong":"쌍촌동","name":"쌍촌","addr":"323-11","query":"광주 쌍촌동 쌍촌","lat":35.14706922459174,"lng":126.86967728507929,"road":"광주 서구 쌍학로 47","region":"광주 서구 쌍촌동 1229","building":"쌍촌주공아파트","method":"keyword"},"29140|쌍촌동|쌍촌2차명지|877":{"city_code":"29140","dong":"쌍촌동","name":"쌍촌2차명지","addr":"877","query":"광주 쌍촌동 877","lat":35.1466227409353,"lng":126.85762632527,"road":"광주 서구 운천로154번길 3","region":"광주 서구 쌍촌동 877","building":"쌍촌2차 명지아파트","method":"address"},"29140|쌍촌동|쌍촌아너팰리스|278-1":{"city_code":"29140","dong":"쌍촌동","name":"쌍촌아너팰리스","addr":"278-1","query":"광주 쌍촌동 278-1","lat":35.1568266986472,"lng":126.869576008917,"road":"광주 서구 월드컵4강로 232","region":"광주 서구 쌍촌동 278-1","building":"쌍촌 아너팰리스","method":"address"},"29140|쌍촌동|쌍촌현대|969-12":{"city_code":"29140","dong":"쌍촌동","name":"쌍촌현대","addr":"969-12","query":"광주 쌍촌동 969-12","lat":35.1512707299996,"lng":126.857578830839,"road":"광주 서구 상무민주로5번길 6","region":"광주 서구 쌍촌동 969-12","building":"쌍촌 현대아파트","method":"address"},"29140|쌍촌동|쌍촌현대(951-5)|951-5":{"city_code":"29140","dong":"쌍촌동","name":"쌍촌현대(951-5)","addr":"951-5","query":"광주 쌍촌동 951-5","lat":35.1535915596351,"lng":126.868013632722,"road":"광주 서구 월드컵4강로197번길 13","region":"광주 서구 쌍촌동 951-5","building":"쌍촌현대아파트","method":"address"},"29140|쌍촌동|용산그린|543-1":{"city_code":"29140","dong":"쌍촌동","name":"용산그린","addr":"543-1","query":"광주 쌍촌동 543-1","lat":35.1476480873265,"lng":126.860066816444,"road":"광주 서구 운천로162번길 27","region":"광주 서구 쌍촌동 543-1","building":"용산상가","method":"address"},"29140|쌍촌동|우미아트빌2|1337":{"city_code":"29140","dong":"쌍촌동","name":"우미아트빌2","addr":"1337","query":"광주 쌍촌동 1337","lat":35.160911637051,"lng":126.860808791299,"road":"광주 서구 상무민주로 120","region":"광주 서구 쌍촌동 1337","building":"우미 아트빌","method":"address"},"29140|쌍촌동|일신|452-22":{"city_code":"29140","dong":"쌍촌동","name":"일신","addr":"452-22","query":"광주 쌍촌동 452-22","lat":35.1478398648802,"lng":126.868654149531,"road":"광주 서구 월드컵4강로 135-1","region":"광주 서구 쌍촌동 452-22","building":"일신아파트","method":"address"},"29140|쌍촌동|중흥에스-클래스|1337-3":{"city_code":"29140","dong":"쌍촌동","name":"중흥에스-클래스","addr":"1337-3","query":"광주 쌍촌동 1337-3","lat":35.1596322580702,"lng":126.860660274795,"road":"광주 서구 상무민주로 100","region":"광주 서구 쌍촌동 1337-3","building":"중흥에스-클래스","method":"address"},"29140|쌍촌동|진성|1-2":{"city_code":"29140","dong":"쌍촌동","name":"진성","addr":"1-2","query":"광주 쌍촌동 1-2","lat":35.1664775390532,"lng":126.871765470021,"road":"광주 서구 칠성로 131-1","region":"광주 서구 쌍촌동 1-2","building":"진성아파트","method":"address"},"29140|쌍촌동|포레스힐(도시형생활주택)|970-6":{"city_code":"29140","dong":"쌍촌동","name":"포레스힐(도시형생활주택)","addr":"970-6","query":"광주 쌍촌동 970-6","lat":35.150883225629,"lng":126.857417303031,"road":"광주 서구 상무민주로5번길 9","region":"광주 서구 쌍촌동 970-6","building":"(자)자연주택","method":"address"},"29140|쌍촌동|현대|155":{"city_code":"29140","dong":"쌍촌동","name":"현대","addr":"155","query":"광주 쌍촌동 155","lat":35.1566595102019,"lng":126.866444482177,"road":"광주 서구 내방로240번길 10","region":"광주 서구 쌍촌동 155","building":"현대아파트","method":"address"},"29140|쌍촌동|현대맨션|970-2":{"city_code":"29140","dong":"쌍촌동","name":"현대맨션","addr":"970-2","query":"광주 쌍촌동 970-2","lat":35.1509693988208,"lng":126.857957208113,"road":"광주 서구 상무민주로5번길 5","region":"광주 서구 쌍촌동 970-2","building":"쌍촌현대맨션","method":"address"},"29140|쌍촌동|호반리젠시빌|1337-2":{"city_code":"29140","dong":"쌍촌동","name":"호반리젠시빌","addr":"1337-2","query":"광주 쌍촌동 1337-2","lat":35.1603960435406,"lng":126.862531219455,"road":"광주 서구 상일로 53","region":"광주 서구 쌍촌동 1337-2","building":"호반리젠시빌","method":"address"},"29140|쌍촌동|흥국|983-10":{"city_code":"29140","dong":"쌍촌동","name":"흥국","addr":"983-10","query":"광주 쌍촌동 983-10","lat":35.1494840528836,"lng":126.859508154117,"road":"광주 서구 운천로184번길 27","region":"광주 서구 쌍촌동 983-10","building":"흥국아파트","method":"address"},"29140|양동|그린파크|321-20":{"city_code":"29140","dong":"양동","name":"그린파크","addr":"321-20","query":"광주 양동 321-20","lat":35.1553080891035,"lng":126.895937858654,"road":"광주 서구 상무대로1224번길 14","region":"광주 서구 양동 321-20","building":"그린파크","method":"address"},"29140|양동|금호1차|61":{"city_code":"29140","dong":"양동","name":"금호1차","addr":"61","lat":35.1502854584012,"lng":126.904155752903,"road":"광주 서구 독립로185번길 2","region":"광주 서구 양동 61","building":"금호아파트","query":"광주광역시 서구 양동 61","method":"address"},"29140|양동|금호2차|60-2":{"city_code":"29140","dong":"양동","name":"금호2차","addr":"60-2","lat":35.1514757196451,"lng":126.903832911758,"road":"광주 서구 천변좌로 264","region":"광주 서구 양동 60-2","building":"금호아파트","query":"광주광역시 서구 양동 60-2","method":"address"},"29140|양동|동산|420-5":{"city_code":"29140","dong":"양동","name":"동산","addr":"420-5","query":"광주 양동 420-5","lat":35.1579871385583,"lng":126.893481213825,"road":"광주 서구 발산로 27","region":"광주 서구 양동 420-5","building":"동산아파트","method":"address"},"29140|양동|삼익맨션|61-3":{"city_code":"29140","dong":"양동","name":"삼익맨션","addr":"61-3","query":"광주 양동 61-3","lat":35.1513452607007,"lng":126.905626308697,"road":"광주 서구 천변좌로 282","region":"광주 서구 양동 61-3","building":"삼익맨션","method":"address"},"29140|양동|양동CENTRALVIEW|460":{"city_code":"29140","dong":"양동","name":"양동CENTRALVIEW","addr":"460","lat":35.1574230244939,"lng":126.895292776627,"road":"광주 서구 발산로 34","region":"광주 서구 양동 460","building":"양동 CENTRAL VIEW","query":"광주광역시 서구 양동 460","method":"address"},"29140|양동|양동휴먼시아|460":{"city_code":"29140","dong":"양동","name":"양동휴먼시아","addr":"460","lat":35.1574230244939,"lng":126.895292776627,"road":"광주 서구 발산로 34","region":"광주 서구 양동 460","building":"양동 CENTRAL VIEW","query":"광주광역시 서구 양동 460","method":"address"},"29140|양동|우진|61-2":{"city_code":"29140","dong":"양동","name":"우진","addr":"61-2","query":"광주 양동 61-2","lat":35.1507582984199,"lng":126.90493921554,"road":"광주 서구 독립로 195","region":"광주 서구 양동 61-2","building":"우진아파트","method":"address"},"29140|양동|전방사원|420":{"city_code":"29140","dong":"양동","name":"전방사원","addr":"420","lat":35.1583694510001,"lng":126.893021829635,"road":"광주 서구 천변좌로140번길 20","region":"광주 서구 양동 420","building":"","query":"광주광역시 서구 양동 420","method":"address"},"29140|양동|초원파크|439-116":{"city_code":"29140","dong":"양동","name":"초원파크","addr":"439-116","query":"광주 양동 439-116","lat":35.1599071001787,"lng":126.8909219192,"road":"광주 서구 천변좌로108번길 4","region":"광주 서구 양동 439-116","building":"초원파크맨션","method":"address"},"29140|유촌동|버들마을|864":{"city_code":"29140","dong":"유촌동","name":"버들마을","addr":"864","query":"광주 유촌동 864","lat":35.1655520186789,"lng":126.860503203494,"road":"광주 서구 상무버들로40번길 14","region":"광주 서구 유촌동 864","building":"상무버들마을1주공아파트","method":"address"},"29140|유촌동|상무버들마을주공2|871":{"city_code":"29140","dong":"유촌동","name":"상무버들마을주공2","addr":"871","query":"광주 유촌동 871","lat":35.1635515637774,"lng":126.861699182962,"road":"광주 서구 상무버들로 15","region":"광주 서구 유촌동 871","building":"상무버들마을2단지아파트","method":"address"},"29140|유촌동|유촌동다이아빌|820-2":{"city_code":"29140","dong":"유촌동","name":"유촌동다이아빌","addr":"820-2","query":"광주 유촌동 820-2","lat":35.1670719778553,"lng":126.860424539604,"road":"광주 서구 칠성로35번길 6-9","region":"광주 서구 유촌동 820-2","building":"유촌동다이아빌","method":"address"},"29140|유촌동|호반리젠시빌|852":{"city_code":"29140","dong":"유촌동","name":"호반리젠시빌","addr":"852","query":"광주 유촌동 852","lat":35.1637274716198,"lng":126.858235778268,"road":"광주 서구 상무버들로 41","region":"광주 서구 유촌동 852","building":"상무버들마을호반리젠시빌","method":"address"},"29140|치평동|갤러리303|1330":{"city_code":"29140","dong":"치평동","name":"갤러리303","addr":"1330","query":"광주 치평동 1330","lat":35.1461697015047,"lng":126.838492544567,"road":"광주 서구 상무누리로 33","region":"광주 서구 치평동 1330","building":"갤러리 303","method":"address"},"29140|치평동|금호3|1171-5":{"city_code":"29140","dong":"치평동","name":"금호3","addr":"1171-5","query":"광주 치평동 1171-5","lat":35.1493966583279,"lng":126.845824897027,"road":"광주 서구 치평로 21","region":"광주 서구 치평동 1171-5","building":"금호타운(3차) 상가동","method":"address"},"29140|치평동|금호4|1161-5":{"city_code":"29140","dong":"치평동","name":"금호4","addr":"1161-5","query":"광주 치평동 1161-5","lat":35.1492865618432,"lng":126.842291606973,"road":"광주 서구 상무공원로 51","region":"광주 서구 치평동 1161-5","building":"금호타운(4차)","method":"address"},"29140|치평동|금호대우|1166-2":{"city_code":"29140","dong":"치평동","name":"금호대우","addr":"1166-2","query":"광주 치평동 1166-2","lat":35.1571192197123,"lng":126.845811755174,"road":"광주 서구 치평로 105","region":"광주 서구 치평동 1166-2","building":"금호대우아파트","method":"address"},"29140|치평동|금호쌍용|1171-4":{"city_code":"29140","dong":"치평동","name":"금호쌍용","addr":"1171-4","query":"광주 치평동 1171-4","lat":35.1506422448893,"lng":126.845822657343,"road":"광주 서구 치평로 35","region":"광주 서구 치평동 1171-4","building":"금호쌍용아파트","method":"address"},"29140|치평동|대우금호|1166-2":{"city_code":"29140","dong":"치평동","name":"대우금호","addr":"1166-2","query":"광주 치평동 1166-2","lat":35.1571192197123,"lng":126.845811755174,"road":"광주 서구 치평로 105","region":"광주 서구 치평동 1166-2","building":"금호대우아파트","method":"address"},"29140|치평동|대주|1168-11":{"city_code":"29140","dong":"치평동","name":"대주","addr":"1168-11","query":"광주 치평동 1168-11","lat":35.1526033742521,"lng":126.843673838711,"road":"광주 서구 상무공원로 92","region":"광주 서구 치평동 1168-11","building":"대주아파트","method":"address"},"29140|치평동|라인대주|1171-6":{"city_code":"29140","dong":"치평동","name":"라인대주","addr":"1171-6","query":"광주 치평동 1171-6","lat":35.1486332976739,"lng":126.84582589784,"road":"광주 서구 치평로 15","region":"광주 서구 치평동 1171-6","building":"라인 대주아파트","method":"address"},"29140|치평동|라인동산|1174-3":{"city_code":"29140","dong":"치평동","name":"라인동산","addr":"1174-3","query":"광주 치평동 1174-3","lat":35.1468705035873,"lng":126.845116244743,"road":"광주 서구 마륵로 133","region":"광주 서구 치평동 1174-3","building":"상무지구 라인 동산아파트","method":"address"},"29140|치평동|상무1차우미|1159":{"city_code":"29140","dong":"치평동","name":"상무1차우미","addr":"1159","query":"광주 치평동 1159","lat":35.1469801874513,"lng":126.842311749324,"road":"광주 서구 상무공원로 33","region":"광주 서구 치평동 1159","building":"상무1차우미아파트","method":"address"},"29140|치평동|상무e-다움골드|1259-4":{"city_code":"29140","dong":"치평동","name":"상무e-다움골드","addr":"1259-4","query":"광주 치평동 1259-4","lat":35.1490405392887,"lng":126.851313020322,"road":"광주 서구 시청로 7","region":"광주 서구 치평동 1259-4","building":"상무e-다움골드","method":"address"},"29140|치평동|상무광명메이루즈|1249":{"city_code":"29140","dong":"치평동","name":"상무광명메이루즈","addr":"1249","query":"광주 치평동 1249","lat":35.1510079843827,"lng":126.850837427759,"road":"광주 서구 시청로 27","region":"광주 서구 치평동 1249","building":"상무광명메이루즈","method":"address"},"29140|치평동|상무리채2|1258-5":{"city_code":"29140","dong":"치평동","name":"상무리채2","addr":"1258-5","query":"광주 치평동 1258-5","lat":35.1496032148741,"lng":126.851130701034,"road":"광주 서구 시청로 13","region":"광주 서구 치평동 1258-5","building":"상무리채2","method":"address"},"29140|치평동|상무에스케이뷰|1331":{"city_code":"29140","dong":"치평동","name":"상무에스케이뷰","addr":"1331","query":"광주 치평동 1331","lat":35.1473275891847,"lng":126.851897868564,"road":"광주 서구 마륵복개로 140","region":"광주 서구 치평동 1331","building":"상무에스케이뷰","method":"address"},"29140|치평동|상무지구리채시티|1218":{"city_code":"29140","dong":"치평동","name":"상무지구리채시티","addr":"1218","query":"광주 치평동 1218","lat":35.1549617813278,"lng":126.850896720391,"road":"광주 서구 시청로 71","region":"광주 서구 치평동 1218","building":"상무리채1","method":"address"},"29140|치평동|상무지구영무예다음주상복합|1220-3":{"city_code":"29140","dong":"치평동","name":"상무지구영무예다음주상복합","addr":"1220-3","query":"광주 치평동 1220-3","lat":35.1542892498504,"lng":126.852198698465,"road":"광주 서구 시청로 64","region":"광주 서구 치평동 1220-3","building":"","method":"address"},"29140|치평동|중흥(1168-1)|1168-1":{"city_code":"29140","dong":"치평동","name":"중흥(1168-1)","addr":"1168-1","query":"광주 치평동 1168-1","lat":35.1542645317846,"lng":126.845817031404,"road":"광주 서구 치평로 73","region":"광주 서구 치평동 1168-1","building":"신나는유치원","method":"address"},"29140|치평동|중흥(1168-9)|1168-9":{"city_code":"29140","dong":"치평동","name":"중흥(1168-9)","addr":"1168-9","query":"광주 치평동 1168-9","lat":35.1526053544013,"lng":126.84521622245,"road":"광주 서구 상무자유로 105","region":"광주 서구 치평동 1168-9","building":"중흥아파트","method":"address"},"29140|치평동|한국|1166-5":{"city_code":"29140","dong":"치평동","name":"한국","addr":"1166-5","query":"광주 치평동 1166-5","lat":35.1557236296548,"lng":126.846153849481,"road":"광주 서구 상무시민로 65","region":"광주 서구 치평동 1166-5","building":"한국아파트","method":"address"},"29140|치평동|해광한신|1168":{"city_code":"29140","dong":"치평동","name":"해광한신","addr":"1168","query":"광주 치평동 1168","lat":35.1542553933007,"lng":126.84367956849,"road":"광주 서구 상무공원로 112","region":"광주 서구 치평동 1168","building":"해광한신아파트상가","method":"address"},"29140|치평동|현대|1166-1":{"city_code":"29140","dong":"치평동","name":"현대","addr":"1166-1","query":"광주 치평동 1166-1","lat":35.1583631816816,"lng":126.845809078671,"road":"광주 서구 내방로 52","region":"광주 서구 치평동 1166-1","building":"현대아파트","method":"address"},"29140|치평동|호반|1166-7":{"city_code":"29140","dong":"치평동","name":"호반","addr":"1166-7","query":"광주 치평동 1166-7","lat":35.1559221726278,"lng":126.843668587881,"road":"광주 서구 상무공원로 126","region":"광주 서구 치평동 1166-7","building":"호반아파트","method":"address"},"29140|풍암동|광명메이루즈|929-2":{"city_code":"29140","dong":"풍암동","name":"광명메이루즈","addr":"929-2","query":"광주 풍암동 929-2","lat":35.118895996604,"lng":126.86526245066,"road":"광주 서구 풍암신흥로 18","region":"광주 서구 풍암동 929-2","building":"광명메이루즈","method":"address"},"29140|풍암동|금호1|1130":{"city_code":"29140","dong":"풍암동","name":"금호1","addr":"1130","query":"광주 풍암동 1130","lat":35.1249234551445,"lng":126.882072404233,"road":"광주 서구 풍암신암로 31","region":"광주 서구 풍암동 1130","building":"금호타운풍암1차아파트","method":"address"},"29140|풍암동|금호2|1093":{"city_code":"29140","dong":"풍암동","name":"금호2","addr":"1093","query":"광주 풍암동 1093","lat":35.1217070329194,"lng":126.881156388676,"road":"광주 서구 풍암2로 62","region":"광주 서구 풍암동 1093","building":"풍암2단지금호타운아파트","method":"address"},"29140|풍암동|대주2|1102":{"city_code":"29140","dong":"풍암동","name":"대주2","addr":"1102","query":"광주 풍암동 1102","lat":35.1260296626388,"lng":126.876603002025,"road":"광주 서구 풍암1로 6","region":"광주 서구 풍암동 1102","building":"대주파크빌2단지아파트","method":"address"},"29140|풍암동|대주파크빌(3차)|1063":{"city_code":"29140","dong":"풍암동","name":"대주파크빌(3차)","addr":"1063","query":"광주 풍암동 1063","lat":35.1204373897555,"lng":126.883497453721,"road":"광주 서구 풍암순환로 110","region":"광주 서구 풍암동 1063","building":"신암마을중흥3차아파트","method":"address"},"29140|풍암동|동부센트레빌|664-6":{"city_code":"29140","dong":"풍암동","name":"동부센트레빌","addr":"664-6","query":"광주 풍암동 664-6","lat":35.1197747402168,"lng":126.868051085648,"road":"광주 서구 풍암신흥로 36","region":"광주 서구 풍암동 664-6","building":"동부센트레빌","method":"address"},"29140|풍암동|모아엘가|1101":{"city_code":"29140","dong":"풍암동","name":"모아엘가","addr":"1101","query":"광주 풍암동 1101","lat":35.1250659773601,"lng":126.877010054583,"road":"광주 서구 풍암1로 20","region":"광주 서구 풍암동 1101","building":"풍암모아아파트","method":"address"},"29140|풍암동|부영APT(신암마을)|1099":{"city_code":"29140","dong":"풍암동","name":"부영APT(신암마을)","addr":"1099","query":"광주 풍암동 1099","lat":35.1235135580122,"lng":126.877723078195,"road":"광주 서구 풍암1로 42","region":"광주 서구 풍암동 1099","building":"풍암부영2차아파트신암마을","method":"address"},"29140|풍암동|삼능남양|1058":{"city_code":"29140","dong":"풍암동","name":"삼능남양","addr":"1058","query":"광주 풍암동 1058","lat":35.1203345330532,"lng":126.880157771991,"road":"광주 서구 풍암순환로 82","region":"광주 서구 풍암동 1058","building":"삼능남양아파트","method":"address"},"29140|풍암동|새한센시빌|1054":{"city_code":"29140","dong":"풍암동","name":"새한센시빌","addr":"1054","query":"광주 풍암동 1054","lat":35.121297111228,"lng":126.876930039861,"road":"광주 서구 풍암순환로 54","region":"광주 서구 풍암동 1054","building":"신암마을새한센시빌아파트","method":"address"},"29140|풍암동|에스케이뷰|777":{"city_code":"29140","dong":"풍암동","name":"에스케이뷰","addr":"777","query":"광주 풍암동 777","lat":35.1181908587058,"lng":126.868712394554,"road":"광주 서구 송풍로 20","region":"광주 서구 풍암동 777","building":"에스케이뷰아파트","method":"address"},"29140|풍암동|우미광장|1132":{"city_code":"29140","dong":"풍암동","name":"우미광장","addr":"1132","query":"광주 풍암동 1132","lat":35.1267337333896,"lng":126.881127802708,"road":"광주 서구 풍암순환로 183","region":"광주 서구 풍암동 1132","building":"우미광장아파트","method":"address"},"29140|풍암동|주은모아|1127":{"city_code":"29140","dong":"풍암동","name":"주은모아","addr":"1127","query":"광주 풍암동 1127","lat":35.1238802449874,"lng":126.87998966123,"road":"광주 서구 풍암2로 36","region":"광주 서구 풍암동 1127","building":"주은모아아파트","method":"address"},"29140|풍암동|중흥아파트|1063":{"city_code":"29140","dong":"풍암동","name":"중흥아파트","addr":"1063","query":"광주 풍암동 1063","lat":35.1204373897555,"lng":126.883497453721,"road":"광주 서구 풍암순환로 110","region":"광주 서구 풍암동 1063","building":"신암마을중흥3차아파트","method":"address"},"29140|풍암동|중흥호반|1048":{"city_code":"29140","dong":"풍암동","name":"중흥호반","addr":"1048","query":"광주 풍암동 1048","lat":35.1248923281202,"lng":126.87467678202,"road":"광주 서구 풍암순환로 10","region":"광주 서구 풍암동 1048","building":"호반・중흥아파트","method":"address"},"29140|풍암동|풍암4차대주파크빌|705-1":{"city_code":"29140","dong":"풍암동","name":"풍암4차대주파크빌","addr":"705-1","query":"광주 풍암동 705-1","lat":35.1174045439151,"lng":126.866598968354,"road":"광주 서구 송풍로 8","region":"광주 서구 풍암동 705-1","building":"","method":"address"},"29140|풍암동|한국|1059":{"city_code":"29140","dong":"풍암동","name":"한국","addr":"1059","query":"광주 풍암동 1059","lat":35.1203903179696,"lng":126.881523396136,"road":"광주 서구 풍암2로 84","region":"광주 서구 풍암동 1059","building":"한국아파트","method":"address"},"29140|풍암동|한국아델리움|127-1":{"city_code":"29140","dong":"풍암동","name":"한국아델리움","addr":"127-1","query":"광주 풍암동 127-1","lat":35.1223780484091,"lng":126.88351860668,"road":"광주 서구 풍암순환로 135-1","region":"광주 서구 풍암동 127-1","building":"한국아델리움","method":"address"},"29140|풍암동|한신|1053":{"city_code":"29140","dong":"풍암동","name":"한신","addr":"1053","query":"광주 풍암동 1053","lat":35.1224028913095,"lng":126.875943648873,"road":"광주 서구 풍암순환로 38","region":"광주 서구 풍암동 1053","building":"한신아파트","method":"address"},"29140|풍암동|현대|1057":{"city_code":"29140","dong":"풍암동","name":"현대","addr":"1057","query":"광주 풍암동 1057","lat":35.1204782363747,"lng":126.878733601326,"road":"광주 서구 풍암순환로 68","region":"광주 서구 풍암동 1057","building":"현대아파트","method":"address"},"29140|풍암동|현대삼환|1096":{"city_code":"29140","dong":"풍암동","name":"현대삼환","addr":"1096","query":"광주 풍암동 1096","lat":35.1221003099251,"lng":126.879706157734,"road":"광주 서구 풍암1로 53","region":"광주 서구 풍암동 1096","building":"현대・삼환아파트","method":"address"},"29140|화정동|e-편한세상|400-16":{"city_code":"29140","dong":"화정동","name":"e-편한세상","addr":"400-16","query":"광주 화정동 400-16","lat":35.1388802015593,"lng":126.879183748383,"road":"광주 서구 금화로 293","region":"광주 서구 화정동 400-16","building":"꽃담마을 e-편한세상","method":"address"},"29140|화정동|개나리2|97-23":{"city_code":"29140","dong":"화정동","name":"개나리2","addr":"97-23","query":"광주 화정동 97-23","lat":35.1564639500481,"lng":126.875710433011,"road":"광주 서구 화운로199번길 9","region":"광주 서구 화정동 97-23","building":"개나리아파트","method":"address"},"29140|화정동|광명|1020":{"city_code":"29140","dong":"화정동","name":"광명","addr":"1020","query":"광주 화정동 1020","lat":35.1398102604137,"lng":126.881684330406,"road":"광주 서구 월드컵4강로28번길 50-14","region":"광주 서구 화정동 1020","building":"광명아파트","method":"address"},"29140|화정동|광주화정동골드클래스주상복합|1709":{"city_code":"29140","dong":"화정동","name":"광주화정동골드클래스주상복합","addr":"1709","query":"광주 화정동 1709","lat":35.1545312312521,"lng":126.882460904,"road":"광주 서구 죽봉대로 17","region":"광주 서구 화정동 1709","building":"광주 화정동 골드클래스 주상복합","method":"address"},"29140|화정동|금호1|928-2":{"city_code":"29140","dong":"화정동","name":"금호1","addr":"928-2","query":"광주 화정동 928-2","lat":35.139260712517,"lng":126.872028063597,"road":"광주 서구 염화로57번길 1","region":"광주 서구 화정동 928-2","building":"금호타운(1차)","method":"address"},"29140|화정동|금호2|928-1":{"city_code":"29140","dong":"화정동","name":"금호2","addr":"928-1","query":"광주 화정동 928-1","lat":35.1394358775055,"lng":126.870360558044,"road":"광주 서구 염화로57번길 17","region":"광주 서구 화정동 928-1","building":"금호타운(2차)","method":"address"},"29140|화정동|금호타운1|1072":{"city_code":"29140","dong":"화정동","name":"금호타운1","addr":"1072","query":"광주 화정동 1072","lat":35.141440146094,"lng":126.883778078333,"road":"광주 서구 화운로23번길 7-2","region":"광주 서구 화정동 1072","building":"금호타운","method":"address"},"29140|화정동|금호타운3|366-19":{"city_code":"29140","dong":"화정동","name":"금호타운3","addr":"366-19","query":"광주 화정동 366-19","lat":35.1449913563287,"lng":126.87572052469,"road":"광주 서구 화정로180번길 2","region":"광주 서구 화정동 366-19","building":"금호타운","method":"address"},"29140|화정동|남화|532-12":{"city_code":"29140","dong":"화정동","name":"남화","addr":"532-12","query":"광주 화정동 532-12","lat":35.1480179158527,"lng":126.883398241049,"road":"광주 서구 화정로243번길 11","region":"광주 서구 화정동 532-12","building":"남화아파트","method":"address"},"29140|화정동|남화맨션|747-1":{"city_code":"29140","dong":"화정동","name":"남화맨션","addr":"747-1","query":"광주 화정동 747-1","lat":35.1502523629998,"lng":126.872286205086,"road":"광주 서구 월드컵4강로152번길 13-8","region":"광주 서구 화정동 747-1","building":"남화아파트","method":"address"},"29140|화정동|대륙|334-6":{"city_code":"29140","dong":"화정동","name":"대륙","addr":"334-6","query":"광주 화정동 334-6","lat":35.1462611232055,"lng":126.873474875751,"road":"광주 서구 월드컵4강로112번길 10","region":"광주 서구 화정동 334-6","building":"대륙아파트","method":"address"},"29140|화정동|대주|1193":{"city_code":"29140","dong":"화정동","name":"대주","addr":"1193","query":"광주 화정동 1193","lat":35.1434423964408,"lng":126.882806491716,"road":"광주 서구 화운로 35","region":"광주 서구 화정동 1193","building":"대주아파트","method":"address"},"29140|화정동|대주피오레|350-14":{"city_code":"29140","dong":"화정동","name":"대주피오레","addr":"350-14","query":"광주 화정동 350-14","lat":35.1444124546003,"lng":126.870848016772,"road":"광주 서구 화정로 126","region":"광주 서구 화정동 350-14","building":"화정동 대주피오레","method":"address"},"29140|화정동|더샵염주센트럴파크|1712":{"city_code":"29140","dong":"화정동","name":"더샵염주센트럴파크","addr":"1712","query":"광주 화정동 1712","lat":35.1398864014924,"lng":126.874666754069,"road":"광주 서구 월드컵4강로 27","region":"광주 서구 화정동 1712","building":"더샵 염주센트럴파크","method":"address"},"29140|화정동|라인동산|930-1":{"city_code":"29140","dong":"화정동","name":"라인동산","addr":"930-1","query":"광주 화정동 930-1","lat":35.1378816865924,"lng":126.870217962189,"road":"광주 서구 염화로45번길 13","region":"광주 서구 화정동 930-1","building":"라인동산아파트","method":"address"},"29140|화정동|럭키|858-2":{"city_code":"29140","dong":"화정동","name":"럭키","addr":"858-2","query":"광주 화정동 858-2","lat":35.1372100416506,"lng":126.874632451691,"road":"광주 서구 염화로40번길 18","region":"광주 서구 화정동 858-2","building":"럭키아파트","method":"address"},"29140|화정동|모아|896-1":{"city_code":"29140","dong":"화정동","name":"모아","addr":"896-1","query":"광주 화정동 896-1","lat":35.145933650034,"lng":126.871241768922,"road":"광주 서구 쌍학로 56","region":"광주 서구 화정동 896-1","building":"모아아파트","method":"address"},"29140|화정동|모아타워|927-2":{"city_code":"29140","dong":"화정동","name":"모아타워","addr":"927-2","query":"광주 화정동 927-2","lat":35.1402965074029,"lng":126.872407866629,"road":"광주 서구 염화로 59","region":"광주 서구 화정동 927-2","building":"모아타워","method":"address"},"29140|화정동|무등스위트빌라|290-31":{"city_code":"29140","dong":"화정동","name":"무등스위트빌라","addr":"290-31","query":"광주 화정동 290-31","lat":35.1548725628581,"lng":126.878069302485,"road":"광주 서구 화운로176번길 15-5","region":"광주 서구 화정동 290-31","building":"화정 무등 스위트 힐","method":"address"},"29140|화정동|무등파크맨션|127-1":{"city_code":"29140","dong":"화정동","name":"무등파크맨션","addr":"127-1","query":"광주 화정동 127-1","lat":35.1565077778043,"lng":126.88047999139,"road":"광주 서구 군분2로 45","region":"광주 서구 화정동 127-1","building":"무등파크맨션","method":"address"},"29140|화정동|백제|334-70":{"city_code":"29140","dong":"화정동","name":"백제","addr":"334-70","query":"광주 화정동 334-70","lat":35.1469648972936,"lng":126.874593899633,"road":"광주 서구 월드컵4강로112번길 23-1","region":"광주 서구 화정동 334-70","building":"백제아파트","method":"address"},"29140|화정동|삼익|131-4":{"city_code":"29140","dong":"화정동","name":"삼익","addr":"131-4","query":"광주 화정동 131-4","lat":35.1565390416202,"lng":126.881844828585,"road":"광주 서구 죽봉대로 31","region":"광주 서구 화정동 131-4","building":"삼익맨션아파트","method":"address"},"29140|화정동|서석|747-22":{"city_code":"29140","dong":"화정동","name":"서석","addr":"747-22","query":"광주 화정동 747-22","lat":35.1500221665867,"lng":126.872296661189,"road":"광주 서구 월드컵4강로152번길 13-6","region":"광주 서구 화정동 747-22","building":"서석아파트","method":"address"},"29140|화정동|신동아|1062":{"city_code":"29140","dong":"화정동","name":"신동아","addr":"1062","query":"광주 화정동 1062","lat":35.140534406915,"lng":126.882696319943,"road":"광주 서구 월드컵4강로28번길 56","region":"광주 서구 화정동 1062","building":"","method":"address"},"29140|화정동|염주더샵센트럴파크|857":{"city_code":"29140","dong":"화정동","name":"염주더샵센트럴파크","addr":"857","query":"광주 화정동 염주더샵센트럴파크","lat":35.139608572682604,"lng":126.87472577563783,"road":"광주 서구 월드컵4강로 27","region":"광주 서구 화정동 1712","building":"더샵염주센트럴파크아파트","method":"keyword"},"29140|화정동|염주맨션|830":{"city_code":"29140","dong":"화정동","name":"염주맨션","addr":"830","query":"광주 화정동 830","lat":35.142754447228,"lng":126.881110001621,"road":"광주 서구 염화로 152","region":"광주 서구 화정동 830","building":"염주맨션","method":"address"},"29140|화정동|염주주공|857":{"city_code":"29140","dong":"화정동","name":"염주주공","addr":"857","query":"광주 화정동 염주주공","lat":35.14019796996883,"lng":126.87727720691545,"road":"광주 서구 월드컵4강로28번길 9","region":"광주 서구 화정동 853-10","building":"염주주공주택재건축정비사업조합","method":"keyword"},"29140|화정동|영무예다음|350-13":{"city_code":"29140","dong":"화정동","name":"영무예다음","addr":"350-13","query":"광주 화정동 350-13","lat":35.1440169374723,"lng":126.871356608313,"road":"광주 서구 화정로138번길 14-22","region":"광주 서구 화정동 350-13","building":"화정2차 영무예다음","method":"address"},"29140|화정동|영화|100":{"city_code":"29140","dong":"화정동","name":"영화","addr":"100","query":"광주 화정동 100","lat":35.1571035426984,"lng":126.876492001377,"road":"광주 서구 화운로 203","region":"광주 서구 화정동 100","building":"영화아파트","method":"address"},"29140|화정동|우미|859-2":{"city_code":"29140","dong":"화정동","name":"우미","addr":"859-2","query":"광주 화정동 859-2","lat":35.1397301570809,"lng":126.878613652272,"road":"광주 서구 월드컵4강로28번길 14","region":"광주 서구 화정동 859-2","building":"우미아파트","method":"address"},"29140|화정동|우성1|858-4":{"city_code":"29140","dong":"화정동","name":"우성1","addr":"858-4","query":"광주 화정동 858-4","lat":35.1377771241766,"lng":126.876687653836,"road":"광주 서구 월드컵4강로 11","region":"광주 서구 화정동 858-4","building":"우성아파트","method":"address"},"29140|화정동|우성2|858-1":{"city_code":"29140","dong":"화정동","name":"우성2","addr":"858-1","query":"광주 화정동 858-1","lat":35.1373872923367,"lng":126.873459529144,"road":"광주 서구 염화로 30","region":"광주 서구 화정동 858-1","building":"우성아파트","method":"address"},"29140|화정동|유니버시아드힐스테이트1단지|1611":{"city_code":"29140","dong":"화정동","name":"유니버시아드힐스테이트1단지","addr":"1611","query":"광주 화정동 1611","lat":35.14750137362,"lng":126.881844943561,"road":"광주 서구 화운로 94","region":"광주 서구 화정동 1611","building":"유니버시아드 힐스테이트 1단지","method":"address"},"29140|화정동|유니버시아드힐스테이트2단지|1610":{"city_code":"29140","dong":"화정동","name":"유니버시아드힐스테이트2단지","addr":"1610","query":"광주 화정동 1610","lat":35.1463735405865,"lng":126.879687021518,"road":"광주 서구 화정로 211","region":"광주 서구 화정동 1610","building":"유니버시아드 힐스테이트 2단지","method":"address"},"29140|화정동|유니버시아드힐스테이트3단지|1612":{"city_code":"29140","dong":"화정동","name":"유니버시아드힐스테이트3단지","addr":"1612","query":"광주 화정동 1612","lat":35.1440968540193,"lng":126.884758303317,"road":"광주 서구 화운로 24","region":"광주 서구 화정동 1612","building":"유니버시아드 힐스테이트 3단지","method":"address"},"29140|화정동|유탑유블레스|23-37":{"city_code":"29140","dong":"화정동","name":"유탑유블레스","addr":"23-37","query":"광주 화정동 23-37","lat":35.1576839785691,"lng":126.878863349204,"road":"광주 서구 내방로 349","region":"광주 서구 화정동 23-37","building":"유탑유블레스","method":"address"},"29140|화정동|주공|621":{"city_code":"29140","dong":"화정동","name":"주공","addr":"621","query":"광주 화정동 주공","lat":35.156490202809834,"lng":126.85088581003757,"road":"광주 서구 시청로 91","region":"광주 서구 치평동 1210","building":"한국토지주택공사 광주전남지역본부","method":"keyword"},"29140|화정동|중흥파크|178-25":{"city_code":"29140","dong":"화정동","name":"중흥파크","addr":"178-25","query":"광주 화정동 178-25","lat":35.1550452542005,"lng":126.881696849555,"road":"광주 서구 상무대로1099번길 15-1","region":"광주 서구 화정동 178-25","building":"중흥파크","method":"address"},"29140|화정동|중흥파크맨션(927-1|927-1":{"city_code":"29140","dong":"화정동","name":"중흥파크맨션(927-1","addr":"927-1","query":"광주 화정동 927-1","lat":35.1405852598545,"lng":126.871088886734,"road":"광주 서구 염화로57번길 16","region":"광주 서구 화정동 927-1","building":"중흥아파트","method":"address"},"29140|화정동|태영|858-3":{"city_code":"29140","dong":"화정동","name":"태영","addr":"858-3","query":"광주 화정동 858-3","lat":35.1373533919071,"lng":126.87571523548,"road":"광주 서구 염화로40번길 20-1","region":"광주 서구 화정동 858-3","building":"태영아파트","method":"address"},"29140|화정동|한양|1023":{"city_code":"29140","dong":"화정동","name":"한양","addr":"1023","query":"광주 화정동 1023","lat":35.139803947063,"lng":126.881035944379,"road":"광주 서구 월드컵4강로28번길 44","region":"광주 서구 화정동 1023","building":"한양아파트","method":"address"},"29140|화정동|해광샹그릴라센트럴337|23-20":{"city_code":"29140","dong":"화정동","name":"해광샹그릴라센트럴337","addr":"23-20","query":"광주 화정동 23-20","lat":35.157751722902,"lng":126.87757023465,"road":"광주 서구 내방로 337","region":"광주 서구 화정동 23-20","building":"해광샹그릴라 센트럴337","method":"address"},"29140|화정동|해피투모루|179-24":{"city_code":"29140","dong":"화정동","name":"해피투모루","addr":"179-24","query":"광주 화정동 179-24","lat":35.1544003398115,"lng":126.881521086107,"road":"광주 서구 군분2로 16","region":"광주 서구 화정동 179-24","building":"(주)해피투모루","method":"address"},"29140|화정동|현대(740-6)|740-6":{"city_code":"29140","dong":"화정동","name":"현대(740-6)","addr":"740-6","query":"광주 화정동 740-6","lat":35.1537502572563,"lng":126.874864555511,"road":"광주 서구 화운로175번길 15","region":"광주 서구 화정동 740-6","building":"현대아파트","method":"address"},"29140|화정동|현대(859-1)|859-1":{"city_code":"29140","dong":"화정동","name":"현대(859-1)","addr":"859-1","query":"광주 화정동 859-1","lat":35.1390734278304,"lng":126.877452486096,"road":"광주 서구 월드컵4강로 22","region":"광주 서구 화정동 859-1","building":"현대아파트","method":"address"},"29140|화정동|호반|903-2":{"city_code":"29140","dong":"화정동","name":"호반","addr":"903-2","query":"광주 화정동 903-2","lat":35.1436679752006,"lng":126.867879756442,"road":"광주 서구 학생독립로 13","region":"광주 서구 화정동 903-2","building":"호반아파트","method":"address"},"29140|화정동|화정동고운하이플러스|1701":{"city_code":"29140","dong":"화정동","name":"화정동고운하이플러스","addr":"1701","query":"광주 화정동 1701","lat":35.1492116965039,"lng":126.87739020902,"road":"광주 서구 화운로99번길 20","region":"광주 서구 화정동 1701","building":"화정동고운하이플러스아파트","method":"address"},"29140|화정동|화정동영무예다음|1295":{"city_code":"29140","dong":"화정동","name":"화정동영무예다음","addr":"1295","query":"광주 화정동 1295","lat":35.1414655320389,"lng":126.884877231039,"road":"광주 서구 화운로23번길 7-25","region":"광주 서구 화정동 1295","building":"화정동 영무예다음 아파트","method":"address"},"29140|화정동|화정엘리체퍼스티지|1706":{"city_code":"29140","dong":"화정동","name":"화정엘리체퍼스티지","addr":"1706","query":"광주 화정동 1706","lat":35.136316626321,"lng":126.873260388323,"road":"광주 서구 금화로 241","region":"광주 서구 화정동 1706","building":"","method":"address"},"29140|화정동|화정우미|440":{"city_code":"29140","dong":"화정동","name":"화정우미","addr":"440","query":"광주 화정동 440","lat":35.136298143164,"lng":126.870611207324,"road":"광주 서구 염화로31번길 19","region":"광주 서구 화정동 440","building":"우미아파트","method":"address"},"29140|화정동|흥국|367-17":{"city_code":"29140","dong":"화정동","name":"흥국","addr":"367-17","query":"광주 화정동 367-17","lat":35.1460458260649,"lng":126.877369498033,"road":"광주 서구 화정로179번길 10","region":"광주 서구 화정동 367-17","building":"흥국아파트","method":"address"},"29155|노대동|골드레이크|871":{"city_code":"29155","dong":"노대동","name":"골드레이크","addr":"871","query":"광주 노대동 871","lat":35.1017652199431,"lng":126.903839778973,"road":"광주 남구 노대실로 89","region":"광주 남구 노대동 871","building":"골드레이크","method":"address"},"29155|노대동|남양휴튼|839":{"city_code":"29155","dong":"노대동","name":"남양휴튼","addr":"839","query":"광주 노대동 839","lat":35.1074601454721,"lng":126.905438685165,"road":"광주 남구 노대실로 26","region":"광주 남구 노대동 839","building":"진월지구 남양휴튼아파트","method":"address"},"29155|노대동|송화레이크포레|835":{"city_code":"29155","dong":"노대동","name":"송화레이크포레","addr":"835","query":"광주 노대동 835","lat":35.1050265330864,"lng":126.907764482792,"road":"광주 남구 노대실로 49","region":"광주 남구 노대동 835","building":"송화 레이크 포레","method":"address"},"29155|노대동|송화레이크힐|827":{"city_code":"29155","dong":"노대동","name":"송화레이크힐","addr":"827","query":"광주 노대동 827","lat":35.1070603128995,"lng":126.907560368911,"road":"광주 남구 노대실로 33","region":"광주 남구 노대동 827","building":"송화레이크힐","method":"address"},"29155|노대동|송화마을휴먼시아5단지|827":{"city_code":"29155","dong":"노대동","name":"송화마을휴먼시아5단지","addr":"827","query":"광주 노대동 827","lat":35.1070603128995,"lng":126.907560368911,"road":"광주 남구 노대실로 33","region":"광주 남구 노대동 827","building":"송화레이크힐","method":"address"},"29155|노대동|휴먼시아6단지|835":{"city_code":"29155","dong":"노대동","name":"휴먼시아6단지","addr":"835","query":"광주 노대동 835","lat":35.1050265330864,"lng":126.907764482792,"road":"광주 남구 노대실로 49","region":"광주 남구 노대동 835","building":"송화 레이크 포레","method":"address"},"29155|노대동|휴먼시아7단지|871":{"city_code":"29155","dong":"노대동","name":"휴먼시아7단지","addr":"871","query":"광주 노대동 871","lat":35.1017652199431,"lng":126.903839778973,"road":"광주 남구 노대실로 89","region":"광주 남구 노대동 871","building":"골드레이크","method":"address"},"29155|방림동|광명1|65-1":{"city_code":"29155","dong":"방림동","name":"광명1","addr":"65-1","query":"광주 방림동 65-1","lat":35.1334411281455,"lng":126.919596976359,"road":"광주 남구 방림로20번길 4","region":"광주 남구 방림동 65-1","building":"광명아파트","method":"address"},"29155|방림동|광명그린|558":{"city_code":"29155","dong":"방림동","name":"광명그린","addr":"558","query":"광주 방림동 558","lat":35.1299157527777,"lng":126.917639691368,"road":"광주 남구 용대로 155","region":"광주 남구 방림동 558","building":"광명그린아파트","method":"address"},"29155|방림동|광명샤인빌|447-38":{"city_code":"29155","dong":"방림동","name":"광명샤인빌","addr":"447-38","query":"광주 방림동 447-38","lat":35.1322212832188,"lng":126.917275732906,"road":"광주 남구 용대로 177-16","region":"광주 남구 방림동 447-38","building":"광명샤인빌","method":"address"},"29155|방림동|금원|486-12":{"city_code":"29155","dong":"방림동","name":"금원","addr":"486-12","query":"광주 방림동 486-12","lat":35.1292554429801,"lng":126.916890447399,"road":"광주 남구 용대로 149-13","region":"광주 남구 방림동 486-12","building":"금원아파트","method":"address"},"29155|방림동|금호맨션|62-27":{"city_code":"29155","dong":"방림동","name":"금호맨션","addr":"62-27","query":"광주 방림동 62-27","lat":35.1312212789489,"lng":126.918963448724,"road":"광주 남구 용대로 180-8","region":"광주 남구 방림동 62-27","building":"금호맨션","method":"address"},"29155|방림동|라인효친1|556-1":{"city_code":"29155","dong":"방림동","name":"라인효친1","addr":"556-1","query":"광주 방림동 556-1","lat":35.1283705487091,"lng":126.917116810334,"road":"광주 남구 용대로 131","region":"광주 남구 방림동 556-1","building":"라인효친아파트","method":"address"},"29155|방림동|라인효친2|556-1":{"city_code":"29155","dong":"방림동","name":"라인효친2","addr":"556-1","query":"광주 방림동 556-1","lat":35.1283705487091,"lng":126.917116810334,"road":"광주 남구 용대로 131","region":"광주 남구 방림동 556-1","building":"라인효친아파트","method":"address"},"29155|방림동|명지맨션|377-3":{"city_code":"29155","dong":"방림동","name":"명지맨션","addr":"377-3","query":"광주 방림동 377-3","lat":35.1339731583041,"lng":126.915297094028,"road":"광주 남구 대남대로 89","region":"광주 남구 방림동 377-3","building":"명지맨션","method":"address"},"29155|방림동|모아|556":{"city_code":"29155","dong":"방림동","name":"모아","addr":"556","query":"광주 방림동 556","lat":35.1290614268986,"lng":126.915395877431,"road":"광주 남구 봉선1로 85","region":"광주 남구 방림동 556","building":"모아2단지2차아파트","method":"address"},"29155|방림동|무등산센트럴파크|562":{"city_code":"29155","dong":"방림동","name":"무등산센트럴파크","addr":"562","query":"광주 방림동 562","lat":35.135742609497,"lng":126.919915877944,"road":"광주 남구 방림로 31","region":"광주 남구 방림동 562","building":"무등산센트럴파크아파트","method":"address"},"29155|방림동|방림광신프로그레스|566":{"city_code":"29155","dong":"방림동","name":"방림광신프로그레스","addr":"566","query":"광주 방림동 566","lat":35.1328609783275,"lng":126.918603256525,"road":"광주 남구 방림로 10","region":"광주 남구 방림동 566","building":"광신프로그레스","method":"address"},"29155|방림동|방림더퍼스트골드클래스|579":{"city_code":"29155","dong":"방림동","name":"방림더퍼스트골드클래스","addr":"579","query":"광주 방림동 579","lat":35.1322615219427,"lng":126.923651522847,"road":"광주 남구 큰방림길 41","region":"광주 남구 방림동 579","building":"방림동 골드클래스","method":"address"},"29155|방림동|방림명지로드힐|569":{"city_code":"29155","dong":"방림동","name":"방림명지로드힐","addr":"569","query":"광주 방림동 569","lat":35.1343167267454,"lng":126.916682427171,"road":"광주 남구 대남대로85번길 3","region":"광주 남구 방림동 569","building":"방림명지로드힐","method":"address"},"29155|방림동|방림휴먼시아|562":{"city_code":"29155","dong":"방림동","name":"방림휴먼시아","addr":"562","query":"광주 방림동 562","lat":35.135742609497,"lng":126.919915877944,"road":"광주 남구 방림로 31","region":"광주 남구 방림동 562","building":"무등산센트럴파크아파트","method":"address"},"29155|방림동|봉선중길한국아델리움5차아파트|571":{"city_code":"29155","dong":"방림동","name":"봉선중길한국아델리움5차아파트","addr":"571","query":"광주 방림동 571","lat":35.1313318628993,"lng":126.915382776675,"road":"광주 남구 봉선중길 43","region":"광주 남구 방림동 571","building":"봉선중길 한국아델리움5차","method":"address"},"29155|방림동|삼일|436-1":{"city_code":"29155","dong":"방림동","name":"삼일","addr":"436-1","query":"광주 방림동 436-1","lat":35.1315700267243,"lng":126.916587026498,"road":"광주 남구 용대로171번길 7","region":"광주 남구 방림동 436-1","building":"삼일아파트","method":"address"},"29155|방림동|송림(88)|88":{"city_code":"29155","dong":"방림동","name":"송림(88)","addr":"88","query":"광주 방림동 88","lat":35.1308588125445,"lng":126.923496922653,"road":"광주 남구 큰방림안길 6","region":"광주 남구 방림동 88","building":"송림아파트","method":"address"},"29155|방림동|송림그린|530-4":{"city_code":"29155","dong":"방림동","name":"송림그린","addr":"530-4","query":"광주 방림동 530-4","lat":35.1332022219575,"lng":126.916596224361,"road":"광주 남구 용대로183번안길 7","region":"광주 남구 방림동 530-4","building":"송림아파트","method":"address"},"29155|방림동|송학|89-25":{"city_code":"29155","dong":"방림동","name":"송학","addr":"89-25","query":"광주 방림동 89-25","lat":35.1312701235617,"lng":126.922674306043,"road":"광주 남구 천변좌로552번길 21","region":"광주 남구 방림동 89-25","building":"송학맨션","method":"address"},"29155|방림동|송학맨션|89-25":{"city_code":"29155","dong":"방림동","name":"송학맨션","addr":"89-25","query":"광주 방림동 89-25","lat":35.1312701235617,"lng":126.922674306043,"road":"광주 남구 천변좌로552번길 21","region":"광주 남구 방림동 89-25","building":"송학맨션","method":"address"},"29155|방림동|오네뜨하이브|584":{"city_code":"29155","dong":"방림동","name":"오네뜨하이브","addr":"584","query":"광주 방림동 584","lat":35.1305978172487,"lng":126.917643393334,"road":"광주 남구 용대로 163","region":"광주 남구 방림동 584","building":"오네뜨하이브","method":"address"},"29155|백운동|대양|231-14":{"city_code":"29155","dong":"백운동","name":"대양","addr":"231-14","query":"광주 백운동 231-14","lat":35.1371217303801,"lng":126.898435119475,"road":"광주 남구 대남대로 264-17","region":"광주 남구 백운동 231-14","building":"대양맨션","method":"address"},"29155|백운동|대주|627-5":{"city_code":"29155","dong":"백운동","name":"대주","addr":"627-5","query":"광주 백운동 627-5","lat":35.1352895048021,"lng":126.903138303108,"road":"광주 남구 백양로7번길 16-7","region":"광주 남구 백운동 627-5","building":"대주아파트","method":"address"},"29155|백운동|대흥백운스카이|419":{"city_code":"29155","dong":"백운동","name":"대흥백운스카이","addr":"419","query":"광주 백운동 419","lat":35.140634250123,"lng":126.907912413796,"road":"광주 남구 백운로82번길 10","region":"광주 남구 백운동 419","building":"대흥 백운스카이1차아파트","method":"address"},"29155|백운동|대흥백운스카이2|458":{"city_code":"29155","dong":"백운동","name":"대흥백운스카이2","addr":"458","query":"광주 백운동 458","lat":35.1396187253465,"lng":126.907020465944,"road":"광주 남구 백운로66번길 9","region":"광주 남구 백운동 458","building":"대흥백운스카이2차아파트","method":"address"},"29155|백운동|대흥사직스카이|409":{"city_code":"29155","dong":"백운동","name":"대흥사직스카이","addr":"409","query":"광주 백운동 409","lat":35.1419707422066,"lng":126.90808724957,"road":"광주 남구 제중로 123","region":"광주 남구 백운동 409","building":"사직스카이","method":"address"},"29155|백운동|대흥양림스카이|514-44":{"city_code":"29155","dong":"백운동","name":"대흥양림스카이","addr":"514-44","query":"광주 백운동 514-44","lat":35.1350343375602,"lng":126.911026315196,"road":"광주 남구 양림로 14","region":"광주 남구 백운동 514-44","building":"대흥양림스카이아파트","method":"address"},"29155|백운동|루엔시티|691":{"city_code":"29155","dong":"백운동","name":"루엔시티","addr":"691","query":"광주 백운동 691","lat":35.142029496549,"lng":126.904227540602,"road":"광주 남구 독립로 102","region":"광주 남구 백운동 691","building":"광주백운1휴먼시아","method":"address"},"29155|백운동|목우|461-1":{"city_code":"29155","dong":"백운동","name":"목우","addr":"461-1","query":"광주 백운동 461-1","lat":35.1387569164497,"lng":126.906881761197,"road":"광주 남구 백운로66번길 8","region":"광주 남구 백운동 461-1","building":"목우아파트","method":"address"},"29155|백운동|백운광장역천년가|634-1":{"city_code":"29155","dong":"백운동","name":"백운광장역천년가","addr":"634-1","query":"광주 백운동 634-1","lat":35.1342862175498,"lng":126.902376698963,"road":"광주 남구 독립로10번길 8","region":"광주 남구 백운동 634-1","building":"백운광장역 천년가","method":"address"},"29155|백운동|백운맨션|606-1":{"city_code":"29155","dong":"백운동","name":"백운맨션","addr":"606-1","query":"광주 백운동 606-1","lat":35.1385577661387,"lng":126.907300711775,"road":"광주 남구 백운로52번길 7","region":"광주 남구 백운동 606-1","building":"백운맨션","method":"address"},"29155|백운동|백운우방아이유쉘|696":{"city_code":"29155","dong":"백운동","name":"백운우방아이유쉘","addr":"696","query":"광주 백운동 696","lat":35.1391970769091,"lng":126.903119519602,"road":"광주 남구 독립로 70-1","region":"광주 남구 백운동 696","building":"백운 우방아이유쉘","method":"address"},"29155|백운동|벽산|26-5":{"city_code":"29155","dong":"백운동","name":"벽산","addr":"26-5","query":"광주 백운동 26-5","lat":35.1380936388518,"lng":126.902569554254,"road":"광주 남구 독립로54번길 8","region":"광주 남구 백운동 26-5","building":"백운동 벽산아파트","method":"address"},"29155|백운동|송촌파인힐|32-1":{"city_code":"29155","dong":"백운동","name":"송촌파인힐","addr":"32-1","query":"광주 백운동 32-1","lat":35.140321216957,"lng":126.903862930811,"road":"광주 남구 독립로80번길 10","region":"광주 남구 백운동 32-1","building":"송촌아파트","method":"address"},"29155|백운동|신천|585-3":{"city_code":"29155","dong":"백운동","name":"신천","addr":"585-3","query":"광주 백운동 585-3","lat":35.138020647493,"lng":126.907777539032,"road":"광주 남구 백운로44번길 7","region":"광주 남구 백운동 585-3","building":"신천맨션","method":"address"},"29155|백운동|제일|40-1":{"city_code":"29155","dong":"백운동","name":"제일","addr":"40-1","query":"광주 백운동 40-1","lat":35.1396105952798,"lng":126.904791861519,"road":"광주 남구 백운로 67-6","region":"광주 남구 백운동 40-1","building":"제일파크맨션","method":"address"},"29155|백운동|코아루아팰리스힐|705":{"city_code":"29155","dong":"백운동","name":"코아루아팰리스힐","addr":"705","query":"광주 백운동 705","lat":35.1377624151326,"lng":126.897894355315,"road":"광주 남구 대남대로 284-14","region":"광주 남구 백운동 705","building":"백운동 코아루 아팰리스힐(상가)","method":"address"},"29155|백운동|현대(46-1)|46-1":{"city_code":"29155","dong":"백운동","name":"현대(46-1)","addr":"46-1","query":"광주 백운동 46-1","lat":35.138891116698,"lng":126.905007328951,"road":"광주 남구 독립로54번길 29","region":"광주 남구 백운동 46-1","building":"현대아파트","method":"address"},"29155|백운동|힐스테이트백운|699":{"city_code":"29155","dong":"백운동","name":"힐스테이트백운","addr":"699","query":"광주 백운동 699","lat":35.1362709883243,"lng":126.899690556599,"road":"광주 남구 회재로1293번길 1","region":"광주 남구 백운동 699","building":"","method":"address"},"29155|봉선동|e편한세상봉선셀레스티지|1143-36":{"city_code":"29155","dong":"봉선동","name":"e편한세상봉선셀레스티지","addr":"1143-36","query":"광주 봉선동 1143-36","lat":35.1315083296698,"lng":126.907226192963,"road":"광주 남구 대남대로159번길 24","region":"광주 남구 봉선동 1143-36","building":"e편한세상 봉선 셀레스티지","method":"address"},"29155|봉선동|e편한세상봉선셀레스티지|1168":{"city_code":"29155","dong":"봉선동","name":"e편한세상봉선셀레스티지","addr":"1168","query":"광주 봉선동 1168","lat":35.1309767039162,"lng":126.906637279573,"road":"광주 남구 대남대로159번길 22","region":"광주 남구 봉선동 1168","building":"e편한세상봉선셀레스티지","method":"address"},"29155|봉선동|광명맨션|310-1":{"city_code":"29155","dong":"봉선동","name":"광명맨션","addr":"310-1","query":"광주 봉선동 310-1","lat":35.1318393259622,"lng":126.912208177672,"road":"광주 남구 대남대로117번길 22","region":"광주 남구 봉선동 310-1","building":"광명아파트","method":"address"},"29155|봉선동|금호2|490-1":{"city_code":"29155","dong":"봉선동","name":"금호2","addr":"490-1","query":"광주 봉선동 490-1","lat":35.1225101949316,"lng":126.909375242948,"road":"광주 남구 봉선로 134","region":"광주 남구 봉선동 490-1","building":"금호타운","method":"address"},"29155|봉선동|금호타운1|469-5":{"city_code":"29155","dong":"봉선동","name":"금호타운1","addr":"469-5","query":"광주 봉선동 469-5","lat":35.1241003952866,"lng":126.911096352842,"road":"광주 남구 봉선로133번길 4","region":"광주 남구 봉선동 469-5","building":"금호타운","method":"address"},"29155|봉선동|남양휴튼1차|606":{"city_code":"29155","dong":"봉선동","name":"남양휴튼1차","addr":"606","query":"광주 봉선동 606","lat":35.1237418668275,"lng":126.906470879836,"road":"광주 남구 봉선로 106","region":"광주 남구 봉선동 606","building":"봉선1차남양휴튼","method":"address"},"29155|봉선동|남양휴튼엠브이지101동|478-1":{"city_code":"29155","dong":"봉선동","name":"남양휴튼엠브이지101동","addr":"478-1","query":"광주 봉선동 478-1","lat":35.1248885371693,"lng":126.909497787858,"road":"광주 남구 봉선중앙로47번길 15","region":"광주 남구 봉선동 478-1","building":"남양휴튼엠브이지","method":"address"},"29155|봉선동|대신맨션|938-4":{"city_code":"29155","dong":"봉선동","name":"대신맨션","addr":"938-4","query":"광주 봉선동 938-4","lat":35.1320173045582,"lng":126.911532442518,"road":"광주 남구 봉선중앙로124번길 8","region":"광주 남구 봉선동 938-4","building":"대신아파트","method":"address"},"29155|봉선동|대화|610-1":{"city_code":"29155","dong":"봉선동","name":"대화","addr":"610-1","query":"광주 봉선동 610-1","lat":35.1244337457589,"lng":126.905877657555,"road":"광주 남구 봉선로 98","region":"광주 남구 봉선동 610-1","building":"대화아파트","method":"address"},"29155|봉선동|더쉴1단지|1077":{"city_code":"29155","dong":"봉선동","name":"더쉴1단지","addr":"1077","query":"광주 봉선동 1077","lat":35.1210119118212,"lng":126.907657826144,"road":"광주 남구 제석로 72","region":"광주 남구 봉선동 1077","building":"봉선 더쉴 1단지","method":"address"},"29155|봉선동|더쉴2단지|1078":{"city_code":"29155","dong":"봉선동","name":"더쉴2단지","addr":"1078","query":"광주 봉선동 1078","lat":35.1203693131602,"lng":126.90823087741,"road":"광주 남구 제석로 70","region":"광주 남구 봉선동 1078","building":"봉선더쉴2단지","method":"address"},"29155|봉선동|라인|502":{"city_code":"29155","dong":"봉선동","name":"라인","addr":"502","query":"광주 봉선동 502","lat":35.1260225494279,"lng":126.907239984292,"road":"광주 남구 봉선로 91","region":"광주 남구 봉선동 502","building":"라인아파트","method":"address"},"29155|봉선동|라인2|518":{"city_code":"29155","dong":"봉선동","name":"라인2","addr":"518","query":"광주 봉선동 518","lat":35.1209188804734,"lng":126.909195005109,"road":"광주 남구 제석로80번길 20","region":"광주 남구 봉선동 518","building":"라인2차아파트","method":"address"},"29155|봉선동|라인3|533-5":{"city_code":"29155","dong":"봉선동","name":"라인3","addr":"533-5","query":"광주 봉선동 533-5","lat":35.1208786852145,"lng":126.910048772072,"road":"광주 남구 제석로80번길 22-3","region":"광주 남구 봉선동 533-5","building":"라인아파트","method":"address"},"29155|봉선동|라인광장1|985":{"city_code":"29155","dong":"봉선동","name":"라인광장1","addr":"985","query":"광주 봉선동 985","lat":35.1298302722993,"lng":126.909990434832,"road":"광주 남구 봉선중앙로 103","region":"광주 남구 봉선동 985","building":"라인광장아파트","method":"address"},"29155|봉선동|라인하이츠|983":{"city_code":"29155","dong":"봉선동","name":"라인하이츠","addr":"983","query":"광주 봉선동 983","lat":35.1312750431342,"lng":126.908393206099,"road":"광주 남구 대남대로159번길 31","region":"광주 남구 봉선동 983","building":"라인하이츠","method":"address"},"29155|봉선동|명성|1121-1":{"city_code":"29155","dong":"봉선동","name":"명성","addr":"1121-1","query":"광주 봉선동 1121-1","lat":35.1329356724772,"lng":126.907861394187,"road":"광주 남구 대남대로159번길 7","region":"광주 남구 봉선동 1121-1","building":"명성아파트","method":"address"},"29155|봉선동|명지맨션|5":{"city_code":"29155","dong":"봉선동","name":"명지맨션","addr":"5","query":"광주 봉선동 5","lat":35.1271597635691,"lng":126.918739707549,"road":"광주 남구 용대로 128","region":"광주 남구 봉선동 5","building":"명지아파트","method":"address"},"29155|봉선동|모아1단지1차|984":{"city_code":"29155","dong":"봉선동","name":"모아1단지1차","addr":"984","query":"광주 봉선동 984","lat":35.1310400876183,"lng":126.909875874203,"road":"광주 남구 봉선중앙로 109","region":"광주 남구 봉선동 984","building":"모아아파트","method":"address"},"29155|봉선동|모아1단지2차|984":{"city_code":"29155","dong":"봉선동","name":"모아1단지2차","addr":"984","query":"광주 봉선동 984","lat":35.1310400876183,"lng":126.909875874203,"road":"광주 남구 봉선중앙로 109","region":"광주 남구 봉선동 984","building":"모아아파트","method":"address"},"29155|봉선동|모아2단지1차|1043":{"city_code":"29155","dong":"봉선동","name":"모아2단지1차","addr":"1043","query":"광주 봉선동 1043","lat":35.1271290860959,"lng":126.915271815454,"road":"광주 남구 봉선1로 86","region":"광주 남구 봉선동 1043","building":"모아아파트","method":"address"},"29155|봉선동|모아엘가|31":{"city_code":"29155","dong":"봉선동","name":"모아엘가","addr":"31","query":"광주 봉선동 31","lat":35.1220447398716,"lng":126.919611028762,"road":"광주 남구 용대로74번길 8","region":"광주 남구 봉선동 31","building":"모아엘가아파트","method":"address"},"29155|봉선동|무등파크1|172":{"city_code":"29155","dong":"봉선동","name":"무등파크1","addr":"172","query":"광주 봉선동 172","lat":35.1265289751375,"lng":126.916990312666,"road":"광주 남구 용대로 115","region":"광주 남구 봉선동 172","building":"무등파크맨션","method":"address"},