{"30110|가양동|가양시장상가|434":{"city_code":"30110","dong":"가양동","name":"가양시장상가","addr":"434","query":"대전 가양동 434","lat":36.346238209684,"lng":127.443207250753,"road":"대전 동구 매봉로 18","region":"대전 동구 가양동 434","building":"가양시장","method":"address"},"30110|가양동|경원|296-5":{"city_code":"30110","dong":"가양동","name":"경원","addr":"296-5","query":"대전 가양동 296-5","lat":36.3422839918391,"lng":127.443972717437,"road":"대전 동구 가양로56번길 37","region":"대전 동구 가양동 296-5","building":"경원빌라","method":"address"},"30110|가양동|고운하이플러스|716":{"city_code":"30110","dong":"가양동","name":"고운하이플러스","addr":"716","query":"대전 가양동 716","lat":36.3509310427544,"lng":127.445782216774,"road":"대전 동구 동서대로1754번길 60","region":"대전 동구 가양동 716","building":"","method":"address"},"30110|가양동|고운하이플러스|25-1":{"city_code":"30110","dong":"가양동","name":"고운하이플러스","addr":"25-1","query":"대전 가양동 고운하이플러스","lat":36.350062128494656,"lng":127.44554153476865,"road":"대전 동구 동서대로1754번길 60","region":"대전 동구 가양동 716","building":"고운하이플러스아파트","method":"keyword"},"30110|가양동|글로벌|43-2":{"city_code":"30110","dong":"가양동","name":"글로벌","addr":"43-2","query":"대전 가양동 43-2","lat":36.351380985103,"lng":127.450925550878,"road":"대전 동구 동서대로1778번길 122","region":"대전 동구 가양동 43-2","building":"가양글로벌아파트","method":"address"},"30110|가양동|대주파크빌|652-1":{"city_code":"30110","dong":"가양동","name":"대주파크빌","addr":"652-1","query":"대전 가양동 652-1","lat":36.3438330509853,"lng":127.448885517065,"road":"대전 동구 충정로 136","region":"대전 동구 가양동 652-1","building":"대주파크빌","method":"address"},"30110|가양동|대호아파트|153-8":{"city_code":"30110","dong":"가양동","name":"대호아파트","addr":"153-8","query":"대전 가양동 153-8","lat":36.3453953845948,"lng":127.454093564615,"road":"대전 동구 충정로 83","region":"대전 동구 가양동 153-8","building":"대호아파트","method":"address"},"30110|가양동|동신|53-6":{"city_code":"30110","dong":"가양동","name":"동신","addr":"53-6","query":"대전 가양동 53-6","lat":36.3493908565278,"lng":127.450202996525,"road":"대전 동구 동대전로284번길 117","region":"대전 동구 가양동 53-6","building":"동신아파트","method":"address"},"30110|가양동|드림팰리스(C동)|295-8":{"city_code":"30110","dong":"가양동","name":"드림팰리스(C동)","addr":"295-8","query":"대전 가양동 295-8","lat":36.3425559599105,"lng":127.443100278534,"road":"대전 동구 가양로80번길 23","region":"대전 동구 가양동 295-8","building":"드림팰리스 3차","method":"address"},"30110|가양동|드림팰리스아파트|425-6":{"city_code":"30110","dong":"가양동","name":"드림팰리스아파트","addr":"425-6","query":"대전 가양동 425-6","lat":36.35008536359,"lng":127.441685902959,"road":"대전 동구 가양로 154","region":"대전 동구 가양동 425-6","building":"","method":"address"},"30110|가양동|드림팰리스아파트(288-27)|288-27":{"city_code":"30110","dong":"가양동","name":"드림팰리스아파트(288-27)","addr":"288-27","query":"대전 가양동 288-27","lat":36.3434910582374,"lng":127.443089423988,"road":"대전 동구 동대전로263번길 68","region":"대전 동구 가양동 288-27","building":"드림팰리스","method":"address"},"30110|가양동|드림팰리스아파트B동|288-28":{"city_code":"30110","dong":"가양동","name":"드림팰리스아파트B동","addr":"288-28","query":"대전 가양동 288-28","lat":36.3432708219629,"lng":127.442648841746,"road":"대전 동구 동대전로263번길 72","region":"대전 동구 가양동 288-28","building":"드림팰리스","method":"address"},"30110|가양동|부성|42-1":{"city_code":"30110","dong":"가양동","name":"부성","addr":"42-1","query":"대전 가양동 42-1","lat":36.3510130032789,"lng":127.449882357019,"road":"대전 동구 비래서로62번길 75","region":"대전 동구 가양동 42-1","building":"부성아파트","method":"address"},"30110|가양동|시영수정|43-1":{"city_code":"30110","dong":"가양동","name":"시영수정","addr":"43-1","query":"대전 가양동 43-1","lat":36.3516182554551,"lng":127.450330345407,"road":"대전 동구 비래서로62번길 57","region":"대전 동구 가양동 43-1","building":"시영아파트","method":"address"},"30110|가양동|시영예지|36-1":{"city_code":"30110","dong":"가양동","name":"시영예지","addr":"36-1","query":"대전 가양동 36-1","lat":36.3510197301563,"lng":127.447755467459,"road":"대전 동구 비래서로42번길 69","region":"대전 동구 가양동 36-1","building":"시영아파트","method":"address"},"30110|가양동|신도|24-1":{"city_code":"30110","dong":"가양동","name":"신도","addr":"24-1","query":"대전 가양동 신도","lat":36.3495218651204,"lng":127.447112567294,"road":"대전 동구 흥룡로37번길 12","region":"대전 동구 가양동 38-5","building":"신도꼼지락시장","method":"keyword"},"30110|가양동|아침마을|705":{"city_code":"30110","dong":"가양동","name":"아침마을","addr":"705","query":"대전 가양동 705","lat":36.3407503783996,"lng":127.439754823848,"road":"대전 동구 우암로 192","region":"대전 동구 가양동 705","building":"아침마을","method":"address"},"30110|가양동|안전로얄|292-6":{"city_code":"30110","dong":"가양동","name":"안전로얄","addr":"292-6","query":"대전 가양동 292-6","lat":36.3430273174249,"lng":127.443015616874,"road":"대전 동구 가양로68번길 17","region":"대전 동구 가양동 292-6","building":"안전로얄아파트","method":"address"},"30110|가양동|옥수맨션|169-10":{"city_code":"30110","dong":"가양동","name":"옥수맨션","addr":"169-10","query":"대전 가양동 169-10","lat":36.3452057733095,"lng":127.449829566736,"road":"대전 동구 우암로296번길 39","region":"대전 동구 가양동 169-10","building":"옥수아파트","method":"address"},"30110|가양동|와이즈빌|441-5":{"city_code":"30110","dong":"가양동","name":"와이즈빌","addr":"441-5","query":"대전 가양동 441-5","lat":36.3454917515747,"lng":127.440310615094,"road":null,"region":"대전 동구 가양동 441-5","building":null,"method":"address"},"30110|가양동|임광하이츠1동|29-3":{"city_code":"30110","dong":"가양동","name":"임광하이츠1동","addr":"29-3","query":"대전 가양동 29-3","lat":36.3529418912854,"lng":127.446947634181,"road":"대전 동구 동서대로1778번길 48","region":"대전 동구 가양동 29-3","building":"","method":"address"},"30110|가양동|임광하이츠2동|33-4":{"city_code":"30110","dong":"가양동","name":"임광하이츠2동","addr":"33-4","query":"대전 가양동 33-4","lat":36.3527575704199,"lng":127.449071105194,"road":"대전 동구 동서대로1778번길 79","region":"대전 동구 가양동 33-4","building":"임광하이츠","method":"address"},"30110|가양동|임광하이츠3동|34-5":{"city_code":"30110","dong":"가양동","name":"임광하이츠3동","addr":"34-5","query":"대전 가양동 34-5","lat":36.35225228661,"lng":127.448614335399,"road":"대전 동구 동서대로1778번길 78","region":"대전 동구 가양동 34-5","building":"임광하이츠","method":"address"},"30110|가양동|임광하이츠4동|35-14":{"city_code":"30110","dong":"가양동","name":"임광하이츠4동","addr":"35-14","query":"대전 가양동 35-14","lat":36.3513980473731,"lng":127.448354985883,"road":"대전 동구 흥룡로65번길 46","region":"대전 동구 가양동 35-14","building":"임광하이츠","method":"address"},"30110|가양동|조일|88-1":{"city_code":"30110","dong":"가양동","name":"조일","addr":"88-1","query":"대전 가양동 88-1","lat":36.3490480744268,"lng":127.452082368909,"road":"대전 동구 충정로 5","region":"대전 동구 가양동 88-1","building":"조일아파트","method":"address"},"30110|가양동|큰솔3차|162-11":{"city_code":"30110","dong":"가양동","name":"큰솔3차","addr":"162-11","query":"대전 가양동 162-11","lat":36.3470063265434,"lng":127.450759851649,"road":"대전 동구 충정로18번길 60","region":"대전 동구 가양동 162-11","building":"큰솔아파트","method":"address"},"30110|가양동|트윈스아파트11차|421-11":{"city_code":"30110","dong":"가양동","name":"트윈스아파트11차","addr":"421-11","query":"대전 가양동 421-11","lat":36.3476657730128,"lng":127.44475566089,"road":"대전 동구 동대전로 300","region":"대전 동구 가양동 421-11","building":"","method":"address"},"30110|가양동|트윈스아파트8차|165-12":{"city_code":"30110","dong":"가양동","name":"트윈스아파트8차","addr":"165-12","query":"대전 가양동 165-12","lat":36.3452689229991,"lng":127.451651365302,"road":"대전 동구 동대전로248번길 90","region":"대전 동구 가양동 165-12","building":"트윈스아파트 8차","method":"address"},"30110|가양동|트윈스아파트9차|26-9":{"city_code":"30110","dong":"가양동","name":"트윈스아파트9차","addr":"26-9","query":"대전 가양동 26-9","lat":36.3505129611934,"lng":127.446706598591,"road":"대전 동구 동서대로1748번길 75","region":"대전 동구 가양동 26-9","building":"트윈스아파트9차","method":"address"},"30110|가양동|평화|46-2":{"city_code":"30110","dong":"가양동","name":"평화","addr":"46-2","query":"대전 가양동 46-2","lat":36.353869942061,"lng":127.451543515201,"road":"대전 동구 비래서로62번길 5","region":"대전 동구 가양동 46-2","building":"평화아파트","method":"address"},"30110|가양동|평화맨션|443-2":{"city_code":"30110","dong":"가양동","name":"평화맨션","addr":"443-2","query":"대전 가양동 443-2","lat":36.3465978388742,"lng":127.439898209214,"road":"대전 동구 계족로382번길 125","region":"대전 동구 가양동 443-2","building":"평화맨션","method":"address"},"30110|가양동|평화타운맨션|169-4":{"city_code":"30110","dong":"가양동","name":"평화타운맨션","addr":"169-4","query":"대전 가양동 169-4","lat":36.3454623358533,"lng":127.450404176053,"road":"대전 동구 동대전로256번길 74","region":"대전 동구 가양동 169-4","building":"평화아파트","method":"address"},"30110|가양동|한밭빌라|30-3":{"city_code":"30110","dong":"가양동","name":"한밭빌라","addr":"30-3","query":"대전 가양동 30-3","lat":36.3535598830758,"lng":127.447630308816,"road":"대전 동구 흥룡로71번길 115","region":"대전 동구 가양동 30-3","building":"한밭빌라","method":"address"},"30110|가양동|한산(55-3)|55-3":{"city_code":"30110","dong":"가양동","name":"한산(55-3)","addr":"55-3","query":"대전 가양동 55-3","lat":36.3489074934432,"lng":127.448182293238,"road":"대전 동구 흥룡로 40","region":"대전 동구 가양동 55-3","building":"한산아파트","method":"address"},"30110|가양동|한성잉꼬|429-11":{"city_code":"30110","dong":"가양동","name":"한성잉꼬","addr":"429-11","query":"대전 가양동 429-11","lat":36.34880049598,"lng":127.442750657689,"road":"대전 동구 동대전로321번길 9","region":"대전 동구 가양동 429-11","building":"한성잉꼬아파트","method":"address"},"30110|가양동|한울|28-6":{"city_code":"30110","dong":"가양동","name":"한울","addr":"28-6","query":"대전 가양동 28-6","lat":36.3520899869754,"lng":127.447026875738,"road":"대전 동구 동서대로1770번길 76","region":"대전 동구 가양동 28-6","building":"한울아파트","method":"address"},"30110|가양동|해맞이아파트|84-10":{"city_code":"30110","dong":"가양동","name":"해맞이아파트","addr":"84-10","query":"대전 가양동 84-10","lat":36.3480864570623,"lng":127.447984085897,"road":"대전 동구 흥룡로36번길 20","region":"대전 동구 가양동 84-10","building":"해맞이아파트","method":"address"},"30110|가양동|흥룡맨션|85-3":{"city_code":"30110","dong":"가양동","name":"흥룡맨션","addr":"85-3","query":"대전 가양동 85-3","lat":36.3479014970771,"lng":127.447032006872,"road":"대전 동구 우암로291번길 40","region":"대전 동구 가양동 85-3","building":"흥룡연립","method":"address"},"30110|가양동|힐스테이트가양더와이즈|725":{"city_code":"30110","dong":"가양동","name":"힐스테이트가양더와이즈","addr":"725","query":"대전 가양동 725","lat":36.3499471486006,"lng":127.440605073376,"road":"대전 동구 동서대로 1722","region":"대전 동구 가양동 725","building":"힐스테이트 가양 더와이즈","method":"address"},"30110|가오동|대호아파트(420-11)|420-11":{"city_code":"30110","dong":"가오동","name":"대호아파트(420-11)","addr":"420-11","query":"대전 가오동 420-11","lat":36.3019071293869,"lng":127.455492197964,"road":"대전 동구 대전로 389-11","region":"대전 동구 가오동 420-11","building":"대호아파트","method":"address"},"30110|가오동|두둥실|607":{"city_code":"30110","dong":"가오동","name":"두둥실","addr":"607","query":"대전 가오동 607","lat":36.3064961312639,"lng":127.455795232962,"road":"대전 동구 은어송로 59","region":"대전 동구 가오동 607","building":"아파트 두둥실","method":"address"},"30110|가오동|수팰리스|596":{"city_code":"30110","dong":"가오동","name":"수팰리스","addr":"596","query":"대전 가오동 596","lat":36.3069853997399,"lng":127.455648548799,"road":"대전 동구 은어송로51번길 16-20","region":"대전 동구 가오동 596","building":"수 팰리스","method":"address"},"30110|가오동|예오름|158":{"city_code":"30110","dong":"가오동","name":"예오름","addr":"158","query":"대전 가오동 158","lat":36.3083638142652,"lng":127.454614505482,"road":"대전 동구 은어송로51번길 71","region":"대전 동구 가오동 158","building":"예오름 아파트","method":"address"},"30110|가오동|예오름아파트|158":{"city_code":"30110","dong":"가오동","name":"예오름아파트","addr":"158","query":"대전 가오동 158","lat":36.3083638142652,"lng":127.454614505482,"road":"대전 동구 은어송로51번길 71","region":"대전 동구 가오동 158","building":"예오름 아파트","method":"address"},"30110|가오동|유성(1,2동)|212":{"city_code":"30110","dong":"가오동","name":"유성(1,2동)","addr":"212","query":"대전 가오동 212","lat":36.3080672024707,"lng":127.452247412857,"road":"대전 동구 대전로470번길 25","region":"대전 동구 가오동 212","building":"유성아파트","method":"address"},"30110|가오동|유성3동|230":{"city_code":"30110","dong":"가오동","name":"유성3동","addr":"230","query":"대전 가오동 230","lat":36.307247441005,"lng":127.451807555143,"road":"대전 동구 대전로470번길 18-6","region":"대전 동구 가오동 230","building":"유성아파트","method":"address"},"30110|가오동|은어송마을1단지(풍림아이원)|658":{"city_code":"30110","dong":"가오동","name":"은어송마을1단지(풍림아이원)","addr":"658","query":"대전 가오동 658","lat":36.3047683371941,"lng":127.457201735418,"road":"대전 동구 동구청로 67","region":"대전 동구 가오동 658","building":"은어송마을1단지","method":"address"},"30110|가오동|은어송마을3단지(가오아이파크)|496":{"city_code":"30110","dong":"가오동","name":"은어송마을3단지(가오아이파크)","addr":"496","query":"대전 가오동 496","lat":36.3110924341075,"lng":127.460282000469,"road":"대전 동구 은어송로 117","region":"대전 동구 가오동 496","building":"은어송마을3단지","method":"address"},"30110|가오동|은어송마을5단지(우미린)|556":{"city_code":"30110","dong":"가오동","name":"은어송마을5단지(우미린)","addr":"556","query":"대전 가오동 556","lat":36.3082363544787,"lng":127.459736890217,"road":"대전 동구 은어송로 100","region":"대전 동구 가오동 556","building":"은어송마을5단지","method":"address"},"30110|가오동|은어송마을6단지(풍림2차)|497":{"city_code":"30110","dong":"가오동","name":"은어송마을6단지(풍림2차)","addr":"497","query":"대전 가오동 497","lat":36.3096825994309,"lng":127.457095919594,"road":"대전 동구 신기로 100","region":"대전 동구 가오동 497","building":"은어송마을6단지","method":"address"},"30110|가오동|은어송마을7단지|559":{"city_code":"30110","dong":"가오동","name":"은어송마을7단지","addr":"559","query":"대전 가오동 559","lat":36.3045864155768,"lng":127.459099655025,"road":"대전 동구 동구청로 66","region":"대전 동구 가오동 559","building":"","method":"address"},"30110|가오동|주공(210)|210":{"city_code":"30110","dong":"가오동","name":"주공(210)","addr":"210","query":"대전 가오동 210","lat":36.3070365302761,"lng":127.452936121084,"road":"대전 동구 대전로448번길 11","region":"대전 동구 가오동 210","building":"주공아파트","method":"address"},"30110|가오동|천동주공|394":{"city_code":"30110","dong":"가오동","name":"천동주공","addr":"394","query":"대전 가오동 394","lat":36.3084153902451,"lng":127.449458932442,"road":null,"region":"대전 동구 가오동 394","building":null,"method":"address"},"30110|가오동|화이트타운5차|420-7":{"city_code":"30110","dong":"가오동","name":"화이트타운5차","addr":"420-7","query":"대전 가오동 420-7","lat":36.3015851707925,"lng":127.455696404677,"road":"대전 동구 대전로 389-5","region":"대전 동구 가오동 420-7","building":"화이트타운","method":"address"},"30110|낭월동|e편한세상|723":{"city_code":"30110","dong":"낭월동","name":"e편한세상","addr":"723","query":"대전 낭월동 723","lat":36.2823506436904,"lng":127.469163056934,"road":"대전 동구 산내로 1330","region":"대전 동구 낭월동 723","building":"남대전 e편한세상","method":"address"},"30110|낭월동|오투그란데|304":{"city_code":"30110","dong":"낭월동","name":"오투그란데","addr":"304","query":"대전 낭월동 304","lat":36.2857259416909,"lng":127.464636308964,"road":"대전 동구 산내로 1375","region":"대전 동구 낭월동 304","building":"오투그란데 아파트","method":"address"},"30110|대동|개나리|1-1113":{"city_code":"30110","dong":"대동","name":"개나리","addr":"1-1113","query":"대전 대동 1-1113","lat":36.3298007163889,"lng":127.450958647218,"road":"대전 동구 동대전로110번길 141","region":"대전 동구 대동 1-1113","building":"개나리아파트","method":"address"},"30110|대동|개나리(1-549)|1-549":{"city_code":"30110","dong":"대동","name":"개나리(1-549)","addr":"1-549","query":"대전 대동 1-549","lat":36.3300312426054,"lng":127.450957191353,"road":"대전 동구 동대전로110번길 141","region":"대전 동구 대동 1-549","building":"개나리아파트","method":"address"},"30110|대동|대동탑스빌|163-13":{"city_code":"30110","dong":"대동","name":"대동탑스빌","addr":"163-13","query":"대전 대동 163-13","lat":36.3291371655228,"lng":127.440841374133,"road":"대전 동구 대동천우안4길 14","region":"대전 동구 대동 163-13","building":"대동탑스빌","method":"address"},"30110|대동|대동펜타뷰|535":{"city_code":"30110","dong":"대동","name":"대동펜타뷰","addr":"535","query":"대전 대동 535","lat":36.3273016015882,"lng":127.445907520272,"road":"대전 동구 계족로140번길 33","region":"대전 동구 대동 535","building":"펜타뷰","method":"address"},"30110|대동|대신새들뫼1단지|527":{"city_code":"30110","dong":"대동","name":"대신새들뫼1단지","addr":"527","query":"대전 대동 527","lat":36.327460347916,"lng":127.442134185313,"road":"대전 동구 계족로 137","region":"대전 동구 대동 527","building":"새들뫼휴먼시아1단지","method":"address"},"30110|대동|이스트시티1단지|539":{"city_code":"30110","dong":"대동","name":"이스트시티1단지","addr":"539","query":"대전 대동 539","lat":36.3263167244968,"lng":127.43923380045,"road":"대전 동구 동대전로46번길 30","region":"대전 동구 대동 539","building":"이스트시티1단지","method":"address"},"30110|대동|진달래|1-589":{"city_code":"30110","dong":"대동","name":"진달래","addr":"1-589","query":"대전 대동 1-589","lat":36.3298090836946,"lng":127.450771141711,"road":"대전 동구 동대전로110번길 139","region":"대전 동구 대동 1-589","building":"진달래아파트","method":"address"},"30110|대동|진달래(1-535)|1-535":{"city_code":"30110","dong":"대동","name":"진달래(1-535)","addr":"1-535","query":"대전 대동 1-535","lat":36.3300978928907,"lng":127.450823592097,"road":"대전 동구 동대전로110번길 139","region":"대전 동구 대동 1-535","building":"진달래아파트","method":"address"},"30110|대성동|삼익세라믹|30":{"city_code":"30110","dong":"대성동","name":"삼익세라믹","addr":"30","query":"대전 대성동 30","lat":36.2981124521757,"lng":127.460991376821,"road":"대전 동구 대전로340번길 20","region":"대전 동구 대성동 30","building":"삼익세라믹아파트","method":"address"},"30110|대성동|서미가아파트|42-1":{"city_code":"30110","dong":"대성동","name":"서미가아파트","addr":"42-1","query":"대전 대성동 42-1","lat":36.2974406504975,"lng":127.459907654881,"road":"대전 동구 대전로 332","region":"대전 동구 대성동 42-1","building":"서미가아파트","method":"address"},"30110|대성동|은어송마을2단지(코오롱하늘채)|130":{"city_code":"30110","dong":"대성동","name":"은어송마을2단지(코오롱하늘채)","addr":"130","query":"대전 대성동 130","lat":36.3018765068255,"lng":127.458317347606,"road":"대전 동구 동구청로 35","region":"대전 동구 대성동 130","building":"은어송마을2단지 코오롱하늘채","method":"address"},"30110|대성동|은어송코오롱하늘채2차|420":{"city_code":"30110","dong":"대성동","name":"은어송코오롱하늘채2차","addr":"420","query":"대전 대성동 420","lat":36.2989087326307,"lng":127.45979837474,"road":"대전 동구 대전로340번길 15","region":"대전 동구 대성동 420","building":"은어송 코오롱 하늘채 2차","method":"address"},"30110|대성동|은어송하늘채리버뷰|454":{"city_code":"30110","dong":"대성동","name":"은어송하늘채리버뷰","addr":"454","query":"대전 대성동 454","lat":36.2986045963155,"lng":127.457822605845,"road":"대전 동구 대전로 357","region":"대전 동구 대성동 454","building":"은어송하늘채리버뷰","method":"address"},"30110|삼성동|대전역대라수어썸브릿지1단지|106-28":{"city_code":"30110","dong":"삼성동","name":"대전역대라수어썸브릿지1단지","addr":"106-28","query":"대전 삼성동 106-28","lat":36.3378827145301,"lng":127.430757800855,"road":"대전 동구 삼성시장2길 28","region":"대전 동구 삼성동 106-28","building":"대전역대라수 어썸브릿지 1단지","method":"address"},"30110|삼성동|대전역대라수어썸브릿지2단지|109-1":{"city_code":"30110","dong":"삼성동","name":"대전역대라수어썸브릿지2단지","addr":"109-1","query":"대전 삼성동 109-1","lat":36.3373244000303,"lng":127.430917905285,"road":"대전 동구 삼성시장2길 18","region":"대전 동구 삼성동 109-1","building":"대전역대라수 어썸브릿지 2단지","method":"address"},"30110|삼성동|대청|302-94":{"city_code":"30110","dong":"삼성동","name":"대청","addr":"302-94","query":"대전 삼성동 302-94","lat":36.3410258614561,"lng":127.427058581476,"road":"대전 동구 대전로906번길 86-1","region":"대전 동구 삼성동 302-94","building":"대청아파트","method":"address"},"30110|삼성동|맑은미소|108-3":{"city_code":"30110","dong":"삼성동","name":"맑은미소","addr":"108-3","query":"대전 삼성동 108-3","lat":36.3370214065315,"lng":127.430447865334,"road":"대전 동구 대전로 872","region":"대전 동구 삼성동 108-3","building":"맑은미소아파트","method":"address"},"30110|삼성동|빌라맨션|279-1":{"city_code":"30110","dong":"삼성동","name":"빌라맨션","addr":"279-1","query":"대전 삼성동 279-1","lat":36.3344288143307,"lng":127.425160953886,"road":"대전 동구 대전천동로 618","region":"대전 동구 삼성동 279-1","building":"빌라맨션","method":"address"},"30110|삼성동|삼성|278-1":{"city_code":"30110","dong":"삼성동","name":"삼성","addr":"278-1","query":"대전 삼성동 278-1","lat":36.3339420417803,"lng":127.425604719577,"road":"대전 동구 대전천동로 612","region":"대전 동구 삼성동 278-1","building":"삼성 아파트","method":"address"},"30110|삼성동|삼성타운2단지|481":{"city_code":"30110","dong":"삼성동","name":"삼성타운2단지","addr":"481","query":"대전 삼성동 481","lat":36.3406924462129,"lng":127.432142250486,"road":"대전 동구 우암로 133-1","region":"대전 동구 삼성동 481","building":"주공삼성타운아파트","method":"address"},"30110|삼성동|솔랑마을|369-1":{"city_code":"30110","dong":"삼성동","name":"솔랑마을","addr":"369-1","query":"대전 삼성동 369-1","lat":36.3431605975901,"lng":127.42350387643,"road":"대전 동구 대전로 968","region":"대전 동구 삼성동 369-1","building":"솔랑마을아파트","method":"address"},"30110|삼성동|한밭상가|269-13":{"city_code":"30110","dong":"삼성동","name":"한밭상가","addr":"269-13","query":"대전 삼성동 269-13","lat":36.3352995301715,"lng":127.427913364911,"road":"대전 동구 대전로867번길 51","region":"대전 동구 삼성동 269-13","building":"한밭맨션","method":"address"},"30110|삼성동|한밭자이|479":{"city_code":"30110","dong":"삼성동","name":"한밭자이","addr":"479","query":"대전 삼성동 479","lat":36.3406403331339,"lng":127.424429355764,"road":"대전 동구 대전로 935","region":"대전 동구 삼성동 479","building":"한밭자이아파트","method":"address"},"30110|성남동|석촌마을|518":{"city_code":"30110","dong":"성남동","name":"석촌마을","addr":"518","query":"대전 성남동 518","lat":36.3409849500445,"lng":127.438357753641,"road":"대전 동구 우암로 186","region":"대전 동구 성남동 518","building":"석촌마을","method":"address"},"30110|성남동|스마트뷰|528":{"city_code":"30110","dong":"성남동","name":"스마트뷰","addr":"528","query":"대전 성남동 528","lat":36.3428306688841,"lng":127.432862743407,"road":"대전 동구 성남로 15","region":"대전 동구 성남동 528","building":"스마트뷰","method":"address"},"30110|성남동|큰솔|157-1":{"city_code":"30110","dong":"성남동","name":"큰솔","addr":"157-1","query":"대전 성남동 157-1","lat":36.3416585382553,"lng":127.433948667289,"road":"대전 동구 동서대로1572번길 165","region":"대전 동구 성남동 157-1","building":"큰솔아파트","method":"address"},"30110|성남동|효촌마을|520":{"city_code":"30110","dong":"성남동","name":"효촌마을","addr":"520","query":"대전 성남동 520","lat":36.3455856287696,"lng":127.43468049757,"road":"대전 동구 계족로368번길 11","region":"대전 동구 성남동 520","building":"효촌마을아파트","method":"address"},"30110|신흥동|신흥SKVIEW|264":{"city_code":"30110","dong":"신흥동","name":"신흥SKVIEW","addr":"264","query":"대전 신흥동 264","lat":36.3245298325182,"lng":127.442542604808,"road":"대전 동구 충무로 255","region":"대전 동구 신흥동 264","building":"신흥 SKVIEW아파트","method":"address"},"30110|신흥동|신흥마을주공|212":{"city_code":"30110","dong":"신흥동","name":"신흥마을주공","addr":"212","query":"대전 신흥동 212","lat":36.3205152155895,"lng":127.445105481657,"road":"대전 동구 옥천로 38","region":"대전 동구 신흥동 212","building":"신흥마을아파트","method":"address"},"30110|신흥동|이스트시티2단지|262":{"city_code":"30110","dong":"신흥동","name":"이스트시티2단지","addr":"262","query":"대전 신흥동 262","lat":36.3234167741343,"lng":127.439909993252,"road":"대전 동구 동대전로46번길 120","region":"대전 동구 신흥동 262","building":"이스트시티2단지","method":"address"},"30110|용운동|e편한세상 대전에코포레|783":{"city_code":"30110","dong":"용운동","name":"e편한세상 대전에코포레","addr":"783","query":"대전 용운동 783","lat":36.3289753403596,"lng":127.463767323406,"road":"대전 동구 용운로 203","region":"대전 동구 용운동 783","building":"e편한세상 대전에코포레","method":"address"},"30110|용운동|마젤란21|598":{"city_code":"30110","dong":"용운동","name":"마젤란21","addr":"598","query":"대전 용운동 598","lat":36.3393114558991,"lng":127.458487790063,"road":"대전 동구 대학로 102-7","region":"대전 동구 용운동 598","building":"용운마젤란21아파트","method":"address"},"30110|용운동|모리|319-1":{"city_code":"30110","dong":"용운동","name":"모리","addr":"319-1","query":"대전 용운동 319-1","lat":36.3231752008156,"lng":127.461950121236,"road":"대전 동구 동부로85번길 12","region":"대전 동구 용운동 319-1","building":"모리아파트","method":"address"},"30110|용운동|삼정하이츠|363":{"city_code":"30110","dong":"용운동","name":"삼정하이츠","addr":"363","query":"대전 용운동 363","lat":36.3263600039184,"lng":127.4578861316,"road":"대전 동구 동부로73번길 95","region":"대전 동구 용운동 363","building":"삼정하이츠타운","method":"address"},"30110|용운동|용방마을|460":{"city_code":"30110","dong":"용운동","name":"용방마을","addr":"460","query":"대전 용운동 460","lat":36.3262257427972,"lng":127.453367001492,"road":"대전 동구 용운로 80","region":"대전 동구 용운동 460","building":"용방마을아파트","method":"address"},"30110|용운동|용운주공2단지|147":{"city_code":"30110","dong":"용운동","name":"용운주공2단지","addr":"147","query":"대전 용운동 147","lat":36.329547593493,"lng":127.454190808662,"road":"대전 동구 백룡로 138","region":"대전 동구 용운동 147","building":"주공아파트","method":"address"},"30110|용운동|정원|423-15":{"city_code":"30110","dong":"용운동","name":"정원","addr":"423-15","query":"대전 용운동 423-15","lat":36.3274380001581,"lng":127.455737864162,"road":null,"region":"대전 동구 용운동 423-15","building":null,"method":"address"},"30110|용운동|주공|297":{"city_code":"30110","dong":"용운동","name":"주공","addr":"297","query":"대전 용운동 주공","lat":36.34428696653598,"lng":127.44396581848021,"road":"대전 동구 우암로 250","region":"대전 동구 가양동 412-13","building":"한국토지주택공사 충남남부권주거복지지사","method":"keyword"},"30110|용운동|주공-1|298":{"city_code":"30110","dong":"용운동","name":"주공-1","addr":"298","query":"대전 용운동 주공-1","lat":36.31618774443761,"lng":127.46288257319524,"road":"대전 동구 옥천로180번길 47-2","region":"대전 동구 판암동 178","building":"판암주공 1단지2단지 관리사무소","method":"keyword"},"30110|용운동|한화꿈에그린|703":{"city_code":"30110","dong":"용운동","name":"한화꿈에그린","addr":"703","query":"대전 용운동 703","lat":36.3314207224672,"lng":127.456829714237,"road":"대전 동구 대학로50번길 53","region":"대전 동구 용운동 703","building":"한화꿈에그린아파트","method":"address"},"30110|용전동|(63-21)|63-21":{"city_code":"30110","dong":"용전동","name":"(63-21)","addr":"63-21","query":"대전 용전동 63-21","lat":36.3513382792274,"lng":127.435964107015,"road":"대전 동구 동서대로1683번길 50-8","region":"대전 동구 용전동 63-21","building":"","method":"address"},"30110|용전동|새피앙|181-1":{"city_code":"30110","dong":"용전동","name":"새피앙","addr":"181-1","query":"대전 용전동 181-1","lat":36.3506685469694,"lng":127.42951355023,"road":"대전 동구 홍도로46번길 20","region":"대전 동구 용전동 181-1","building":"새피앙아파트","method":"address"},"30110|용전동|신동아|1":{"city_code":"30110","dong":"용전동","name":"신동아","addr":"1","query":"대전 용전동 1","lat":36.358800667236,"lng":127.438118601887,"road":"대전 동구 한밭대로1237번길 52","region":"대전 동구 용전동 1","building":"신동아아파트","method":"address"},"30110|용전동|크로바|178":{"city_code":"30110","dong":"용전동","name":"크로바","addr":"178","query":"대전 용전동 178","lat":36.3510930330349,"lng":127.431605159095,"road":"대전 동구 계족로 443","region":"대전 동구 용전동 178","building":"신진크로바맨션","method":"address"},"30110|용전동|큰솔101동|48-22":{"city_code":"30110","dong":"용전동","name":"큰솔101동","addr":"48-22","query":"대전 용전동 48-22","lat":36.355784665259,"lng":127.434801593897,"road":"대전 동구 계족로512번길 52","region":"대전 동구 용전동 48-22","building":"큰솔아파트1단지","method":"address"},"30110|용전동|큰솔102동|48-1":{"city_code":"30110","dong":"용전동","name":"큰솔102동","addr":"48-1","query":"대전 용전동 48-1","lat":36.3561551456163,"lng":127.434378062299,"road":"대전 동구 계족로512번길 42","region":"대전 동구 용전동 48-1","building":"큰솔아파트2단지","method":"address"},"30110|용전동|푸른|57-21":{"city_code":"30110","dong":"용전동","name":"푸른","addr":"57-21","query":"대전 용전동 57-21","lat":36.3542679012445,"lng":127.436309878593,"road":"대전 동구 계족로512번길 96","region":"대전 동구 용전동 57-21","building":"푸른아파트","method":"address"},"30110|용전동|한숲|194-3":{"city_code":"30110","dong":"용전동","name":"한숲","addr":"194-3","query":"대전 용전동 194-3","lat":36.3541289250846,"lng":127.428519631901,"road":"대전 동구 계족로489번길 73","region":"대전 동구 용전동 194-3","building":"한숲아파트","method":"address"},"30110|용전동|한울|131-1":{"city_code":"30110","dong":"용전동","name":"한울","addr":"131-1","query":"대전 용전동 131-1","lat":36.3514435181781,"lng":127.435227416652,"road":"대전 동구 계족로450번길 52","region":"대전 동구 용전동 131-1","building":"부성한울아파트","method":"address"},"30110|원동|뜰안채주상복합|35-3":{"city_code":"30110","dong":"원동","name":"뜰안채주상복합","addr":"35-3","query":"대전 원동 35-3","lat":36.327592520446,"lng":127.435069565447,"road":"대전 동구 대전로 758","region":"대전 동구 원동 35-3","building":"뜰안채주상복합","method":"address"},"30110|인동|구룡시티빌|78-1":{"city_code":"30110","dong":"인동","name":"구룡시티빌","addr":"78-1","query":"대전 인동 78-1","lat":36.3251094169121,"lng":127.43430169371,"road":"대전 동구 대흥로202번길 26","region":"대전 동구 인동 78-1","building":"구룡시티빌","method":"address"},"30110|인동|구룡아트빌|77-1":{"city_code":"30110","dong":"인동","name":"구룡아트빌","addr":"77-1","query":"대전 인동 77-1","lat":36.3252910259053,"lng":127.434568424537,"road":"대전 동구 대흥로202번길 21-4","region":"대전 동구 인동 77-1","building":"구룡아트빌","method":"address"},"30110|인동|담소루아파트|12-5":{"city_code":"30110","dong":"인동","name":"담소루아파트","addr":"12-5","query":"대전 인동 12-5","lat":36.3256978057298,"lng":127.434373227421,"road":"대전 동구 대흥로202번길 13","region":"대전 동구 인동 12-5","building":"담소루아파트","method":"address"},"30110|인동|대호아파트|82-6":{"city_code":"30110","dong":"인동","name":"대호아파트","addr":"82-6","query":"대전 인동 82-6","lat":36.3255081468012,"lng":127.43413930453,"road":"대전 동구 대흥로202번길 16","region":"대전 동구 인동 82-6","building":"대호아파트","method":"address"},"30110|인동|모닝빌|29-2":{"city_code":"30110","dong":"인동","name":"모닝빌","addr":"29-2","query":"대전 인동 29-2","lat":36.3230289402632,"lng":127.435842012212,"road":"대전 동구 대전천동로 458","region":"대전 동구 인동 29-2","building":"모닝빌아파트","method":"address"},"30110|인동|부성한울|73-1":{"city_code":"30110","dong":"인동","name":"부성한울","addr":"73-1","query":"대전 인동 73-1","lat":36.324019504399,"lng":127.435176883361,"road":"대전 동구 대흥로206번길 54","region":"대전 동구 인동 73-1","building":"한울아파트","method":"address"},"30110|인동|세강듀오빌|78-4":{"city_code":"30110","dong":"인동","name":"세강듀오빌","addr":"78-4","query":"대전 인동 78-4","lat":36.3245149250557,"lng":127.434545628519,"road":"대전 동구 대전천동로 478","region":"대전 동구 인동 78-4","building":"듀오빌아파트","method":"address"},"30110|인동|어진마을|353":{"city_code":"30110","dong":"인동","name":"어진마을","addr":"353","query":"대전 인동 353","lat":36.3212224022076,"lng":127.442182915785,"road":"대전 동구 계족로 65","region":"대전 동구 인동 353","building":"어진마을아파트","method":"address"},"30110|인동|현대|179-1":{"city_code":"30110","dong":"인동","name":"현대","addr":"179-1","query":"대전 인동 179-1","lat":36.3196821071374,"lng":127.440108049477,"road":"대전 동구 대전로 664","region":"대전 동구 인동 179-1","building":"현대아파트","method":"address"},"30110|인동|힐링타운도시형주택|77-6":{"city_code":"30110","dong":"인동","name":"힐링타운도시형주택","addr":"77-6","query":"대전 인동 77-6","lat":36.32458589006,"lng":127.434955183356,"road":"대전 동구 대흥로202번길 39","region":"대전 동구 인동 77-6","building":"","method":"address"},"30110|자양동|동아아파트(201)|201":{"city_code":"30110","dong":"자양동","name":"동아아파트(201)","addr":"201","query":"대전 자양동 201","lat":36.3416040596632,"lng":127.452191723477,"road":"대전 동구 성동로 74","region":"대전 동구 자양동 201","building":"동아아파트","method":"address"},"30110|자양동|무궁화|111-1":{"city_code":"30110","dong":"자양동","name":"무궁화","addr":"111-1","query":"대전 자양동 111-1","lat":36.3336265861627,"lng":127.451096643084,"road":"대전 동구 백룡로 50","region":"대전 동구 자양동 111-1","building":"무궁화아파트","method":"address"},"30110|자양동|삼창|86-2":{"city_code":"30110","dong":"자양동","name":"삼창","addr":"86-2","query":"대전 자양동 86-2","lat":36.3391111249993,"lng":127.451695785679,"road":"대전 동구 성동로7번길 58-10","region":"대전 동구 자양동 86-2","building":"삼창아파트","method":"address"},"30110|자양동|임광(83-6)|83-6":{"city_code":"30110","dong":"자양동","name":"임광(83-6)","addr":"83-6","query":"대전 자양동 83-6","lat":36.3399835654856,"lng":127.451024027353,"road":"대전 동구 성동로7번길 58-11","region":"대전 동구 자양동 83-6","building":"","method":"address"},"30110|자양동|평화|93-4":{"city_code":"30110","dong":"자양동","name":"평화","addr":"93-4","query":"대전 자양동 93-4","lat":36.3376306392682,"lng":127.450702927381,"road":"대전 동구 백룡로21번길 53","region":"대전 동구 자양동 93-4","building":"평화맨션","method":"address"},"30110|중동|반석시티|56-7":{"city_code":"30110","dong":"중동","name":"반석시티","addr":"56-7","query":"대전 중동 56-7","lat":36.3307371666714,"lng":127.429239731555,"road":"대전 동구 대전로807번길 58","region":"대전 동구 중동 56-7","building":"","method":"address"},"30110|중동|올인하우징1|32-2":{"city_code":"30110","dong":"중동","name":"올인하우징1","addr":"32-2","query":"대전 중동 32-2","lat":36.3322729917418,"lng":127.428248654421,"road":"대전 동구 선화로192번길 39","region":"대전 동구 중동 32-2","building":"","method":"address"},"30110|중동|올인하우징2|32-32":{"city_code":"30110","dong":"중동","name":"올인하우징2","addr":"32-32","query":"대전 중동 32-32","lat":36.3321830748594,"lng":127.428368672674,"road":"대전 동구 선화로192번길 41","region":"대전 동구 중동 32-32","building":"","method":"address"},"30110|천동|리더스시티4BL|173":{"city_code":"30110","dong":"천동","name":"리더스시티4BL","addr":"173","query":"대전 천동 173","lat":36.3184218476739,"lng":127.444191024444,"road":"대전 동구 안샘로 11","region":"대전 동구 천동 173","building":"리더스시티4BL","method":"address"},"30110|천동|리더스시티5BL|228-9":{"city_code":"30110","dong":"천동","name":"리더스시티5BL","addr":"228-9","query":"대전 천동 228-9","lat":36.317600456574,"lng":127.445900921583,"road":"대전 동구 안샘로14번길 7","region":"대전 동구 천동 228-9","building":"리더스시티5BL","method":"address"},"30110|천동|위드힐|540":{"city_code":"30110","dong":"천동","name":"위드힐","addr":"540","query":"대전 천동 540","lat":36.3155193512648,"lng":127.442874837147,"road":"대전 동구 대전로542번길 121","region":"대전 동구 천동 540","building":"위드힐","method":"address"},"30110|천동|홍익|71-14":{"city_code":"30110","dong":"천동","name":"홍익","addr":"71-14","query":"대전 천동 71-14","lat":36.3109516284645,"lng":127.447138317214,"road":"대전 동구 대전로 529","region":"대전 동구 천동 71-14","building":"천동홍익아파트","method":"address"},"30110|천동|휴먼시아1단지|529":{"city_code":"30110","dong":"천동","name":"휴먼시아1단지","addr":"529","query":"대전 천동 529","lat":36.3146493735451,"lng":127.446720482348,"road":"대전 동구 대전로542번길 78","region":"대전 동구 천동 529","building":"휴먼시아1단지아파트","method":"address"},"30110|천동|휴먼시아2단지|528":{"city_code":"30110","dong":"천동","name":"휴먼시아2단지","addr":"528","query":"대전 천동 528","lat":36.3150564288924,"lng":127.449079367732,"road":"대전 동구 대전로542번길 78-1","region":"대전 동구 천동 528","building":"휴먼시아2단지아파트","method":"address"},"30110|판암동|미리내아파트|460":{"city_code":"30110","dong":"판암동","name":"미리내아파트","addr":"460","query":"대전 판암동 460","lat":36.3156442618778,"lng":127.454825254247,"road":"대전 동구 동구청로203번길 35","region":"대전 동구 판암동 460","building":"미리내아파트","method":"address"},"30110|판암동|방주아파트|328":{"city_code":"30110","dong":"판암동","name":"방주아파트","addr":"328","query":"대전 판암동 328","lat":36.315420426681,"lng":127.458712193601,"road":"대전 동구 동구청로204번길 46","region":"대전 동구 판암동 328","building":"방주아파트","method":"address"},"30110|판암동|삼정그린코아포레스트(1단지)|839":{"city_code":"30110","dong":"판암동","name":"삼정그린코아포레스트(1단지)","addr":"839","query":"대전 판암동 839","lat":36.3190124980106,"lng":127.459702951008,"road":"대전 동구 동부로10번길 55","region":"대전 동구 판암동 839","building":"삼정그린코아 포레스트(1단지)","method":"address"},"30110|판암동|삼정그린코아포레스트(2단지)|834":{"city_code":"30110","dong":"판암동","name":"삼정그린코아포레스트(2단지)","addr":"834","query":"대전 판암동 834","lat":36.3207000684555,"lng":127.461636844211,"road":"대전 동구 새울로 19","region":"대전 동구 판암동 834","building":"삼정그린코아 포레스트(2단지)","method":"address"},"30110|판암동|삼정그린코아포레스트1단지|839":{"city_code":"30110","dong":"판암동","name":"삼정그린코아포레스트1단지","addr":"839","query":"대전 판암동 839","lat":36.3190124980106,"lng":127.459702951008,"road":"대전 동구 동부로10번길 55","region":"대전 동구 판암동 839","building":"삼정그린코아 포레스트(1단지)","method":"address"},"30110|판암동|삼정그린코아포레스트2단지|834":{"city_code":"30110","dong":"판암동","name":"삼정그린코아포레스트2단지","addr":"834","query":"대전 판암동 834","lat":36.3207000684555,"lng":127.461636844211,"road":"대전 동구 새울로 19","region":"대전 동구 판암동 834","building":"삼정그린코아 포레스트(2단지)","method":"address"},"30110|판암동|주공1|178":{"city_code":"30110","dong":"판암동","name":"주공1","addr":"178","query":"대전 판암동 178","lat":36.3160005750067,"lng":127.463346481918,"road":"대전 동구 옥천로180번길 47-2","region":"대전 동구 판암동 178","building":"주공아파트","method":"address"},"30110|판암동|주공2|202":{"city_code":"30110","dong":"판암동","name":"주공2","addr":"202","query":"대전 판암동 202","lat":36.3169432192679,"lng":127.461852769154,"road":"대전 동구 옥천로180번길 23","region":"대전 동구 판암동 202","building":"주공아파트","method":"address"},"30110|판암동|주공5|236":{"city_code":"30110","dong":"판암동","name":"주공5","addr":"236","query":"대전 판암동 236","lat":36.322511143166,"lng":127.458551508013,"road":"대전 동구 동부로 73","region":"대전 동구 판암동 236","building":"주공아파트","method":"address"},"30110|판암동|주공6|233":{"city_code":"30110","dong":"판암동","name":"주공6","addr":"233","query":"대전 판암동 233","lat":36.3240626344011,"lng":127.458168701444,"road":"대전 동구 동부로 55-58","region":"대전 동구 판암동 233","building":"주공아파트6단지","method":"address"},"30110|판암동|참좋은|335-7":{"city_code":"30110","dong":"판암동","name":"참좋은","addr":"335-7","query":"대전 판암동 335-7","lat":36.3147670177999,"lng":127.460788541572,"road":"대전 동구 옥천로180번길 67","region":"대전 동구 판암동 335-7","building":"판암동참좋은아파트","method":"address"},"30110|홍도동|경성3|64-1":{"city_code":"30110","dong":"홍도동","name":"경성3","addr":"64-1","query":"대전 홍도동 64-1","lat":36.345969186891,"lng":127.429064765145,"road":"대전 동구 동산초교로10번길 20","region":"대전 동구 홍도동 64-1","building":"경성 아파트","method":"address"},"30110|홍도동|경성맨션1|23-1":{"city_code":"30110","dong":"홍도동","name":"경성맨션1","addr":"23-1","query":"대전 홍도동 23-1","lat":36.34596547593,"lng":127.425439661729,"road":"대전 동구 동산초교로23번길 15","region":"대전 동구 홍도동 23-1","building":"경성아파트","method":"address"},"30110|홍도동|경성맨션2|23-3":{"city_code":"30110","dong":"홍도동","name":"경성맨션2","addr":"23-3","query":"대전 홍도동 경성맨션2","error":"not found"},"30110|홍도동|대호하이츠|113-6":{"city_code":"30110","dong":"홍도동","name":"대호하이츠","addr":"113-6","query":"대전 홍도동 113-6","lat":36.3477739285249,"lng":127.421274575317,"road":"대전 동구 옛신탄진로81번길 16-12","region":"대전 동구 홍도동 113-6","building":"대호하이츠","method":"address"},"30110|홍도동|시영|135-1":{"city_code":"30110","dong":"홍도동","name":"시영","addr":"135-1","query":"대전 홍도동 135-1","lat":36.3456707310793,"lng":127.420875919709,"road":"대전 동구 대전로1002번길 24-4","region":"대전 동구 홍도동 135-1","building":"시영아파트","method":"address"},"30110|홍도동|시영아파트|135-2":{"city_code":"30110","dong":"홍도동","name":"시영아파트","addr":"135-2","query":"대전 홍도동 135-2","lat":36.3458518120009,"lng":127.421198497121,"road":"대전 동구 대전로1002번길 24-6","region":"대전 동구 홍도동 135-2","building":"시영아파트","method":"address"},"30110|홍도동|신동아파밀리에1단지|1003":{"city_code":"30110","dong":"홍도동","name":"신동아파밀리에1단지","addr":"1003","query":"대전 홍도동 1003","lat":36.3480596484764,"lng":127.425559335329,"road":"대전 동구 동산초교로 46","region":"대전 동구 홍도동 1003","building":"신동아파밀리에아파트1단지","method":"address"},"30110|홍도동|신동아파밀리에2단지|1004":{"city_code":"30110","dong":"홍도동","name":"신동아파밀리에2단지","addr":"1004","query":"대전 홍도동 1004","lat":36.3468236028825,"lng":127.426619581896,"road":"대전 동구 동산초교로 34","region":"대전 동구 홍도동 1004","building":"신동아파밀리에아파트2단지","method":"address"},"30110|홍도동|신동아파밀리에3단지|1001":{"city_code":"30110","dong":"홍도동","name":"신동아파밀리에3단지","addr":"1001","query":"대전 홍도동 1001","lat":36.3480958280907,"lng":127.422932829123,"road":"대전 동구 동산초교로55번길 20","region":"대전 동구 홍도동 1001","building":"신동아파밀리에아파트3단지","method":"address"},"30110|홍도동|신동아파밀리에4단지|1002":{"city_code":"30110","dong":"홍도동","name":"신동아파밀리에4단지","addr":"1002","query":"대전 홍도동 1002","lat":36.3478801605375,"lng":127.424462518796,"road":"대전 동구 동산초교로 47","region":"대전 동구 홍도동 1002","building":"신동아파밀리에아파트4단지","method":"address"},"30110|홍도동|에코시티|1014":{"city_code":"30110","dong":"홍도동","name":"에코시티","addr":"1014","query":"대전 홍도동 1014","lat":36.3451652410751,"lng":127.428414035474,"road":null,"region":"대전 동구 홍도동 1014","building":null,"method":"address"},"30110|홍도동|청룡|56-1":{"city_code":"30110","dong":"홍도동","name":"청룡","addr":"56-1","query":"대전 홍도동 56-1","lat":36.3469440984985,"lng":127.428028427051,"road":"대전 동구 동산초교로22번길 17","region":"대전 동구 홍도동 56-1","building":"청룡아파트","method":"address"},"30110|홍도동|청룡|57":{"city_code":"30110","dong":"홍도동","name":"청룡","addr":"57","query":"대전 홍도동 57","lat":36.3471961997608,"lng":127.427336572079,"road":null,"region":"대전 동구 홍도동 57","building":null,"method":"address"},"30110|홍도동|평화로운|89-17":{"city_code":"30110","dong":"홍도동","name":"평화로운","addr":"89-17","query":"대전 홍도동 89-17","lat":36.3483323358739,"lng":127.427304013249,"road":"대전 동구 홍도로39번길 25","region":"대전 동구 홍도동 89-17","building":"평화로운아파트","method":"address"},"30110|홍도동|현암|16-1":{"city_code":"30110","dong":"홍도동","name":"현암","addr":"16-1","query":"대전 홍도동 16-1","lat":36.3440830101545,"lng":127.424908541568,"road":"대전 동구 대전로994번길 75","region":"대전 동구 홍도동 16-1","building":"현암아파트","method":"address"},"30110|홍도동|홍도|14-1":{"city_code":"30110","dong":"홍도동","name":"홍도","addr":"14-1","query":"대전 홍도동 14-1","lat":36.3444209369978,"lng":127.426808991521,"road":"대전 동구 동서대로 1579","region":"대전 동구 홍도동 14-1","building":"홍도아파트","method":"address"},"30110|홍도동|홍도동갤러리휴리움|1012":{"city_code":"30110","dong":"홍도동","name":"홍도동갤러리휴리움","addr":"1012","query":"대전 홍도동 1012","lat":36.3454599639207,"lng":127.425983088088,"road":"대전 동구 한남로67번길 193","region":"대전 동구 홍도동 1012","building":"홍도동갤러리휴리움","method":"address"},"30110|효동|효동현대|135-1":{"city_code":"30110","dong":"효동","name":"효동현대","addr":"135-1","query":"대전 효동 135-1","lat":36.3180549495173,"lng":127.440668271555,"road":"대전 동구 대전로 646","region":"대전 동구 효동 135-1","building":"효동현대아파트","method":"address"},"30140|대사동|계룡|248-219":{"city_code":"30140","dong":"대사동","name":"계룡","addr":"248-219","query":"대전 대사동 248-219","lat":36.3205241249254,"lng":127.417278578603,"road":"대전 중구 계룡로929번길 40","region":"대전 중구 대사동 248-219","building":"계룡아파트","method":"address"},"30140|대사동|더퍼스트뷰|233-43":{"city_code":"30140","dong":"대사동","name":"더퍼스트뷰","addr":"233-43","query":"대전 대사동 233-43","lat":36.3175179132896,"lng":127.421687197914,"road":"대전 중구 충무로68번안길 64","region":"대전 중구 대사동 233-43","building":"","method":"address"},"30140|대사동|보문|87-40":{"city_code":"30140","dong":"대사동","name":"보문","addr":"87-40","query":"대전 대사동 87-40","lat":36.3165305219969,"lng":127.42615123088,"road":"대전 중구 보문로 151","region":"대전 중구 대사동 87-40","building":"보문아파트","method":"address"},"30140|대사동|선원대자연|640-7":{"city_code":"30140","dong":"대사동","name":"선원대자연","addr":"640-7","query":"대전 대사동 640-7","lat":36.3153829340327,"lng":127.416623142302,"road":"대전 중구 보문산로 375","region":"대전 중구 대사동 640-7","building":"대자연아파트","method":"address"},"30140|대사동|솔리안시티|248-222":{"city_code":"30140","dong":"대사동","name":"솔리안시티","addr":"248-222","query":"대전 대사동 248-222","lat":36.3199830507348,"lng":127.416246615561,"road":"대전 중구 계룡로 931","region":"대전 중구 대사동 248-222","building":"솔리안시티","method":"address"},"30140|대사동|영진로얄|95-16":{"city_code":"30140","dong":"대사동","name":"영진로얄","addr":"95-16","query":"대전 대사동 95-16","lat":36.3167981016371,"lng":127.426802446961,"road":"대전 중구 보문로 146","region":"대전 중구 대사동 95-16","building":"영진로얄맨션아파트","method":"address"},"30140|대흥동|DAVINCI|502-12":{"city_code":"30140","dong":"대흥동","name":"DAVINCI","addr":"502-12","query":"대전 대흥동 502-12","lat":36.3245120399683,"lng":127.420640278356,"road":"대전 중구 중교로 7-7","region":"대전 중구 대흥동 502-12","building":"다빈치","method":"address"},"30140|대흥동|나이스타운2차|122-1":{"city_code":"30140","dong":"대흥동","name":"나이스타운2차","addr":"122-1","query":"대전 대흥동 122-1","lat":36.325456456504,"lng":127.429263445194,"road":"대전 중구 대종로452번길 24","region":"대전 중구 대흥동 122-1","building":"나이스타운II","method":"address"},"30140|대흥동|대미리치빌|452-22":{"city_code":"30140","dong":"대흥동","name":"대미리치빌","addr":"452-22","query":"대전 대흥동 452-22","lat":36.3242743622232,"lng":127.424499955667,"road":"대전 중구 대흥로111번길 24","region":"대전 중구 대흥동 452-22","building":"대미리치빌","method":"address"},"30140|대흥동|대전센트럴자이1단지|912":{"city_code":"30140","dong":"대흥동","name":"대전센트럴자이1단지","addr":"912","query":"대전 대흥동 912","lat":36.3222347478193,"lng":127.427729899675,"road":"대전 중구 충무로107번길 100","region":"대전 중구 대흥동 912","building":"센트럴자이","method":"address"},"30140|대흥동|대전센트럴자이2단지|913":{"city_code":"30140","dong":"대흥동","name":"대전센트럴자이2단지","addr":"913","query":"대전 대흥동 913","lat":36.3222533023411,"lng":127.426193632956,"road":"대전 중구 충무로107번길 100","region":"대전 중구 대흥동 913","building":"센트럴자이","method":"address"},"30140|대흥동|대흥동나이스타운1차|504-5":{"city_code":"30140","dong":"대흥동","name":"대흥동나이스타운1차","addr":"504-5","query":"대전 대흥동 504-5","lat":36.3245205642321,"lng":127.421060287444,"road":"대전 중구 중교로 9","region":"대전 중구 대흥동 504-5","building":"나이스타운","method":"address"},"30140|대흥동|동건참좋은|402-1":{"city_code":"30140","dong":"대흥동","name":"동건참좋은","addr":"402-1","query":"대전 대흥동 402-1","lat":36.322939229774,"lng":127.428827791964,"road":"대전 중구 대종로 425","region":"대전 중구 대흥동 402-1","building":"참좋은아파트","method":"address"},"30140|대흥동|듀오빌|447-2":{"city_code":"30140","dong":"대흥동","name":"듀오빌","addr":"447-2","query":"대전 대흥동 447-2","lat":36.3235228868478,"lng":127.424723621706,"road":"대전 중구 보문로230번길 32","region":"대전 중구 대흥동 447-2","building":"듀오빌아파트","method":"address"},"30140|대흥동|드림시티|437":{"city_code":"30140","dong":"대흥동","name":"드림시티","addr":"437","query":"대전 대흥동 437","lat":36.3241983728206,"lng":127.427035571778,"road":"대전 중구 대흥로 135","region":"대전 중구 대흥동 437","building":"드림시티","method":"address"},"30140|대흥동|드림팰리스아파트|115-11":{"city_code":"30140","dong":"대흥동","name":"드림팰리스아파트","addr":"115-11","query":"대전 대흥동 115-11","lat":36.3246366516918,"lng":127.43076752194,"road":"대전 중구 문창로 132","region":"대전 중구 대흥동 115-11","building":"드림팰리스 아파트","method":"address"},"30140|대흥동|센텀시티|219-1":{"city_code":"30140","dong":"대흥동","name":"센텀시티","addr":"219-1","query":"대전 대흥동 219-1","lat":36.3263475569182,"lng":127.425857764641,"road":"대전 중구 중앙로138번길 48","region":"대전 중구 대흥동 219-1","building":"중앙로 센텀시티","method":"address"},"30140|대흥동|신영미소랑|161-8":{"city_code":"30140","dong":"대흥동","name":"신영미소랑","addr":"161-8","query":"대전 대흥동 161-8","lat":36.3249028568799,"lng":127.429089571833,"road":"대전 중구 대흥로157번길 5","region":"대전 중구 대흥동 161-8","building":"신영미소랑아파트","method":"address"},"30140|대흥동|푸르내|103-2":{"city_code":"30140","dong":"대흥동","name":"푸르내","addr":"103-2","query":"대전 대흥동 103-2","lat":36.3251016787621,"lng":127.432110275874,"road":"대전 중구 대전천서로 401","region":"대전 중구 대흥동 103-2","building":"푸르내아파트","method":"address"},"30140|대흥동|한정큐리어스|300-5":{"city_code":"30140","dong":"대흥동","name":"한정큐리어스","addr":"300-5","query":"대전 대흥동 300-5","lat":36.3200518268008,"lng":127.419772534097,"road":"대전 중구 테미로19번길 3","region":"대전 중구 대흥동 300-5","building":"한정큐리어스","method":"address"},"30140|대흥동|현대1|22-7":{"city_code":"30140","dong":"대흥동","name":"현대1","addr":"22-7","query":"대전 대흥동 22-7","lat":36.3243982173163,"lng":127.431612148345,"road":"대전 중구 대흥로 176-15","region":"대전 중구 대흥동 22-7","building":"현대아파트","method":"address"},"30140|대흥동|현대2|106-48":{"city_code":"30140","dong":"대흥동","name":"현대2","addr":"106-48","query":"대전 대흥동 106-48","lat":36.3187223922563,"lng":127.426826412131,"road":"대전 중구 보문로162번길 23","region":"대전 중구 대흥동 106-48","building":"현대아파트","method":"address"},"30140|목동|금호한사랑|111-12":{"city_code":"30140","dong":"목동","name":"금호한사랑","addr":"111-12","query":"대전 목동 111-12","lat":36.3315192647324,"lng":127.413372868756,"road":"대전 중구 동서대로 1388","region":"대전 중구 목동 111-12","building":"금호한사랑아파트","method":"address"},"30140|목동|대전목동더샵|360":{"city_code":"30140","dong":"목동","name":"대전목동더샵","addr":"360","query":"대전 목동 360","lat":36.3335577660888,"lng":127.410275149162,"road":"대전 중구 목동로22번길 16","region":"대전 중구 목동 360","building":"대전목동더샵","method":"address"},"30140|목동|대전목동모아엘가그랑데|380":{"city_code":"30140","dong":"목동","name":"대전목동모아엘가그랑데","addr":"380","query":"대전 목동 380","lat":36.3348181682333,"lng":127.410007649189,"road":"대전 중구 목동로22번길 45","region":"대전 중구 목동 380","building":"대전 목동 모아엘가 그랑데","method":"address"},"30140|목동|모아엘가그랑데|34-11":{"city_code":"30140","dong":"목동","name":"모아엘가그랑데","addr":"34-11","query":"대전 목동 모아엘가그랑데","lat":36.3353612719697,"lng":127.410306771543,"road":"대전 중구 목동로22번길 45","region":"대전 중구 목동 380","building":"목동모아엘가그랑데아파트","method":"keyword"},"30140|목동|목동더샵리슈빌|372":{"city_code":"30140","dong":"목동","name":"목동더샵리슈빌","addr":"372","query":"대전 목동 372","lat":36.3330158246046,"lng":127.413926642019,"road":"대전 중구 선화서로 115","region":"대전 중구 목동 372","building":"목동더샵리슈빌","method":"address"},"30140|목동|목동더샵리슈빌|1-95":{"city_code":"30140","dong":"목동","name":"목동더샵리슈빌","addr":"1-95","query":"대전 목동 목동더샵리슈빌","lat":36.332750902716256,"lng":127.41412783766235,"road":"대전 중구 선화서로 115","region":"대전 중구 목동 372","building":"목동더샵리슈빌아파트","method":"keyword"},"30140|목동|목동모아엘가그랑데|380":{"city_code":"30140","dong":"목동","name":"목동모아엘가그랑데","addr":"380","query":"대전 목동 380","lat":36.3348181682333,"lng":127.410007649189,"road":"대전 중구 목동로22번길 45","region":"대전 중구 목동 380","building":"대전 목동 모아엘가 그랑데","method":"address"},"30140|목동|목양마을|24":{"city_code":"30140","dong":"목동","name":"목양마을","addr":"24","query":"대전 목동 24","lat":36.3347488279623,"lng":127.405555603315,"road":"대전 중구 목동로 37","region":"대전 중구 목동 24","building":"목양마을아파트","method":"address"},"30140|목동|엠스타목동타운|363":{"city_code":"30140","dong":"목동","name":"엠스타목동타운","addr":"363","query":"대전 목동 363","lat":36.3353541193246,"lng":127.408052807404,"road":"대전 중구 목동로56번길 15","region":"대전 중구 목동 363","building":"엠스타 목동타운","method":"address"},"30140|목동|올리브힐|362":{"city_code":"30140","dong":"목동","name":"올리브힐","addr":"362","query":"대전 목동 362","lat":36.3369171022214,"lng":127.407265230461,"road":"대전 중구 목동로 70","region":"대전 중구 목동 362","building":"올리브힐아파트","method":"address"},"30140|목동|평화|21-1":{"city_code":"30140","dong":"목동","name":"평화","addr":"21-1","query":"대전 목동 21-1","lat":36.3335577581974,"lng":127.408488399741,"road":"대전 중구 목동로22번길 3","region":"대전 중구 목동 21-1","building":"평화주택","method":"address"},"30140|목동|현대(132-2)|132-2":{"city_code":"30140","dong":"목동","name":"현대(132-2)","addr":"132-2","query":"대전 목동 132-2","lat":36.3288401103988,"lng":127.413177512723,"road":"대전 중구 선화로43번길 29","region":"대전 중구 목동 132-2","building":"현대아파트","method":"address"},"30140|문창동|다솔리버팰리스1차|24-3":{"city_code":"30140","dong":"문창동","name":"다솔리버팰리스1차","addr":"24-3","query":"대전 문창동 24-3","lat":36.3228820577383,"lng":127.4323156276,"road":"대전 중구 인창로 25","region":"대전 중구 문창동 24-3","building":"다솔 RIVER PALACE","method":"address"},"30140|문창동|부자촌|10-48":{"city_code":"30140","dong":"문창동","name":"부자촌","addr":"10-48","query":"대전 문창동 10-48","lat":36.3225969626291,"lng":127.433797752405,"road":"대전 중구 문창로102번길 38","region":"대전 중구 문창동 10-48","building":"","method":"address"},"30140|문창동|은혜|123-23":{"city_code":"30140","dong":"문창동","name":"은혜","addr":"123-23","query":"대전 문창동 123-23","lat":36.3161520804571,"lng":127.435958064,"road":"대전 중구 대종로334번길 40","region":"대전 중구 문창동 123-23","building":"은혜아파트","method":"address"},"30140|문화동|계룡|418-1":{"city_code":"30140","dong":"문화동","name":"계룡","addr":"418-1","query":"대전 문화동 418-1","lat":36.3130798736494,"lng":127.405247364911,"road":"대전 중구 천근로69번길 114","region":"대전 중구 문화동 418-1","building":"계룡문화아파트","method":"address"},"30140|문화동|계룡맨션|1-34":{"city_code":"30140","dong":"문화동","name":"계룡맨션","addr":"1-34","query":"대전 문화동 계룡맨션","lat":36.3222505851544,"lng":127.410411763136,"road":"대전 중구 계백로 1719","region":"대전 중구 오류동 154-4","building":"문화1동 계룡맨션아파트재건축조합","method":"keyword"},"30140|문화동|극동|584-4":{"city_code":"30140","dong":"문화동","name":"극동","addr":"584-4","query":"대전 문화동 584-4","lat":36.3063391229634,"lng":127.402556895442,"road":"대전 중구 송리로 6","region":"대전 중구 문화동 584-4","building":"극동아파트","method":"address"},"30140|문화동|글로리아아파트|795":{"city_code":"30140","dong":"문화동","name":"글로리아아파트","addr":"795","query":"대전 문화동 795","lat":36.3193175561582,"lng":127.413851415949,"road":"대전 중구 계룡로920번안길 60","region":"대전 중구 문화동 795","building":"글로리아아파트","method":"address"},"30140|문화동|동양맨션가동|560-6":{"city_code":"30140","dong":"문화동","name":"동양맨션가동","addr":"560-6","query":"대전 문화동 560-6","lat":36.3059693513421,"lng":127.397932036149,"road":"대전 중구 보문산로171번안길 25","region":"대전 중구 문화동 560-6","building":"동양맨션","method":"address"},"30140|문화동|동양맨션나동|562-6":{"city_code":"30140","dong":"문화동","name":"동양맨션나동","addr":"562-6","query":"대전 문화동 562-6","lat":36.305859347611,"lng":127.398707295114,"road":"대전 중구 보문산로 165","region":"대전 중구 문화동 562-6","building":"동양맨션","method":"address"},"30140|문화동|동양맨션라동|560-15":{"city_code":"30140","dong":"문화동","name":"동양맨션라동","addr":"560-15","query":"대전 문화동 560-15","lat":36.305776989459,"lng":127.398136481097,"road":"대전 중구 보문산로 161","region":"대전 중구 문화동 560-15","building":"동양맨션","method":"address"},"30140|문화동|동양맨션마동|560-8":{"city_code":"30140","dong":"문화동","name":"동양맨션마동","addr":"560-8","query":"대전 문화동 560-8","lat":36.3057617212189,"lng":127.397796037197,"road":"대전 중구 보문산로 157","region":"대전 중구 문화동 560-8","building":"동양맨션","method":"address"},"30140|문화동|문화로얄|422-3":{"city_code":"30140","dong":"문화동","name":"문화로얄","addr":"422-3","query":"대전 문화동 422-3","lat":36.3123391990727,"lng":127.405936458262,"road":"대전 중구 서문로43번길 39","region":"대전 중구 문화동 422-3","building":"문화로얄아파트","method":"address"},"30140|문화동|문화마을1단지|1-43":{"city_code":"30140","dong":"문화동","name":"문화마을1단지","addr":"1-43","query":"대전 문화동 1-43","lat":36.3195895452821,"lng":127.409661613451,"road":"대전 중구 계백로1716번길 40","region":"대전 중구 문화동 1-43","building":"문화마을금호어울림아파트","method":"address"},"30140|문화동|문화마을2단지|1-38":{"city_code":"30140","dong":"문화동","name":"문화마을2단지","addr":"1-38","query":"대전 문화동 1-38","lat":36.3201002858671,"lng":127.411564315831,"road":"대전 중구 계백로1716번길 39","region":"대전 중구 문화동 1-38","building":"문화마을금호어울림아파트","method":"address"},"30140|문화동|삼성푸른|777":{"city_code":"30140","dong":"문화동","name":"삼성푸른","addr":"777","query":"대전 문화동 777","lat":36.3084330312407,"lng":127.398057902169,"road":"대전 중구 보문산로161번길 56","region":"대전 중구 문화동 777","building":"삼성푸른아파트","method":"address"},"30140|문화동|삼익|311-4":{"city_code":"30140","dong":"문화동","name":"삼익","addr":"311-4","query":"대전 문화동 311-4","lat":36.319199934961,"lng":127.405308665517,"road":"대전 중구 서문로 119","region":"대전 중구 문화동 311-4","building":"삼익아파트","method":"address"},"30140|문화동|센트럴스타클래스|1-9":{"city_code":"30140","dong":"문화동","name":"센트럴스타클래스","addr":"1-9","query":"대전 문화동 1-9","lat":36.32239565029,"lng":127.415375775087,"road":"대전 중구 중앙로 28","region":"대전 중구 문화동 1-9","building":"센트럴스타클래스","method":"address"},"30140|문화동|센트럴파크1단지|284-168":{"city_code":"30140","dong":"문화동","name":"센트럴파크1단지","addr":"284-168","query":"대전 문화동 284-168","lat":36.3164034817151,"lng":127.406557288618,"road":"대전 중구 서문로 95","region":"대전 중구 문화동 284-168","building":"센트럴파크1단지아파트","method":"address"},"30140|문화동|센트럴파크2단지|1-253":{"city_code":"30140","dong":"문화동","name":"센트럴파크2단지","addr":"1-253","query":"대전 문화동 1-253","lat":36.3171963902657,"lng":127.409420364939,"road":"대전 중구 서문로 96","region":"대전 중구 문화동 1-253","building":"센트럴파크2단지아파트","method":"address"},"30140|문화동|센트럴파크3단지|1-3":{"city_code":"30140","dong":"문화동","name":"센트럴파크3단지","addr":"1-3","query":"대전 문화동 1-3","lat":36.3186857518213,"lng":127.412596631505,"road":"대전 중구 계백로1716번길 87","region":"대전 중구 문화동 1-3","building":"센트럴파크3단지아파트","method":"address"},"30140|문화동|주공2|775":{"city_code":"30140","dong":"문화동","name":"주공2","addr":"775","query":"대전 문화동 775","lat":36.309140521447,"lng":127.399255002856,"road":"대전 중구 산성로 108-24","region":"대전 중구 문화동 775","building":"주공2차아파트","method":"address"},"30140|문화동|주공3|757":{"city_code":"30140","dong":"문화동","name":"주공3","addr":"757","query":"대전 문화동 757","lat":36.3099575594754,"lng":127.400459143437,"road":"대전 중구 산성로 108-23","region":"대전 중구 문화동 757","building":"주공3차아파트","method":"address"},"30140|문화동|평화|372-2":{"city_code":"30140","dong":"문화동","name":"평화","addr":"372-2","query":"대전 문화동 372-2","lat":36.3158352203572,"lng":127.403972255096,"road":"대전 중구 문화로163번길 26","region":"대전 중구 문화동 372-2","building":"평화아파트","method":"address"},"30140|문화동|하우스토리1차|1-135":{"city_code":"30140","dong":"문화동","name":"하우스토리1차","addr":"1-135","query":"대전 문화동 1-135","lat":36.3205995951742,"lng":127.415507450207,"road":"대전 중구 계룡로 923","region":"대전 중구 문화동 1-135","building":"하우스토리1차","method":"address"},"30140|문화동|하우스토리2차|1-31":{"city_code":"30140","dong":"문화동","name":"하우스토리2차","addr":"1-31","query":"대전 문화동 1-31","lat":36.3199815385856,"lng":127.414607275206,"road":"대전 중구 계룡로 922","region":"대전 중구 문화동 1-31","building":"하우스토리2차","method":"address"},"30140|문화동|한밭우성|141":{"city_code":"30140","dong":"문화동","name":"한밭우성","addr":"141","query":"대전 문화동 141","lat":36.3114971307814,"lng":127.409321083241,"road":"대전 중구 서문로 32","region":"대전 중구 문화동 141","building":"한밭우성아파트","method":"address"},"30140|문화동|한신휴플러스보르미|311-3":{"city_code":"30140","dong":"문화동","name":"한신휴플러스보르미","addr":"311-3","query":"대전 문화동 311-3","lat":36.3200028043783,"lng":127.406659167088,"road":"대전 중구 서문로 132","region":"대전 중구 문화동 311-3","building":"","method":"address"},"30140|문화동|한신휴플러스보르미1단지|311-3":{"city_code":"30140","dong":"문화동","name":"한신휴플러스보르미1단지","addr":"311-3","query":"대전 문화동 311-3","lat":36.3200028043783,"lng":127.406659167088,"road":"대전 중구 서문로 132","region":"대전 중구 문화동 311-3","building":"","method":"address"},"30140|문화동|한신휴플러스보르미2단지|311-71":{"city_code":"30140","dong":"문화동","name":"한신휴플러스보르미2단지","addr":"311-71","query":"대전 문화동 311-71","lat":36.3191306714225,"lng":127.407101074605,"road":"대전 중구 계룡로904번길 127","region":"대전 중구 문화동 311-71","building":"한신휴플러스보르미아파트","method":"address"},"30140|문화동|햇살|422-1":{"city_code":"30140","dong":"문화동","name":"햇살","addr":"422-1","query":"대전 문화동 422-1","lat":36.3125414409674,"lng":127.406461851869,"road":"대전 중구 서문로43번길 37","region":"대전 중구 문화동 422-1","building":"햇살아파트","method":"address"},"30140|문화동|효성상아맨션|1-46":{"city_code":"30140","dong":"문화동","name":"효성상아맨션","addr":"1-46","query":"대전 문화동 1-46","lat":36.319369054536,"lng":127.408019914755,"road":"대전 중구 계백로1686번길 51","region":"대전 중구 문화동 1-46","building":"효성상아아파트","method":"address"},"30140|부사동|대성해뜨는마을|153-2":{"city_code":"30140","dong":"부사동","name":"대성해뜨는마을","addr":"153-2","query":"대전 부사동 153-2","lat":36.3123861058623,"lng":127.435251741219,"road":"대전 중구 사득로79번길 70","region":"대전 중구 부사동 153-2","building":"대성해뜨는마을","method":"address"},"30140|부사동|대영프라임|130-3":{"city_code":"30140","dong":"부사동","name":"대영프라임","addr":"130-3","query":"대전 부사동 130-3","lat":36.3136011075501,"lng":127.433009428334,"road":"대전 중구 대종로315번길 25","region":"대전 중구 부사동 130-3","building":"대영프라임아파트","method":"address"},"30140|부사동|민영1동|230-71":{"city_code":"30140","dong":"부사동","name":"민영1동","addr":"230-71","query":"대전 부사동 230-71","lat":36.3119959565374,"lng":127.430005494845,"road":"대전 중구 보문로109번길 31-18","region":"대전 중구 부사동 230-71","building":"민영아파트","method":"address"},"30140|부사동|민영2동|230-72":{"city_code":"30140","dong":"부사동","name":"민영2동","addr":"230-72","query":"대전 부사동 230-72","lat":36.312381799722,"lng":127.430067185559,"road":"대전 중구 보문로109번길 31-10","region":"대전 중구 부사동 230-72","building":"민영아파트","method":"address"},"30140|부사동|부사한솔|423-7":{"city_code":"30140","dong":"부사동","name":"부사한솔","addr":"423-7","query":"대전 부사동 423-7","lat":36.3086153291521,"lng":127.430665684125,"road":"대전 중구 부용로 55","region":"대전 중구 부사동 423-7","building":"부사한솔아파트","method":"address"},"30140|부사동|아이비|101-1":{"city_code":"30140","dong":"부사동","name":"아이비","addr":"101-1","query":"대전 부사동 101-1","lat":36.3146661513534,"lng":127.435110526569,"road":"대전 중구 대종로316번길 19","region":"대전 중구 부사동 101-1","building":"남대전종합시장 아이비","method":"address"},"30140|부사동|창조|298-10":{"city_code":"30140","dong":"부사동","name":"창조","addr":"298-10","query":"대전 부사동 298-10","lat":36.3123679692423,"lng":127.43187876145,"road":"대전 중구 부용로 15","region":"대전 중구 부사동 298-10","building":"창조아파트","method":"address"},"30140|사정동|강변아파트101동|516-7":{"city_code":"30140","dong":"사정동","name":"강변아파트101동","addr":"516-7","query":"대전 사정동 516-7","lat":36.2936521939982,"lng":127.380767733417,"road":"대전 중구 안영로 53","region":"대전 중구 사정동 516-7","building":"강변아파트","method":"address"},"30140|사정동|강변아파트102동|516-6":{"city_code":"30140","dong":"사정동","name":"강변아파트102동","addr":"516-6","query":"대전 사정동 516-6","lat":36.2938702990073,"lng":127.380959935105,"road":"대전 중구 안영로 55","region":"대전 중구 사정동 516-6","building":"강변아파트","method":"address"},"30140|사정동|강변아파트103동|516-5":{"city_code":"30140","dong":"사정동","name":"강변아파트103동","addr":"516-5","query":"대전 사정동 516-5","lat":36.2940908482061,"lng":127.381148587406,"road":"대전 중구 안영로 57","region":"대전 중구 사정동 516-5","building":"강변아파트","method":"address"},"30140|사정동|강변아파트104동|516-3":{"city_code":"30140","dong":"사정동","name":"강변아파트104동","addr":"516-3","query":"대전 사정동 516-3","lat":36.2943084306896,"lng":127.381334888536,"road":"대전 중구 안영로79번길 45","region":"대전 중구 사정동 516-3","building":"강변아파트","method":"address"},"30140|사정동|강변아파트105동|516-1":{"city_code":"30140","dong":"사정동","name":"강변아파트105동","addr":"516-1","query":"대전 사정동 516-1","lat":36.2945380615416,"lng":127.381529710001,"road":"대전 중구 안영로79번길 39","region":"대전 중구 사정동 516-1","building":"강변아파트","method":"address"},"30140|사정동|대상그린나래|395-1":{"city_code":"30140","dong":"사정동","name":"대상그린나래","addr":"395-1","query":"대전 사정동 395-1","lat":36.2972468070508,"lng":127.384997294683,"road":"대전 중구 대둔산로 314","region":"대전 중구 사정동 395-1","building":"","method":"address"},"30140|사정동|대진하모니101동|399-4":{"city_code":"30140","dong":"사정동","name":"대진하모니101동","addr":"399-4","query":"대전 사정동 399-4","lat":36.2963670069396,"lng":127.383531474889,"road":"대전 중구 대둔산로323번길 55-12","region":"대전 중구 사정동 399-4","building":"대진하모니","method":"address"},"30140|사정동|대진하모니201동|399-5":{"city_code":"30140","dong":"사정동","name":"대진하모니201동","addr":"399-5","query":"대전 사정동 399-5","lat":36.2963668665459,"lng":127.38377182849,"road":"대전 중구 대둔산로323번길 55-16","region":"대전 중구 사정동 399-5","building":"그린 하모니","method":"address"},"30140|사정동|동원가든|431-1":{"city_code":"30140","dong":"사정동","name":"동원가든","addr":"431-1","query":"대전 사정동 431-1","lat":36.2984476833838,"lng":127.386462170676,"road":"대전 중구 대둔산로 332","region":"대전 중구 사정동 431-1","building":"산성초등학교","method":"address"},"30140|사정동|샛뜸|439-14":{"city_code":"30140","dong":"사정동","name":"샛뜸","addr":"439-14","query":"대전 사정동 439-14","lat":36.3000746510216,"lng":127.386442697717,"road":"대전 중구 대둔산로350번길 6","region":"대전 중구 사정동 439-14","building":"샛뜸마을아파트","method":"address"},"30140|사정동|성산마을우남스타원|487":{"city_code":"30140","dong":"사정동","name":"성산마을우남스타원","addr":"487","query":"대전 사정동 487","lat":36.2947941740369,"lng":127.382912270798,"road":"대전 중구 안영로 68","region":"대전 중구 사정동 487","building":"성산마을우남스타원아파트","method":"address"},"30140|사정동|하모니301동|398-4":{"city_code":"30140","dong":"사정동","name":"하모니301동","addr":"398-4","query":"대전 사정동 398-4","lat":36.2967377295,"lng":127.383707516713,"road":"대전 중구 대둔산로323번길 47-10","region":"대전 중구 사정동 398-4","building":"하모니아파트","method":"address"},"30140|사정동|하모니401동|398-5":{"city_code":"30140","dong":"사정동","name":"하모니401동","addr":"398-5","query":"대전 사정동 398-5","lat":36.2967416018447,"lng":127.383989082181,"road":"대전 중구 대둔산로323번길 47-16","region":"대전 중구 사정동 398-5","building":"하모니아파트","method":"address"},"30140|산성동|공원|330-2":{"city_code":"30140","dong":"산성동","name":"공원","addr":"330-2","query":"대전 산성동 330-2","lat":36.3057619817224,"lng":127.395244905659,"road":"대전 중구 보문산로141번길 11","region":"대전 중구 산성동 330-2","building":"공원아파트","method":"address"},"30140|산성동|대진하모니|96-6":{"city_code":"30140","dong":"산성동","name":"대진하모니","addr":"96-6","query":"대전 산성동 96-6","lat":36.3067793308297,"lng":127.386003466688,"road":"대전 중구 대둔산로 415-16","region":"대전 중구 산성동 96-6","building":"대진하모니","method":"address"},"30140|산성동|대진하모니프라임|287-2":{"city_code":"30140","dong":"산성동","name":"대진하모니프라임","addr":"287-2","query":"대전 산성동 287-2","lat":36.3070772479308,"lng":127.389148784368,"road":"대전 중구 산성로57번길 111","region":"대전 중구 산성동 287-2","building":"대진하모니 프라임","method":"address"},"30140|산성동|레스트빌리지|246-2":{"city_code":"30140","dong":"산성동","name":"레스트빌리지","addr":"246-2","query":"대전 산성동 246-2","lat":36.3016468511159,"lng":127.38409428857,"road":"대전 중구 유등천동로 201","region":"대전 중구 산성동 246-2","building":"레스트빌리지","method":"address"},"30140|산성동|사랑드림|118-8":{"city_code":"30140","dong":"산성동","name":"사랑드림","addr":"118-8","query":"대전 산성동 118-8","lat":36.3050567278623,"lng":127.38527539301,"road":"대전 중구 보문산로41번길 9","region":"대전 중구 산성동 118-8","building":"사랑드림아파트","method":"address"},"30140|산성동|사랑드림(160-9)|160-9":{"city_code":"30140","dong":"산성동","name":"사랑드림(160-9)","addr":"160-9","query":"대전 산성동 160-9","lat":36.3091368639447,"lng":127.388216596255,"road":"대전 중구 대둔산로 450","region":"대전 중구 산성동 160-9","building":"사랑드림아파트","method":"address"},"30140|산성동|삼창|301-5":{"city_code":"30140","dong":"산성동","name":"삼창","addr":"301-5","query":"대전 산성동 301-5","lat":36.3042687794773,"lng":127.390897309275,"road":"대전 중구 가재울로 15","region":"대전 중구 산성동 301-5","building":"삼창아파트","method":"address"},"30140|산성동|삼창(136-34)|136-34":{"city_code":"30140","dong":"산성동","name":"삼창(136-34)","addr":"136-34","query":"대전 산성동 136-34","lat":36.3128523358436,"lng":127.391479201209,"road":"대전 중구 당디로 89","region":"대전 중구 산성동 136-34","building":"삼창아파트","method":"address"},"30140|산성동|삼창금빛|285-3":{"city_code":"30140","dong":"산성동","name":"삼창금빛","addr":"285-3","query":"대전 산성동 285-3","lat":36.3064526670464,"lng":127.387503290055,"road":"대전 중구 대둔산로420번길 10","region":"대전 중구 산성동 285-3","building":"삼창금빛아파트","method":"address"},"30140|산성동|센트리움|121-16":{"city_code":"30140","dong":"산성동","name":"센트리움","addr":"121-16","query":"대전 산성동 121-16","lat":36.3039313200573,"lng":127.385670449349,"road":"대전 중구 대둔산로385번길 8","region":"대전 중구 산성동 121-16","building":"센트리움","method":"address"},"30140|산성동|아가페|117-15":{"city_code":"30140","dong":"산성동","name":"아가페","addr":"117-15","query":"대전 산성동 117-15","lat":36.3053855018766,"lng":127.385855084854,"road":"대전 중구 보문산로41번길 22","region":"대전 중구 산성동 117-15","building":"아가페아파트","method":"address"},"30140|산성동|우성|37-1":{"city_code":"30140","dong":"산성동","name":"우성","addr":"37-1","query":"대전 산성동 37-1","lat":36.3087745098157,"lng":127.392518701917,"road":"대전 중구 당디로 45","region":"대전 중구 산성동 37-1","building":"우성아파트","method":"address"},"30140|산성동|유등천모아미래도리버뷰|120-15":{"city_code":"30140","dong":"산성동","name":"유등천모아미래도리버뷰","addr":"120-15","query":"대전 산성동 120-15","lat":36.3032983514001,"lng":127.383141218438,"road":"대전 중구 유등천동로 218","region":"대전 중구 산성동 120-15","building":"유등천모아미래도리버뷰","method":"address"},"30140|산성동|정다운|118-6":{"city_code":"30140","dong":"산성동","name":"정다운","addr":"118-6","query":"대전 산성동 118-6","lat":36.3056483749651,"lng":127.385520356198,"road":"대전 중구 보문산로41번길 23","region":"대전 중구 산성동 118-6","building":"정다운아파트","method":"address"},"30140|산성동|크로바아파트|164-2":{"city_code":"30140","dong":"산성동","name":"크로바아파트","addr":"164-2","query":"대전 산성동 164-2","lat":36.3088138637785,"lng":127.387388374621,"road":"대전 중구 대둔산로445번길 3","region":"대전 중구 산성동 164-2","building":"","method":"address"},"30140|산성동|필하모니|158-7":{"city_code":"30140","dong":"산성동","name":"필하모니","addr":"158-7","query":"대전 산성동 158-7","lat":36.3097390099066,"lng":127.388806038897,"road":"대전 중구 문화로 24","region":"대전 중구 산성동 158-7","building":"필하모니","method":"address"},"30140|산성동|필하모니아파트|158-7":{"city_code":"30140","dong":"산성동","name":"필하모니아파트","addr":"158-7","query":"대전 산성동 158-7","lat":36.3097390099066,"lng":127.388806038897,"road":"대전 중구 문화로 24","region":"대전 중구 산성동 158-7","building":"필하모니","method":"address"},"30140|산성동|하모니2|96-5":{"city_code":"30140","dong":"산성동","name":"하모니2","addr":"96-5","query":"대전 산성동 96-5","lat":36.3066759987773,"lng":127.386244234043,"road":"대전 중구 대둔산로 415-10","region":"대전 중구 산성동 96-5","building":"하모니아파트","method":"address"},"30140|산성동|하모니프라임|287-2":{"city_code":"30140","dong":"산성동","name":"하모니프라임","addr":"287-2","query":"대전 산성동 287-2","lat":36.3070772479308,"lng":127.389148784368,"road":"대전 중구 산성로57번길 111","region":"대전 중구 산성동 287-2","building":"대진하모니 프라임","method":"address"},"30140|산성동|한밭가든|78-5":{"city_code":"30140","dong":"산성동","name":"한밭가든","addr":"78-5","query":"대전 산성동 78-5","lat":36.3069313951209,"lng":127.385042446701,"road":"대전 중구 보문산로 31","region":"대전 중구 산성동 78-5","building":"한밭가든아파트","method":"address"},"30140|산성동|한울타리아파트|329-19":{"city_code":"30140","dong":"산성동","name":"한울타리아파트","addr":"329-19","query":"대전 산성동 329-19","lat":36.3055962172956,"lng":127.393836178038,"road":"대전 중구 보문산로 121","region":"대전 중구 산성동 329-19","building":"한울타리 아파트","method":"address"},"30140|석교동|은혜(24)|24":{"city_code":"30140","dong":"석교동","name":"은혜(24)","addr":"24","query":"대전 석교동 24","lat":36.3056667043802,"lng":127.441086896433,"road":"대전 중구 돌다리로 41-32","region":"대전 중구 석교동 24","building":"은혜아파트","method":"address"},"30140|석교동|은혜가동|46-1":{"city_code":"30140","dong":"석교동","name":"은혜가동","addr":"46-1","query":"대전 석교동 46-1","lat":36.3070976582702,"lng":127.44107034889,"road":"대전 중구 돌다리로30번길 5","region":"대전 중구 석교동 46-1","building":"은혜아파트","method":"address"},"30140|선화동|그린빌라트|132-3":{"city_code":"30140","dong":"선화동","name":"그린빌라트","addr":"132-3","query":"대전 선화동 132-3","lat":36.3325143577717,"lng":127.419524406592,"road":"대전 중구 대종로565번길 20","region":"대전 중구 선화동 132-3","building":"그린빌라트","method":"address"},"30140|선화동|다온아파트|77-1":{"city_code":"30140","dong":"선화동","name":"다온아파트","addr":"77-1","query":"대전 선화동 77-1","lat":36.3342723780574,"lng":127.421392772361,"road":"대전 중구 우암로 18","region":"대전 중구 선화동 77-1","building":"","method":"address"},"30140|선화동|대전하늘채스카이앤|903":{"city_code":"30140","dong":"선화동","name":"대전하늘채스카이앤","addr":"903","query":"대전 선화동 903","lat":36.3370081852429,"lng":127.419543491306,"road":"대전 중구 대종로594번길 51","region":"대전 중구 선화동 903","building":"하늘채스카이앤1차","method":"address"},"30140|선화동|대전하늘채스카이앤2차|920":{"city_code":"30140","dong":"선화동","name":"대전하늘채스카이앤2차","addr":"920","query":"대전 선화동 920","lat":36.3360086068212,"lng":127.420925850577,"road":"대전 중구 대종로594번길 52","region":"대전 중구 선화동 920","building":"하늘채스카이앤2차","method":"address"},"30140|선화동|대전한신더휴리저브주상복합|908":{"city_code":"30140","dong":"선화동","name":"대전한신더휴리저브주상복합","addr":"908","query":"대전 선화동 908","lat":36.3351760138682,"lng":127.421538537214,"road":"대전 중구 대종로582번길 36","region":"대전 중구 선화동 908","building":"대전 한신더휴 리저브","method":"address"},"30140|선화동|대전해모로더센트라|895":{"city_code":"30140","dong":"선화동","name":"대전해모로더센트라","addr":"895","query":"대전 선화동 895","lat":36.33023347556,"lng":127.415993405787,"road":"대전 중구 선화서로 85","region":"대전 중구 선화동 895","building":"대전 해모로 더 센트라","method":"address"},"30140|선화동|블레스|369-2":{"city_code":"30140","dong":"선화동","name":"블레스","addr":"369-2","query":"대전 선화동 369-2","lat":36.3273278858955,"lng":127.418630361919,"road":"대전 중구 선화서로 40","region":"대전 중구 선화동 369-2","building":"블레스","method":"address"},"30140|선화동|빌리프|283":{"city_code":"30140","dong":"선화동","name":"빌리프","addr":"283","query":"대전 선화동 283","lat":36.328413134625,"lng":127.421257643725,"road":"대전 중구 대종로517번길 61","region":"대전 중구 선화동 283","building":"","method":"address"},"30140|선화동|선호|152-1":{"city_code":"30140","dong":"선화동","name":"선호","addr":"152-1","query":"대전 선화동 152-1","lat":36.3338065981844,"lng":127.41897243163,"road":"대전 중구 대종로 583","region":"대전 중구 선화동 152-1","building":"선호아파트","method":"address"},"30140|선화동|선화동나이스타운|230-1":{"city_code":"30140","dong":"선화동","name":"선화동나이스타운","addr":"230-1","query":"대전 선화동 230-1","lat":36.3286403208893,"lng":127.422687217859,"road":"대전 중구 중앙로121번길 21","region":"대전 중구 선화동 230-1","building":"나이스타운","method":"address"},"30140|선화동|선화동세울더레스트3차|147-2":{"city_code":"30140","dong":"선화동","name":"선화동세울더레스트3차","addr":"147-2","query":"대전 선화동 147-2","lat":36.3344039082725,"lng":127.418377738959,"road":"대전 중구 대종로 587","region":"대전 중구 선화동 147-2","building":"선화동 세울더레스트 3차","method":"address"},"30140|선화동|선화동스마트284|284-4":{"city_code":"30140","dong":"선화동","name":"선화동스마트284","addr":"284-4","query":"대전 선화동 284-4","lat":36.3282151149584,"lng":127.421368729204,"road":"대전 중구 보문로 286","region":"대전 중구 선화동 284-4","building":"스마트 284","method":"address"},"30140|선화동|선화맨션|160-1":{"city_code":"30140","dong":"선화동","name":"선화맨션","addr":"160-1","query":"대전 선화동 160-1","lat":36.3353779849825,"lng":127.416159205735,"road":"대전 중구 동서대로1440번길 22","region":"대전 중구 선화동 160-1","building":"선화맨션","method":"address"},"30140|선화동|선화상가|114-2":{"city_code":"30140","dong":"선화동","name":"선화상가","addr":"114-2","query":"대전 선화동 114-2","lat":36.3364298331079,"lng":127.417684629031,"road":"대전 중구 동서대로1456번길 21","region":"대전 중구 선화동 114-2","building":"선화상가","method":"address"},"30140|선화동|세림맨션|143-1":{"city_code":"30140","dong":"선화동","name":"세림맨션","addr":"143-1","query":"대전 선화동 143-1","lat":36.3349754088561,"lng":127.417353969459,"road":"대전 중구 동서대로1440번길 41","region":"대전 중구 선화동 143-1","building":"세림맨션","method":"address"},"30140|선화동|센트럴뷰|877":{"city_code":"30140","dong":"선화동","name":"센트럴뷰","addr":"877","query":"대전 선화동 877","lat":36.3238560882511,"lng":127.416776932161,"road":"대전 중구 중앙로 45","region":"대전 중구 선화동 877","building":"센트럴뷰아파트","method":"address"},"30140|선화동|아르젠|159-5":{"city_code":"30140","dong":"선화동","name":"아르젠","addr":"159-5","query":"대전 선화동 159-5","lat":36.3358454842837,"lng":127.416090407561,"road":"대전 중구 동서대로1440번길 5","region":"대전 중구 선화동 159-5","building":"아르젠","method":"address"},"30140|선화동|에이스퀘어|379-1":{"city_code":"30140","dong":"선화동","name":"에이스퀘어","addr":"379-1","query":"대전 선화동 379-1","lat":36.3256178769284,"lng":127.419588447264,"road":"대전 중구 선화서로 18","region":"대전 중구 선화동 379-1","building":"","method":"address"},"30140|선화동|엠제이|372-2":{"city_code":"30140","dong":"선화동","name":"엠제이","addr":"372-2","query":"대전 선화동 372-2","lat":36.3267780891812,"lng":127.419218460378,"road":"대전 중구 선화서로 34-10","region":"대전 중구 선화동 372-2","building":"엠제이아파트","method":"address"},"30140|선화동|자연시티빌|123-2":{"city_code":"30140","dong":"선화동","name":"자연시티빌","addr":"123-2","query":"대전 선화동 123-2","lat":36.3313447656044,"lng":127.422045820199,"road":"대전 중구 대종로 541","region":"대전 중구 선화동 123-2","building":"선화시티빌","method":"address"},"30140|선화동|참좋은|83-1":{"city_code":"30140","dong":"선화동","name":"참좋은","addr":"83-1","query":"대전 선화동 83-1","lat":36.3320529337729,"lng":127.422294224356,"road":"대전 중구 대종로 544","region":"대전 중구 선화동 83-1","building":"참좋은아파트","method":"address"},"30140|선화동|트윈스빌|133-27":{"city_code":"30140","dong":"선화동","name":"트윈스빌","addr":"133-27","query":"대전 선화동 133-27","lat":36.3318326620691,"lng":127.419306350978,"road":"대전 중구 보문로336번길 12","region":"대전 중구 선화동 133-27","building":"트원스빌","method":"address"},"30140|선화동|해모로더센트라|207-16":{"city_code":"30140","dong":"선화동","name":"해모로더센트라","addr":"207-16","query":"대전 선화동 해모로더센트라","lat":36.330255861411516,"lng":127.41637108514824,"road":"대전 중구 선화서로 85","region":"대전 중구 선화동 895","building":"대전해모로더센트라아파트","method":"keyword"},"30140|선화동|현대|151-1":{"city_code":"30140","dong":"선화동","name":"현대","addr":"151-1","query":"대전 선화동 151-1","lat":36.3331625036285,"lng":127.418413313507,"road":"대전 중구 보문로 341","region":"대전 중구 선화동 151-1","building":"현대아파트","method":"address"},"30140|선화동|현암에버드림|161-2":{"city_code":"30140","dong":"선화동","name":"현암에버드림","addr":"161-2","query":"대전 선화동 161-2","lat":36.3354940513401,"lng":127.41688469842,"road":"대전 중구 대종로 605","region":"대전 중구 선화동 161-2","building":"현암에버드림아파트","method":"address"},"30140|선화동|화이트타운|161-3":{"city_code":"30140","dong":"선화동","name":"화이트타운","addr":"161-3","query":"대전 선화동 161-3","lat":36.3355815145085,"lng":127.416586325716,"road":"대전 중구 동서대로1440번길 23","region":"대전 중구 선화동 161-3","building":"화이트타운","method":"address"},"30140|안영동|안영동하모니아파트(101동)|643-5":{"city_code":"30140","dong":"안영동","name":"안영동하모니아파트(101동)","addr":"643-5","query":"대전 안영동 643-5","lat":36.2928151756836,"lng":127.381502507819,"road":"대전 중구 대둔산로255번길 15","region":"대전 중구 안영동 643-5","building":"하모니아파트","method":"address"},"30140|안영동|안영동하모니아파트102동|643-7":{"city_code":"30140","dong":"안영동","name":"안영동하모니아파트102동","addr":"643-7","query":"대전 안영동 643-7","lat":36.29266537067,"lng":127.38182193889,"road":"대전 중구 대둔산로255번길 9","region":"대전 중구 안영동 643-7","building":"하모니아파트","method":"address"},"30140|안영동|한울|696-2":{"city_code":"30140","dong":"안영동","name":"한울","addr":"696-2","query":"대전 안영동 696-2","lat":36.2858199672033,"lng":127.381570640924,"road":"대전 중구 뿌리공원로23번길 34","region":"대전 중구 안영동 696-2","building":"한울아파트","method":"address"},"30140|오류동|나이스타운|171-20":{"city_code":"30140","dong":"오류동","name":"나이스타운","addr":"171-20","query":"대전 오류동 171-20","lat":36.3220387228514,"lng":127.405419359166,"road":"대전 중구 오류로 16","region":"대전 중구 오류동 171-20","building":"","method":"address"},"30140|오류동|리쥬파크|189-12":{"city_code":"30140","dong":"오류동","name":"리쥬파크","addr":"189-12","query":"대전 오류동 189-12","lat":36.328636229367,"lng":127.40289252557,"road":"대전 중구 오류로 92","region":"대전 중구 오류동 189-12","building":"리쥬파크","method":"address"},"30140|오류동|삼성|175-1":{"city_code":"30140","dong":"오류동","name":"삼성","addr":"175-1","query":"대전 오류동 175-1","lat":36.3237346241679,"lng":127.407679174038,"road":"대전 중구 계룡로 852","region":"대전 중구 오류동 175-1","building":"삼성아파트","method":"address"},"30140|오류동|삼성(175-1)|175-1":{"city_code":"30140","dong":"오류동","name":"삼성(175-1)","addr":"175-1","query":"대전 오류동 175-1","lat":36.3237346241679,"lng":127.407679174038,"road":"대전 중구 계룡로 852","region":"대전 중구 오류동 175-1","building":"삼성아파트","method":"address"},"30140|오류동|서대전역코아루써밋|170-5":{"city_code":"30140","dong":"오류동","name":"서대전역코아루써밋","addr":"170-5","query":"대전 오류동 170-5","lat":36.3217291097269,"lng":127.404532199785,"road":"대전 중구 오류로 13-10","region":"대전 중구 오류동 170-5","building":"","method":"address"},"30140|오류동|쉐리움|171-13":{"city_code":"30140","dong":"오류동","name":"쉐리움","addr":"171-13","query":"대전 오류동 171-13","lat":36.3222866901331,"lng":127.405244243801,"road":"대전 중구 오류로 20","region":"대전 중구 오류동 171-13","building":"쉐리움","method":"address"},"30140|오류동|스카이팰리스|73-1":{"city_code":"30140","dong":"오류동","name":"스카이팰리스","addr":"73-1","query":"대전 오류동 73-1","lat":36.3231692554531,"lng":127.403900743422,"road":"대전 중구 오류로 31","region":"대전 중구 오류동 73-1","building":"서대전역 우방아이유쉘 스카이팰리스","method":"address"},"30140|오류동|시티팰리스|171-9":{"city_code":"30140","dong":"오류동","name":"시티팰리스","addr":"171-9","query":"대전 오류동 171-9","lat":36.3225963671774,"lng":127.405181590112,"road":"대전 중구 계백로1685번길 45","region":"대전 중구 오류동 171-9","building":"시티팰리스","method":"address"},"30140|오류동|크럭스빌주상복합|151-8":{"city_code":"30140","dong":"오류동","name":"크럭스빌주상복합","addr":"151-8","query":"대전 오류동 151-8","lat":36.323025262978,"lng":127.410771745856,"road":"대전 중구 계백로 1725-22","region":"대전 중구 오류동 151-8","building":"크럭스빌주상복합","method":"address"},"30140|옥계동|솔빛|45-3":{"city_code":"30140","dong":"옥계동","name":"솔빛","addr":"45-3","query":"대전 옥계동 45-3","lat":36.2992858315738,"lng":127.454744067808,"road":"대전 중구 대종로 66","region":"대전 중구 옥계동 45-3","building":"솔빛아파트","method":"address"},"30140|옥계동|옥계|156-3":{"city_code":"30140","dong":"옥계동","name":"옥계","addr":"156-3","query":"대전 옥계동 156-3","lat":36.2966030126977,"lng":127.453915365604,"road":"대전 중구 학고개로57번길 81","region":"대전 중구 옥계동 156-3","building":"옥계아파트","method":"address"},"30140|옥계동|태성맨션|44-1":{"city_code":"30140","dong":"옥계동","name":"태성맨션","addr":"44-1","query":"대전 옥계동 44-1","lat":36.2999253914426,"lng":127.455077655335,"road":"대전 중구 대전천서로 35","region":"대전 중구 옥계동 44-1","building":"태성맨션","method":"address"},"30140|옥계동|한양그린맨션|201":{"city_code":"30140","dong":"옥계동","name":"한양그린맨션","addr":"201","query":"대전 옥계동 201","lat":36.2962605533263,"lng":127.454653478271,"road":"대전 중구 학고개로57번길 82","region":"대전 중구 옥계동 201","building":"한양그린맨션아파트","method":"address"},"30140|용두동|광흥|166-2":{"city_code":"30140","dong":"용두동","name":"광흥","addr":"166-2","query":"대전 용두동 166-2","lat":36.3325264444881,"lng":127.401147102573,"road":"대전 중구 어덕마을로 9","region":"대전 중구 용두동 166-2","building":"광흥아파트","method":"address"},"30140|용두동|나성|93-6":{"city_code":"30140","dong":"용두동","name":"나성","addr":"93-6","query":"대전 용두동 93-6","lat":36.3281319276579,"lng":127.40865364045,"road":"대전 중구 계룡로815번길 40-1","region":"대전 중구 용두동 93-6","building":"나성아파트","method":"address"},"30140|용두동|늘푸른|99-4":{"city_code":"30140","dong":"용두동","name":"늘푸른","addr":"99-4","query":"대전 용두동 99-4","lat":36.330234563194,"lng":127.407965187358,"road":"대전 중구 동서대로 1347","region":"대전 중구 용두동 99-4","building":"늘푸른아파트","method":"address"},"30140|용두동|대전하늘채엘센트로|723":{"city_code":"30140","dong":"용두동","name":"대전하늘채엘센트로","addr":"723","query":"대전 용두동 723","lat":36.3333872853604,"lng":127.403358607263,"road":"대전 중구 동서대로1327번길 102","region":"대전 중구 용두동 723","building":"대전 하늘채 엘센트로","method":"address"},"30140|용두동|드림스테이|12-1":{"city_code":"30140","dong":"용두동","name":"드림스테이","addr":"12-1","query":"대전 용두동 12-1","lat":36.3235863667315,"lng":127.414547968275,"road":"대전 중구 중앙로 23-17","region":"대전 중구 용두동 12-1","building":"","method":"address"},"30140|용두동|미르마을|39":{"city_code":"30140","dong":"용두동","name":"미르마을","addr":"39","query":"대전 용두동 39","lat":36.3252058467425,"lng":127.413593105146,"road":"대전 중구 선화로22번길 25","region":"대전 중구 용두동 39","building":"미르마을아파트","method":"address"},"30140|용두동|용두|56-53":{"city_code":"30140","dong":"용두동","name":"용두","addr":"56-53","query":"대전 용두동 56-53","lat":36.329100235111,"lng":127.409208991547,"road":"대전 중구 동서대로1340번길 15","region":"대전 중구 용두동 56-53","building":"용두아파트","method":"address"},"30140|용두동|용정|56-145":{"city_code":"30140","dong":"용두동","name":"용정","addr":"56-145","query":"대전 용두동 56-145","lat":36.3279209037597,"lng":127.409933866956,"road":"대전 중구 동서대로1340번길 46","region":"대전 중구 용두동 56-145","building":"용정아파트","method":"address"},"30140|용두동|하늘채엘센트로|167-9":{"city_code":"30140","dong":"용두동","name":"하늘채엘센트로","addr":"167-9","query":"대전 용두동 167-9","lat":36.333085497287,"lng":127.403620796535,"road":null,"region":"대전 중구 용두동 167-9","building":null,"method":"address"},"30140|용두동|한라무지개|160-1":{"city_code":"30140","dong":"용두동","name":"한라무지개","addr":"160-1","query":"대전 용두동 160-1","lat":36.3336097986593,"lng":127.401347125572,"road":"대전 중구 계룡로737번길 27","region":"대전 중구 용두동 160-1","building":"한라무지개아파트","method":"address"},"30140|유천동|궁전아파트|335-11":{"city_code":"30140","dong":"유천동","name":"궁전아파트","addr":"335-11","query":"대전 유천동 335-11","lat":36.3147657886955,"lng":127.391073199522,"road":"대전 중구 당디로 111","region":"대전 중구 유천동 335-11","building":"궁전아파트","method":"address"},"30140|유천동|남촌현대|10-4":{"city_code":"30140","dong":"유천동","name":"남촌현대","addr":"10-4","query":"대전 유천동 10-4","lat":36.319887675041,"lng":127.401421306644,"road":"대전 중구 계백로 1643","region":"대전 중구 유천동 10-4","building":"남촌아파트","method":"address"},"30140|유천동|당대마을|177-7":{"city_code":"30140","dong":"유천동","name":"당대마을","addr":"177-7","query":"대전 유천동 177-7","lat":36.3165854177395,"lng":127.39985475332,"road":"대전 중구 유천로38번길 29","region":"대전 중구 유천동 177-7","building":"당대마을아파트","method":"address"},"30140|유천동|동양맨션|172-12":{"city_code":"30140","dong":"유천동","name":"동양맨션","addr":"172-12","query":"대전 유천동 172-12","lat":36.3151594580023,"lng":127.400104140225,"road":"대전 중구 문화로133번길 42-11","region":"대전 중구 유천동 172-12","building":"동양맨션아파트","method":"address"},"30140|유천동|마일드빌|335-118":{"city_code":"30140","dong":"유천동","name":"마일드빌","addr":"335-118","query":"대전 유천동 335-118","lat":36.3135984025518,"lng":127.390410731183,"road":"대전 중구 대둔산로494번길 19","region":"대전 중구 유천동 335-118","building":"","method":"address"},"30140|유천동|벽산한사랑|10-2":{"city_code":"30140","dong":"유천동","name":"벽산한사랑","addr":"10-2","query":"대전 유천동 10-2","lat":36.319892851434,"lng":127.399930778858,"road":"대전 중구 계백로1615번길 12","region":"대전 중구 유천동 10-2","building":"한사랑아파트","method":"address"},"30140|유천동|서대전한국아델리움|328-50":{"city_code":"30140","dong":"유천동","name":"서대전한국아델리움","addr":"328-50","query":"대전 유천동 328-50","lat":36.3162271687711,"lng":127.391753082505,"road":"대전 중구 당디로124번길 7","region":"대전 중구 유천동 328-50","building":"서대전 한국아델리움","method":"address"},"30140|유천동|유등탑스빌|331-10":{"city_code":"30140","dong":"유천동","name":"유등탑스빌","addr":"331-10","query":"대전 유천동 331-10","lat":36.3144300306329,"lng":127.392715973558,"road":"대전 중구 유천로33번길 106","region":"대전 중구 유천동 331-10","building":"유등탑스빌","method":"address"},"30140|유천동|유천동나이스타운|304-9":{"city_code":"30140","dong":"유천동","name":"유천동나이스타운","addr":"304-9","query":"대전 유천동 304-9","lat":36.317053068363,"lng":127.395947543043,"road":"대전 중구 계백로1584번길 18","region":"대전 중구 유천동 304-9","building":"유천동 나이스타운","method":"address"},"30140|유천동|유천미소랑아파트|303-48":{"city_code":"30140","dong":"유천동","name":"유천미소랑아파트","addr":"303-48","query":"대전 유천동 303-48","lat":36.3166387313441,"lng":127.394686351532,"road":"대전 중구 계백로1566번길 19","region":"대전 중구 유천동 303-48","building":"유천미소랑아파트","method":"address"},"30140|유천동|유천현대아파트|10":{"city_code":"30140","dong":"유천동","name":"유천현대아파트","addr":"10","query":"대전 유천동 10","lat":36.3209245341316,"lng":127.400653440655,"road":"대전 중구 계백로1615번길 34","region":"대전 중구 유천동 10","building":"현대아파트","method":"address"},"30140|유천동|장미|10-1":{"city_code":"30140","dong":"유천동","name":"장미","addr":"10-1","query":"대전 유천동 10-1","lat":36.3225911123447,"lng":127.400725559819,"road":"대전 중구 수침로 35","region":"대전 중구 유천동 10-1","building":"시영아파트","method":"address"},"30140|유천동|큰솔|335-12":{"city_code":"30140","dong":"유천동","name":"큰솔","addr":"335-12","query":"대전 유천동 335-12","lat":36.314679983592,"lng":127.39049819112,"road":"대전 중구 대둔산로 512","region":"대전 중구 유천동 335-12","building":"큰솔아파트","method":"address"},"30140|유천동|큰솔102동|341-31":{"city_code":"30140","dong":"유천동","name":"큰솔102동","addr":"341-31","query":"대전 유천동 341-31","lat":36.3138764745897,"lng":127.389176895045,"road":"대전 중구 대둔산로 503","region":"대전 중구 유천동 341-31","building":"큰솔아파트","method":"address"},"30140|유천동|큰솔6차101동|335-12":{"city_code":"30140","dong":"유천동","name":"큰솔6차101동","addr":"335-12","query":"대전 유천동 335-12","lat":36.314679983592,"lng":127.39049819112,"road":"대전 중구 대둔산로 512","region":"대전 중구 유천동 335-12","building":"큰솔아파트","method":"address"},"30140|유천동|큰솔아파트102동|341-31":{"city_code":"30140","dong":"유천동","name":"큰솔아파트102동","addr":"341-31","query":"대전 유천동 341-31","lat":36.3138764745897,"lng":127.389176895045,"road":"대전 중구 대둔산로 503","region":"대전 중구 유천동 341-31","building":"큰솔아파트","method":"address"},"30140|유천동|하나|319-1":{"city_code":"30140","dong":"유천동","name":"하나","addr":"319-1","query":"대전 유천동 319-1","lat":36.3215987702993,"lng":127.395438111175,"road":"대전 중구 태평로44번길 53","region":"대전 중구 유천동 319-1","building":"유진하나아파트","method":"address"},"30140|유천동|현대|10":{"city_code":"30140","dong":"유천동","name":"현대","addr":"10","query":"대전 유천동 10","lat":36.3209245341316,"lng":127.400653440655,"road":"대전 중구 계백로1615번길 34","region":"대전 중구 유천동 10","building":"현대아파트","method":"address"},"30140|유천동|현암에버드림|322-1":{"city_code":"30140","dong":"유천동","name":"현암에버드림","addr":"322-1","query":"대전 유천동 322-1","lat":36.3212944837136,"lng":127.394279744789,"road":"대전 중구 태평로44번길 27","region":"대전 중구 유천동 322-1","building":"현암에버드림 주상복합아파트","method":"address"},"30140|중촌동|금성백조맨션|88":{"city_code":"30140","dong":"중촌동","name":"금성백조맨션","addr":"88","query":"대전 중촌동 88","lat":36.3403362990789,"lng":127.410754027963,"road":"대전 중구 중촌로 31","region":"대전 중구 중촌동 88","building":"금성백조아파트","method":"address"},"30140|중촌동|금호아파트|10-2":{"city_code":"30140","dong":"중촌동","name":"금호아파트","addr":"10-2","query":"대전 중촌동 10-2","lat":36.3413192418077,"lng":127.407612964425,"road":"대전 중구 대종로 713","region":"대전 중구 중촌동 10-2","building":"금호아파트","method":"address"},"30140|중촌동|세종|280-10":{"city_code":"30140","dong":"중촌동","name":"세종","addr":"280-10","query":"대전 중촌동 280-10","lat":36.3394445970361,"lng":127.407301446226,"road":"대전 중구 목중로 76","region":"대전 중구 중촌동 280-10","building":"세종아파트","method":"address"},"30140|중촌동|시영|10-3":{"city_code":"30140","dong":"중촌동","name":"시영","addr":"10-3","query":"대전 중촌동 10-3","lat":36.3411921741327,"lng":127.409011476325,"road":"대전 중구 대종로 701","region":"대전 중구 중촌동 10-3","building":"시영아파트","method":"address"},"30140|중촌동|신수|56-9":{"city_code":"30140","dong":"중촌동","name":"신수","addr":"56-9","query":"대전 중촌동 56-9","lat":36.3396139788993,"lng":127.408395602306,"road":"대전 중구 목중로54번길 29-3","region":"대전 중구 중촌동 56-9","building":"신수아파트","method":"address"},"30140|중촌동|주공|21":{"city_code":"30140","dong":"중촌동","name":"주공","addr":"21","query":"대전 중촌동 21","lat":36.3395880871988,"lng":127.409667630079,"road":null,"region":"대전 중구 중촌동 21","building":null,"method":"address"},"30140|중촌동|주공(임대)|21":{"city_code":"30140","dong":"중촌동","name":"주공(임대)","addr":"21","query":"대전 중촌동 21","lat":36.3395880871988,"lng":127.409667630079,"road":null,"region":"대전 중구 중촌동 21","building":null,"method":"address"},"30140|중촌동|중촌SKVIEW|474":{"city_code":"30140","dong":"중촌동","name":"중촌SKVIEW","addr":"474","query":"대전 중촌동 474","lat":36.3396074891524,"lng":127.409843836238,"road":"대전 중구 중촌로 15","region":"대전 중구 중촌동 474","building":"중촌 SK VIEW","method":"address"},"30140|중촌동|중촌아트빌|58-1":{"city_code":"30140","dong":"중촌동","name":"중촌아트빌","addr":"58-1","query":"대전 중촌동 58-1","lat":36.3394293331022,"lng":127.408420480292,"road":"대전 중구 목중로54번길 29-1","region":"대전 중구 중촌동 58-1","building":"중촌아트빌","method":"address"},"30140|중촌동|중촌역푸르지오센터파크|472":{"city_code":"30140","dong":"중촌동","name":"중촌역푸르지오센터파크","addr":"472","query":"대전 중촌동 472","lat":36.3453625306826,"lng":127.409409581785,"road":"대전 중구 대전천서로 709","region":"대전 중구 중촌동 472","building":"중촌역푸르지오센터파크","method":"address"},"30140|중촌동|하늘(주공3)|283":{"city_code":"30140","dong":"중촌동","name":"하늘(주공3)","addr":"283","query":"대전 중촌동 283","lat":36.3387140786476,"lng":127.406541326178,"road":"대전 중구 목중로 69","region":"대전 중구 중촌동 283","building":"주공아파트3단지","method":"address"},"30140|중촌동|현대|16-1":{"city_code":"30140","dong":"중촌동","name":"현대","addr":"16-1","query":"대전 중촌동 16-1","lat":36.3380501369989,"lng":127.411190686079,"road":"대전 중구 목중로26번길 29","region":"대전 중구 중촌동 16-1","building":"현대아파트","method":"address"},"30140|태평동|나이스타운|382-4":{"city_code":"30140","dong":"태평동","name":"나이스타운","addr":"382-4","query":"대전 태평동 382-4","lat":36.3245149372254,"lng":127.395588488673,"road":"대전 중구 유천로 136","region":"대전 중구 태평동 382-4","building":"","method":"address"},"30140|태평동|버드내1|422-7":{"city_code":"30140","dong":"태평동","name":"버드내1","addr":"422-7","query":"대전 태평동 422-7","lat":36.3183500079651,"lng":127.389208709481,"road":"대전 중구 태평로 15","region":"대전 중구 태평동 422-7","building":"버드내마을아파트","method":"address"},"30140|태평동|버드내마을아파트2단지|551":{"city_code":"30140","dong":"태평동","name":"버드내마을아파트2단지","addr":"551","query":"대전 태평동 551","lat":36.3205966877056,"lng":127.390688287171,"road":"대전 중구 태평로 35","region":"대전 중구 태평동 551","building":"버드내마을아파트2단지","method":"address"},"30140|태평동|삼부1|383-1":{"city_code":"30140","dong":"태평동","name":"삼부1","addr":"383-1","query":"대전 태평동 383-1","lat":36.3239055948737,"lng":127.394733015224,"road":"대전 중구 유천로 117","region":"대전 중구 태평동 383-1","building":"대전태평초등학교","method":"address"},"30140|태평동|삼부2|407":{"city_code":"30140","dong":"태평동","name":"삼부2","addr":"407","query":"대전 태평동 407","lat":36.324814810299,"lng":127.391191895317,"road":"대전 중구 태평로 77","region":"대전 중구 태평동 407","building":"삼부아파트2단지","method":"address"},"30140|태평동|삼부3|403-1":{"city_code":"30140","dong":"태평동","name":"삼부3","addr":"403-1","query":"대전 태평동 403-1","lat":36.3237301293879,"lng":127.391639063689,"road":"대전 중구 태평로 65","region":"대전 중구 태평동 403-1","building":"삼부아파트3단지","method":"address"},"30140|태평동|삼부4|393":{"city_code":"30140","dong":"태평동","name":"삼부4","addr":"393","query":"대전 태평동 393","lat":36.3223477152843,"lng":127.391805874009,"road":"대전 중구 태평로 55","region":"대전 중구 태평동 393","building":"삼부아파트4단지","method":"address"},"30140|태평동|삼부4-1|393":{"city_code":"30140","dong":"태평동","name":"삼부4-1","addr":"393","query":"대전 태평동 393","lat":36.3223477152843,"lng":127.391805874009,"road":"대전 중구 태평로 55","region":"대전 중구 태평동 393","building":"삼부아파트4단지","method":"address"},"30140|태평동|삼부5|408-1":{"city_code":"30140","dong":"태평동","name":"삼부5","addr":"408-1","query":"대전 태평동 408-1","lat":36.3246630038362,"lng":127.393293631816,"road":"대전 중구 태평로 89","region":"대전 중구 태평동 408-1","building":"삼부아파트5단지","method":"address"},"30140|태평동|새롬|419-1":{"city_code":"30140","dong":"태평동","name":"새롬","addr":"419-1","query":"대전 태평동 419-1","lat":36.3223558162686,"lng":127.389879547034,"road":"대전 중구 평촌로 19","region":"대전 중구 태평동 419-1","building":"새롬아파트","method":"address"},"30140|태평동|시영아파트1,2,3동|312-2":{"city_code":"30140","dong":"태평동","name":"시영아파트1,2,3동","addr":"312-2","query":"대전 태평동 312-2","lat":36.3232530025533,"lng":127.401619198913,"road":"대전 중구 수침로 42","region":"대전 중구 태평동 312-2","building":"시영아파트","method":"address"},"30140|태평동|시영아파트12동|281-8":{"city_code":"30140","dong":"태평동","name":"시영아파트12동","addr":"281-8","query":"대전 태평동 281-8","lat":36.3238958646594,"lng":127.401469703728,"road":"대전 중구 수침로 42","region":"대전 중구 태평동 281-8","building":"시영아파트","method":"address"},"30140|태평동|쌍용예가|554":{"city_code":"30140","dong":"태평동","name":"쌍용예가","addr":"554","query":"대전 태평동 554","lat":36.3234713809484,"lng":127.396972272104,"road":"대전 중구 평촌로 93","region":"대전 중구 태평동 554","building":"쌍용예가아파트","method":"address"},"30140|태평동|어반리츠|340-1":{"city_code":"30140","dong":"태평동","name":"어반리츠","addr":"340-1","query":"대전 태평동 340-1","lat":36.3281577636291,"lng":127.397329044719,"road":"대전 중구 수침로105번길 31","region":"대전 중구 태평동 340-1","building":"","method":"address"},"30140|태평동|유등마을쌍용아파트|253-1":{"city_code":"30140","dong":"태평동","name":"유등마을쌍용아파트","addr":"253-1","query":"대전 태평동 253-1","lat":36.3318177037163,"lng":127.398874830422,"road":"대전 중구 수침로 138","region":"대전 중구 태평동 253-1","building":"유등마을아파트","method":"address"},"30140|태평동|태평|317":{"city_code":"30140","dong":"태평동","name":"태평","addr":"317","query":"대전 태평동 317","lat":36.323962000339,"lng":127.39945554619,"road":"대전 중구 평촌로 111","region":"대전 중구 태평동 317","building":"태평아파트","method":"address"},"30140|태평동|파라곤|389-5":{"city_code":"30140","dong":"태평동","name":"파라곤","addr":"389-5","query":"대전 태평동 389-5","lat":36.3205748585629,"lng":127.388177431536,"road":"대전 중구 유등천동로 428","region":"대전 중구 태평동 389-5","building":"파라곤아파트","method":"address"},"30140|태평동|푸른뫼|254-4":{"city_code":"30140","dong":"태평동","name":"푸른뫼","addr":"254-4","query":"대전 태평동 254-4","lat":36.3297807860865,"lng":127.399410514911,"road":"대전 중구 수침로 122","region":"대전 중구 태평동 254-4","building":"푸른뫼 아파트","method":"address"},"30140|태평동|한밭하이츠|412-1":{"city_code":"30140","dong":"태평동","name":"한밭하이츠","addr":"412-1","query":"대전 태평동 412-1","lat":36.3277895736271,"lng":127.392025009803,"road":"대전 중구 동서대로1185번길 21","region":"대전 중구 태평동 412-1","building":"한밭하이츠","method":"address"},"30140|호동|서미가아파트|14-1":{"city_code":"30140","dong":"호동","name":"서미가아파트","addr":"14-1","query":"대전 호동 14-1","lat":36.3050314334069,"lng":127.446532681826,"road":"대전 중구 모암로18번길 55","region":"대전 중구 호동 14-1","building":"","method":"address"},"30140|호동|정도|240-9":{"city_code":"30140","dong":"호동","name":"정도","addr":"240-9","query":"대전 호동 240-9","lat":36.306483991214,"lng":127.443787950844,"road":"대전 중구 대종로199번길 41","region":"대전 중구 호동 240-9","building":"정도빌라","method":"address"},"30170|가수원동|계룡|643":{"city_code":"30170","dong":"가수원동","name":"계룡","addr":"643","query":"대전 가수원동 643","lat":36.3028559150038,"lng":127.350801302196,"road":"대전 서구 가수원로 98","region":"대전 서구 가수원동 643","building":"계룡아파트","method":"address"},"30170|가수원동|모아드림|1392":{"city_code":"30170","dong":"가수원동","name":"모아드림","addr":"1392","query":"대전 가수원동 1392","lat":36.3016452898355,"lng":127.349716383257,"road":"대전 서구 가수원로 83","region":"대전 서구 가수원동 1392","building":"모아드림아파트","method":"address"},"30170|가수원동|은아1단지|769-2":{"city_code":"30170","dong":"가수원동","name":"은아1단지","addr":"769-2","query":"대전 가수원동 769-2","lat":36.3019768895164,"lng":127.351602872662,"road":"대전 서구 가수원로 72","region":"대전 서구 가수원동 769-2","building":"은아아파트1단지","method":"address"},"30170|가수원동|은아2단지|793-1":{"city_code":"30170","dong":"가수원동","name":"은아2단지","addr":"793-1","query":"대전 가수원동 793-1","lat":36.3002502880113,"lng":127.35484457913,"road":"대전 서구 계백로1158번길 113","region":"대전 서구 가수원동 793-1","building":"은아아파트2단지","method":"address"},"30170|가수원동|은아3단지|762":{"city_code":"30170","dong":"가수원동","name":"은아3단지","addr":"762","query":"대전 가수원동 762","lat":36.3040147270194,"lng":127.35077709888,"road":"대전 서구 가수원로 106","region":"대전 서구 가수원동 762","building":"은아아파트3단지","method":"address"},"30170|가수원동|은아5단지|808":{"city_code":"30170","dong":"가수원동","name":"은아5단지","addr":"808","query":"대전 가수원동 808","lat":36.2985124989405,"lng":127.355585067039,"road":"대전 서구 가수원로 6","region":"대전 서구 가수원동 808","building":"은아아파트5단지","method":"address"},"30170|가장동|삼성래미안1|55":{"city_code":"30170","dong":"가장동","name":"삼성래미안1","addr":"55","query":"대전 가장동 55","lat":36.3335478218468,"lng":127.383976614732,"road":"대전 서구 가장로 106","region":"대전 서구 가장동 55","building":"삼성 래미안아파트","method":"address"},"30170|가장동|삼성래미안2|55":{"city_code":"30170","dong":"가장동","name":"삼성래미안2","addr":"55","query":"대전 가장동 55","lat":36.3335478218468,"lng":127.383976614732,"road":"대전 서구 가장로 106","region":"대전 서구 가장동 55","building":"삼성 래미안아파트","method":"address"},"30170|가장동|삼창|26-1":{"city_code":"30170","dong":"가장동","name":"삼창","addr":"26-1","query":"대전 가장동 26-1","lat":36.3300824780263,"lng":127.389643390447,"road":"대전 서구 가장로 162","region":"대전 서구 가장동 26-1","building":"삼창아파트","method":"address"},"30170|갈마동|(296-1)|296-1":{"city_code":"30170","dong":"갈마동","name":"(296-1)","addr":"296-1","query":"대전 갈마동 296-1","lat":36.3530924035899,"lng":127.364979014498,"road":"대전 서구 신갈마로211번길 53","region":"대전 서구 갈마동 296-1","building":"한나빌라","method":"address"},"30170|갈마동|갈마|390-22":{"city_code":"30170","dong":"갈마동","name":"갈마","addr":"390-22","query":"대전 갈마동 390-22","lat":36.3432019987819,"lng":127.366862858459,"road":"대전 서구 신갈마로 109","region":"대전 서구 갈마동 390-22","building":"갈마그랜드프라자","method":"address"},"30170|갈마동|건강주택(427-6)|427-6":{"city_code":"30170","dong":"갈마동","name":"건강주택(427-6)","addr":"427-6","query":"대전 갈마동 427-6","lat":36.3417571876866,"lng":127.366142843348,"road":"대전 서구 신갈마로127번길 113","region":"대전 서구 갈마동 427-6","building":"건강주택","method":"address"},"30170|갈마동|경성큰마을|1418":{"city_code":"30170","dong":"갈마동","name":"경성큰마을","addr":"1418","query":"대전 갈마동 1418","lat":36.3446894301636,"lng":127.376870363354,"road":"대전 서구 대덕대로 150","region":"대전 서구 갈마동 1418","building":"큰마을아파트","method":"address"},"30170|갈마동|광도푸른|404-2":{"city_code":"30170","dong":"갈마동","name":"광도푸른","addr":"404-2","query":"대전 갈마동 404-2","lat":36.3430848729975,"lng":127.371289408676,"road":"대전 서구 갈마로117번길 23","region":"대전 서구 갈마동 404-2","building":"광도푸른아파트","method":"address"},"30170|갈마동|나이스빌|911":{"city_code":"30170","dong":"갈마동","name":"나이스빌","addr":"911","query":"대전 갈마동 911","lat":36.3494485173781,"lng":127.374037502239,"road":"대전 서구 대덕대로167번길 47","region":"대전 서구 갈마동 911","building":"나이스빌아파트","method":"address"},"30170|갈마동|다우갤러리휴리움아파트|1496":{"city_code":"30170","dong":"갈마동","name":"다우갤러리휴리움아파트","addr":"1496","query":"대전 갈마동 1496","lat":36.3504434585242,"lng":127.368746242618,"road":"대전 서구 신갈마로 186","region":"대전 서구 갈마동 1496","building":"갤러리휴리움","method":"address"},"30170|갈마동|대일빌라|295-22":{"city_code":"30170","dong":"갈마동","name":"대일빌라","addr":"295-22","query":"대전 갈마동 295-22","lat":36.3528991916185,"lng":127.365598093572,"road":"대전 서구 계룡로326번길 29","region":"대전 서구 갈마동 295-22","building":"대일빌라","method":"address"},"30170|갈마동|동건빌리지|294-12":{"city_code":"30170","dong":"갈마동","name":"동건빌리지","addr":"294-12","query":"대전 갈마동 294-12","lat":36.3525927011554,"lng":127.366980109427,"road":"대전 서구 계룡로342번길 25","region":"대전 서구 갈마동 294-12","building":"동건빌리지","method":"address"},"30170|갈마동|동건씨티빌2차|336-7":{"city_code":"30170","dong":"갈마동","name":"동건씨티빌2차","addr":"336-7","query":"대전 갈마동 336-7","lat":36.3494184290944,"lng":127.366706870231,"road":"대전 서구 계룡로342번길 107-7","region":"대전 서구 갈마동 336-7","building":"동건시티빌","method":"address"},"30170|갈마동|동광빌라|333-1":{"city_code":"30170","dong":"갈마동","name":"동광빌라","addr":"333-1","query":"대전 갈마동 333-1","lat":36.3495985471132,"lng":127.365656966706,"road":"대전 서구 계룡로326번길 101","region":"대전 서구 갈마동 333-1","building":"동광빌라","method":"address"},"30170|갈마동|동남빌라(264-7)|264-7":{"city_code":"30170","dong":"갈마동","name":"동남빌라(264-7)","addr":"264-7","query":"대전 갈마동 264-7","lat":36.3548905537251,"lng":127.371343572801,"road":"대전 서구 신갈마로240번길 34","region":"대전 서구 갈마동 264-7","building":"동남빌라","method":"address"},"30170|갈마동|동산아파트1|343-1":{"city_code":"30170","dong":"갈마동","name":"동산아파트1","addr":"343-1","query":"대전 갈마동 343-1","lat":36.3495136481181,"lng":127.371300101396,"road":"대전 서구 갈마중로7번길 42","region":"대전 서구 갈마동 343-1","building":"동산맨션","method":"address"},"30170|갈마동|동산아파트2|343-1":{"city_code":"30170","dong":"갈마동","name":"동산아파트2","addr":"343-1","query":"대전 갈마동 343-1","lat":36.3495136481181,"lng":127.371300101396,"road":"대전 서구 갈마중로7번길 42","region":"대전 서구 갈마동 343-1","building":"동산맨션","method":"address"},"30170|갈마동|드림타운|1446":{"city_code":"30170","dong":"갈마동","name":"드림타운","addr":"1446","query":"대전 갈마동 1446","lat":36.3453684455522,"lng":127.378473733393,"road":"대전 서구 대덕대로168번길 70","region":"대전 서구 갈마동 1446","building":"드림타운","method":"address"},"30170|갈마동|디안더블레스|339-3":{"city_code":"30170","dong":"갈마동","name":"디안더블레스","addr":"339-3","query":"대전 갈마동 339-3","lat":36.3490862858035,"lng":127.36973867071,"road":"대전 서구 갈마로 39","region":"대전 서구 갈마동 339-3","building":"","method":"address"},"30170|갈마동|리베라|304-27":{"city_code":"30170","dong":"갈마동","name":"리베라","addr":"304-27","query":"대전 갈마동 304-27","lat":36.3518859328116,"lng":127.366002883267,"road":"대전 서구 계룡로342번길 48","region":"대전 서구 갈마동 304-27","building":"리베라아파트","method":"address"},"30170|갈마동|리쥬파크|1039":{"city_code":"30170","dong":"갈마동","name":"리쥬파크","addr":"1039","query":"대전 갈마동 1039","lat":36.3489998115051,"lng":127.374932361635,"road":"대전 서구 대덕대로167번길 29","region":"대전 서구 갈마동 1039","building":"리쥬파크","method":"address"},"30170|갈마동|베버리힐스유엔빌리|329-8":{"city_code":"30170","dong":"갈마동","name":"베버리힐스유엔빌리","addr":"329-8","query":"대전 갈마동 329-8","lat":36.349297405831,"lng":127.364466675809,"road":"대전 서구 계룡로320번길 106","region":"대전 서구 갈마동 329-8","building":"대전 UN 빌리지","method":"address"},"30170|갈마동|복음맨션|329-9":{"city_code":"30170","dong":"갈마동","name":"복음맨션","addr":"329-9","query":"대전 갈마동 329-9","lat":36.3488857434621,"lng":127.364675194513,"road":"대전 서구 계룡로320번길 118","region":"대전 서구 갈마동 329-9","building":"복음맨션","method":"address"},"30170|갈마동|비너스빌|1040":{"city_code":"30170","dong":"갈마동","name":"비너스빌","addr":"1040","query":"대전 갈마동 1040","lat":36.3488692113521,"lng":127.37519709361,"road":"대전 서구 대덕대로167번길 23","region":"대전 서구 갈마동 1040","building":"비너스빌","method":"address"},"30170|갈마동|삼덕빌라트|294-8":{"city_code":"30170","dong":"갈마동","name":"삼덕빌라트","addr":"294-8","query":"대전 갈마동 294-8","lat":36.3528321266285,"lng":127.366926866533,"road":"대전 서구 계룡로342번길 19","region":"대전 서구 갈마동 294-8","building":"삼덕아파트","method":"address"},"30170|갈마동|쉬크빌|379-7":{"city_code":"30170","dong":"갈마동","name":"쉬크빌","addr":"379-7","query":"대전 갈마동 379-7","lat":36.3453397612568,"lng":127.369118860383,"road":"대전 서구 갈마로 80","region":"대전 서구 갈마동 379-7","building":"쉬크빌","method":"address"},"30170|갈마동|시티팰리스|313-12":{"city_code":"30170","dong":"갈마동","name":"시티팰리스","addr":"313-12","query":"대전 갈마동 313-12","lat":36.3501250910263,"lng":127.36967384413,"road":"대전 서구 계룡로394번길 50","region":"대전 서구 갈마동 313-12","building":"","method":"address"},