{"31110|교동|교동|216-1":{"city_code":"31110","dong":"교동","name":"교동","addr":"216-1","query":"울산 교동 216-1","lat":35.5601679835692,"lng":129.317324573277,"road":"울산 중구 초은길 5","region":"울산 중구 교동 216-1","building":"교동아파트","method":"address"},"31110|교동|구룡유토피아|222":{"city_code":"31110","dong":"교동","name":"구룡유토피아","addr":"222","query":"울산 교동 222","lat":35.5615584451008,"lng":129.317655299626,"road":"울산 중구 북부순환도로 520","region":"울산 중구 교동 222","building":"구룡유토피아","method":"address"},"31110|교동|금강타워|166":{"city_code":"31110","dong":"교동","name":"금강타워","addr":"166","query":"울산 교동 166","lat":35.5607053872748,"lng":129.314529670982,"road":"울산 중구 우정길 14","region":"울산 중구 교동 166","building":"금강타워","method":"address"},"31110|교동|다온누리빌|157-2":{"city_code":"31110","dong":"교동","name":"다온누리빌","addr":"157-2","query":"울산 교동 157-2","lat":35.5623727160788,"lng":129.314027259336,"road":"울산 중구 북부순환도로 486","region":"울산 중구 교동 157-2","building":"","method":"address"},"31110|교동|전원빌라|112-1":{"city_code":"31110","dong":"교동","name":"전원빌라","addr":"112-1","query":"울산 교동 112-1","lat":35.5622080360725,"lng":129.31618289311,"road":"울산 중구 향교길 30","region":"울산 중구 교동 112-1","building":"전원아파트","method":"address"},"31110|교동|청일행복마을|166-1":{"city_code":"31110","dong":"교동","name":"청일행복마을","addr":"166-1","query":"울산 교동 166-1","lat":35.5604162293108,"lng":129.314684885117,"road":"울산 중구 우정5길 50","region":"울산 중구 교동 166-1","building":"청일행복마을","method":"address"},"31110|교동|향교|219-4":{"city_code":"31110","dong":"교동","name":"향교","addr":"219-4","query":"울산 교동 219-4","lat":35.5616163742695,"lng":129.317318431051,"road":"울산 중구 향교길 8","region":"울산 중구 교동 219-4","building":"향교아파트","method":"address"},"31110|남외동|경진|1028-7":{"city_code":"31110","dong":"남외동","name":"경진","addr":"1028-7","query":"울산 남외동 1028-7","lat":35.561121829971,"lng":129.34437611451,"road":"울산 중구 해오름18길 21","region":"울산 중구 남외동 1028-7","building":"경진아파트","method":"address"},"31110|남외동|나이스빌|230":{"city_code":"31110","dong":"남외동","name":"나이스빌","addr":"230","query":"울산 남외동 230","lat":35.5697932034036,"lng":129.345366963657,"road":"울산 중구 곽남3길 30","region":"울산 중구 남외동 230","building":"나이스빌","method":"address"},"31110|남외동|나이스빌(1015-4)|1015-4":{"city_code":"31110","dong":"남외동","name":"나이스빌(1015-4)","addr":"1015-4","query":"울산 남외동 1015-4","lat":35.5614939751952,"lng":129.343110891879,"road":"울산 중구 해오름15길 34","region":"울산 중구 남외동 1015-4","building":"나이스빌","method":"address"},"31110|남외동|나이스빌101동|1032-12":{"city_code":"31110","dong":"남외동","name":"나이스빌101동","addr":"1032-12","query":"울산 남외동 1032-12","lat":35.5601396627059,"lng":129.343612767286,"road":"울산 중구 해오름18길 2","region":"울산 중구 남외동 1032-12","building":"나이스빌","method":"address"},"31110|남외동|나이스빌102동|1032-13":{"city_code":"31110","dong":"남외동","name":"나이스빌102동","addr":"1032-13","query":"울산 남외동 1032-13","lat":35.5600184735929,"lng":129.343394872686,"road":"울산 중구 해오름18길 2","region":"울산 중구 남외동 1032-13","building":"나이스빌","method":"address"},"31110|남외동|남외푸르지오1차|506-1":{"city_code":"31110","dong":"남외동","name":"남외푸르지오1차","addr":"506-1","query":"울산 남외동 506-1","lat":35.5645255974643,"lng":129.347678489867,"road":"울산 중구 남외3길 33","region":"울산 중구 남외동 506-1","building":"남외푸르지오","method":"address"},"31110|남외동|남외푸르지오2차|501-1":{"city_code":"31110","dong":"남외동","name":"남외푸르지오2차","addr":"501-1","query":"울산 남외동 501-1","lat":35.5661306152412,"lng":129.34655119931,"road":"울산 중구 남외로 60","region":"울산 중구 남외동 501-1","building":"남외푸르지오2차아파트","method":"address"},"31110|남외동|동남|426-3":{"city_code":"31110","dong":"남외동","name":"동남","addr":"426-3","query":"울산 남외동 426-3","lat":35.5699221127913,"lng":129.340586624801,"road":"울산 중구 곽남길 48","region":"울산 중구 남외동 426-3","building":"동남아파트","method":"address"},"31110|남외동|루비빌|1008-6":{"city_code":"31110","dong":"남외동","name":"루비빌","addr":"1008-6","query":"울산 남외동 1008-6","lat":35.5624178557787,"lng":129.343711660235,"road":"울산 중구 해오름14길 46","region":"울산 중구 남외동 1008-6","building":"루비빌","method":"address"},"31110|남외동|백합|447-5":{"city_code":"31110","dong":"남외동","name":"백합","addr":"447-5","query":"울산 남외동 447-5","lat":35.566597196407,"lng":129.343832871593,"road":"울산 중구 해오름6길 28","region":"울산 중구 남외동 447-5","building":"백합국민아파트","method":"address"},"31110|남외동|병영|388":{"city_code":"31110","dong":"남외동","name":"병영","addr":"388","query":"울산 남외동 388","lat":35.5710702297034,"lng":129.342288540059,"road":"울산 중구 곽남14길 37","region":"울산 중구 남외동 388","building":"선우시장/선화아파트","method":"address"},"31110|남외동|삼익세라믹101|7-1":{"city_code":"31110","dong":"남외동","name":"삼익세라믹101","addr":"7-1","query":"울산 남외동 7-1","lat":35.5756250326679,"lng":129.341014548748,"road":"울산 중구 병영성4길 29","region":"울산 중구 남외동 7-1","building":"삼익세라믹아파트","method":"address"},"31110|남외동|삼익세라믹201|6-2":{"city_code":"31110","dong":"남외동","name":"삼익세라믹201","addr":"6-2","query":"울산 남외동 6-2","lat":35.576323007504,"lng":129.341393759846,"road":"울산 중구 병영성4길 45","region":"울산 중구 남외동 6-2","building":"삼익세라믹아파트","method":"address"},"31110|남외동|삼환나우빌1단지|509-1":{"city_code":"31110","dong":"남외동","name":"삼환나우빌1단지","addr":"509-1","query":"울산 남외동 509-1","lat":35.5646535135692,"lng":129.3515155299,"road":"울산 중구 남외2길 10","region":"울산 중구 남외동 509-1","building":"삼환 나우빌 아파트 1단지","method":"address"},"31110|남외동|삼환나우빌2단지|508-1":{"city_code":"31110","dong":"남외동","name":"삼환나우빌2단지","addr":"508-1","query":"울산 남외동 508-1","lat":35.5638248111196,"lng":129.351266456104,"road":"울산 중구 남외1길 20","region":"울산 중구 남외동 508-1","building":"삼환 나우빌 아파트 2단지","method":"address"},"31110|남외동|선화|385-3":{"city_code":"31110","dong":"남외동","name":"선화","addr":"385-3","query":"울산 남외동 385-3","lat":35.5713112435006,"lng":129.342178215471,"road":"울산 중구 곽남14길 37","region":"울산 중구 남외동 385-3","building":"선우시장/선화아파트","method":"address"},"31110|남외동|아마빌리스|512-12":{"city_code":"31110","dong":"남외동","name":"아마빌리스","addr":"512-12","query":"울산 남외동 512-12","lat":35.5662352520122,"lng":129.351070588272,"road":"울산 중구 남외2길 28","region":"울산 중구 남외동 512-12","building":"아마빌리스","method":"address"},"31110|남외동|에일린의뜰|500":{"city_code":"31110","dong":"남외동","name":"에일린의뜰","addr":"500","query":"울산 남외동 500","lat":35.5678575589867,"lng":129.348480427287,"road":"울산 중구 남외1길 105","region":"울산 중구 남외동 500","building":"일신 에일린의 뜰 아파트","method":"address"},"31110|남외동|일오아람빌|1034-8":{"city_code":"31110","dong":"남외동","name":"일오아람빌","addr":"1034-8","query":"울산 남외동 1034-8","lat":35.5607340266798,"lng":129.343004292856,"road":"울산 중구 해오름17길 3","region":"울산 중구 남외동 1034-8","building":"일오아람빌","method":"address"},"31110|남외동|팰리스가든|510-4":{"city_code":"31110","dong":"남외동","name":"팰리스가든","addr":"510-4","query":"울산 남외동 510-4","lat":35.5646499813878,"lng":129.350943865938,"road":"울산 중구 남외2길 9","region":"울산 중구 남외동 510-4","building":"","method":"address"},"31110|남외동|평화보라타운|38-2":{"city_code":"31110","dong":"남외동","name":"평화보라타운","addr":"38-2","query":"울산 남외동 38-2","lat":35.5743133925198,"lng":129.341231354888,"road":"울산 중구 병영성길 16","region":"울산 중구 남외동 38-2","building":"평화보라타운아파트","method":"address"},"31110|다운동|다운|768":{"city_code":"31110","dong":"다운동","name":"다운","addr":"768","query":"울산 다운동 768","lat":35.5649810386193,"lng":129.268166196164,"road":"울산 중구 다운6길 16","region":"울산 중구 다운동 768","building":"다운아파트","method":"address"},"31110|다운동|다운삼성|620":{"city_code":"31110","dong":"다운동","name":"다운삼성","addr":"620","query":"울산 다운동 620","lat":35.5592443162805,"lng":129.274933663662,"road":"울산 중구 운곡3길 24","region":"울산 중구 다운동 620","building":"삼성아파트","method":"address"},"31110|다운동|다운샛별|927-2":{"city_code":"31110","dong":"다운동","name":"다운샛별","addr":"927-2","query":"울산 다운동 927-2","lat":35.5673070278573,"lng":129.265082902152,"road":"울산 중구 다운19길 29","region":"울산 중구 다운동 927-2","building":"다운샛별","method":"address"},"31110|다운동|다운현대|590":{"city_code":"31110","dong":"다운동","name":"다운현대","addr":"590","query":"울산 다운동 590","lat":35.5597868328572,"lng":129.273344554434,"road":"울산 중구 운곡3길 23","region":"울산 중구 다운동 590","building":"울산다운현대아파트","method":"address"},"31110|다운동|진성웰빙타운|926-1":{"city_code":"31110","dong":"다운동","name":"진성웰빙타운","addr":"926-1","query":"울산 다운동 926-1","lat":35.5676392848789,"lng":129.265191401778,"road":"울산 중구 다운19길 33","region":"울산 중구 다운동 926-1","building":"진수웰빙아트","method":"address"},"31110|다운동|한라동아|702":{"city_code":"31110","dong":"다운동","name":"한라동아","addr":"702","query":"울산 다운동 702","lat":35.5688982889774,"lng":129.265769674285,"road":"울산 중구 다운로 175","region":"울산 중구 다운동 702","building":"다운 동아 큰마을아파트","method":"address"},"31110|다운동|한성골든파크|925-1":{"city_code":"31110","dong":"다운동","name":"한성골든파크","addr":"925-1","query":"울산 다운동 925-1","lat":35.5679491168052,"lng":129.2651219362,"road":"울산 중구 다운19길 37-1","region":"울산 중구 다운동 925-1","building":"한성골든파크","method":"address"},"31110|동동|서울빌라|117":{"city_code":"31110","dong":"동동","name":"서울빌라","addr":"117","query":"울산 동동 117","lat":35.5774257101813,"lng":129.348684961927,"road":"울산 중구 산전5길 16","region":"울산 중구 동동 117","building":"서울아파트","method":"address"},"31110|동동|성진파크맨션|470-7":{"city_code":"31110","dong":"동동","name":"성진파크맨션","addr":"470-7","query":"울산 동동 470-7","lat":35.5719597781427,"lng":129.349298432015,"road":"울산 중구 병영6길 35","region":"울산 중구 동동 470-7","building":"성진파크맨션","method":"address"},"31110|동동|월성개나리|139-1":{"city_code":"31110","dong":"동동","name":"월성개나리","addr":"139-1","query":"울산 동동 139-1","lat":35.5761480915928,"lng":129.348884661749,"road":"울산 중구 산전5길 15-5","region":"울산 중구 동동 139-1","building":"월성개나리타운아파트","method":"address"},"31110|동동|현대골든타워|470-6":{"city_code":"31110","dong":"동동","name":"현대골든타워","addr":"470-6","query":"울산 동동 470-6","lat":35.5724194161332,"lng":129.349515006979,"road":"울산 중구 산전길 29","region":"울산 중구 동동 470-6","building":"현대골든타워","method":"address"},"31110|동동|홍일|116-1":{"city_code":"31110","dong":"동동","name":"홍일","addr":"116-1","query":"울산 동동 116-1","lat":35.5774424962078,"lng":129.348124277979,"road":"울산 중구 산전5길 19","region":"울산 중구 동동 116-1","building":"홍일아파트","method":"address"},"31110|반구동|e편한세상강변|679":{"city_code":"31110","dong":"반구동","name":"e편한세상강변","addr":"679","query":"울산 반구동 679","lat":35.555639784408,"lng":129.347192198428,"road":"울산 중구 반구로 55","region":"울산 중구 반구동 679","building":"e편한세상 강변","method":"address"},"31110|반구동|강남예가|55-9":{"city_code":"31110","dong":"반구동","name":"강남예가","addr":"55-9","query":"울산 반구동 55-9","lat":35.5631870671636,"lng":129.337557053828,"road":"울산 중구 구교9길 65","region":"울산 중구 반구동 55-9","building":"강남예가","method":"address"},"31110|반구동|경일|107-4":{"city_code":"31110","dong":"반구동","name":"경일","addr":"107-4","query":"울산 반구동 107-4","lat":35.5601592292027,"lng":129.337730094164,"road":"울산 중구 서원1길 70","region":"울산 중구 반구동 107-4","building":"경일사원아파트","method":"address"},"31110|반구동|공원|178-6":{"city_code":"31110","dong":"반구동","name":"공원","addr":"178-6","query":"울산 반구동 178-6","lat":35.5587703073346,"lng":129.338832451416,"road":"울산 중구 서원10길 12-3","region":"울산 중구 반구동 178-6","building":"공원아파트","method":"address"},"31110|반구동|금성|742":{"city_code":"31110","dong":"반구동","name":"금성","addr":"742","query":"울산 반구동 742","lat":35.5584007966717,"lng":129.338446469757,"road":"울산 중구 서원10길 12-2","region":"울산 중구 반구동 742","building":"금성아파트","method":"address"},"31110|반구동|나이스빌9차|455-15":{"city_code":"31110","dong":"반구동","name":"나이스빌9차","addr":"455-15","query":"울산 반구동 455-15","lat":35.5576507167463,"lng":129.343411703474,"road":"울산 중구 반구정13길 9","region":"울산 중구 반구동 455-15","building":"나이스빌","method":"address"},"31110|반구동|남경(795-6)|795-6":{"city_code":"31110","dong":"반구동","name":"남경(795-6)","addr":"795-6","query":"울산 반구동 795-6","lat":35.5511454702553,"lng":129.344254517044,"road":"울산 중구 내황11길 62","region":"울산 중구 반구동 795-6","building":"남경아파트","method":"address"},"31110|반구동|남경102|797-4":{"city_code":"31110","dong":"반구동","name":"남경102","addr":"797-4","query":"울산 반구동 797-4","lat":35.551424285031,"lng":129.34105467829,"road":"울산 중구 내황6길 6","region":"울산 중구 반구동 797-4","building":"남경아파트","method":"address"},"31110|반구동|다모필하우스|262-2":{"city_code":"31110","dong":"반구동","name":"다모필하우스","addr":"262-2","query":"울산 반구동 262-2","lat":35.5592659511538,"lng":129.341000851804,"road":"울산 중구 해오름길 11-8","region":"울산 중구 반구동 262-2","building":"다모필하우스","method":"address"},"31110|반구동|대림|23-2":{"city_code":"31110","dong":"반구동","name":"대림","addr":"23-2","query":"울산 반구동 23-2","lat":35.5662962291218,"lng":129.341493255438,"road":"울산 중구 구교8길 86","region":"울산 중구 반구동 23-2","building":"대림빌라","method":"address"},"31110|반구동|대천빌라|55-6":{"city_code":"31110","dong":"반구동","name":"대천빌라","addr":"55-6","query":"울산 반구동 55-6","lat":35.5637305540137,"lng":129.33708939923,"road":"울산 중구 구교9길 75","region":"울산 중구 반구동 55-6","building":"대천빌라","method":"address"},"31110|반구동|동산그린3차|795-2":{"city_code":"31110","dong":"반구동","name":"동산그린3차","addr":"795-2","query":"울산 반구동 795-2","lat":35.5512052179026,"lng":129.34358699258,"road":"울산 중구 내황6길 40","region":"울산 중구 반구동 795-2","building":"동산그린아파트3차","method":"address"},"31110|반구동|동산맨션|49-28":{"city_code":"31110","dong":"반구동","name":"동산맨션","addr":"49-28","query":"울산 반구동 49-28","lat":35.5644888816665,"lng":129.337809367283,"road":"울산 중구 구교8길 21","region":"울산 중구 반구동 49-28","building":"동산맨션","method":"address"},"31110|반구동|동진|450-2":{"city_code":"31110","dong":"반구동","name":"동진","addr":"450-2","query":"울산 반구동 450-2","lat":35.5595685380652,"lng":129.34528655936,"road":"울산 중구 반구정4길 85","region":"울산 중구 반구동 450-2","building":"동진아파트","method":"address"},"31110|반구동|로얄웰빙타운|881-20":{"city_code":"31110","dong":"반구동","name":"로얄웰빙타운","addr":"881-20","query":"울산 반구동 881-20","lat":35.5587463201202,"lng":129.348604046438,"road":"울산 중구 반구정16길 38","region":"울산 중구 반구동 881-20","building":"로얄웰빙타운","method":"address"},"31110|반구동|리치메이트리버뷰|797-7":{"city_code":"31110","dong":"반구동","name":"리치메이트리버뷰","addr":"797-7","query":"울산 반구동 797-7","lat":35.5513753009158,"lng":129.341600243811,"road":"울산 중구 내황7길 65","region":"울산 중구 반구동 797-7","building":"리치메이트 리버뷰","method":"address"},"31110|반구동|리치아파트|785-8":{"city_code":"31110","dong":"반구동","name":"리치아파트","addr":"785-8","query":"울산 반구동 785-8","lat":35.5519583254586,"lng":129.344290872531,"road":"울산 중구 내황11길 48","region":"울산 중구 반구동 785-8","building":"리치아파트","method":"address"},"31110|반구동|무궁화|51-3":{"city_code":"31110","dong":"반구동","name":"무궁화","addr":"51-3","query":"울산 반구동 51-3","lat":35.5636366703747,"lng":129.339174067054,"road":"울산 중구 구교6길 26","region":"울산 중구 반구동 51-3","building":"무궁화아파트","method":"address"},"31110|반구동|반구동비발디칸|344":{"city_code":"31110","dong":"반구동","name":"반구동비발디칸","addr":"344","query":"울산 반구동 344","lat":35.5542001105752,"lng":129.348157339501,"road":"울산 중구 반구로 66","region":"울산 중구 반구동 344","building":"","method":"address"},"31110|반구동|반구동파크오시오|55-5":{"city_code":"31110","dong":"반구동","name":"반구동파크오시오","addr":"55-5","query":"울산 반구동 55-5","lat":35.5631271262497,"lng":129.33727477438,"road":"울산 중구 화합로 426","region":"울산 중구 반구동 55-5","building":"","method":"address"},"31110|반구동|반구신동아파밀리에|448-3":{"city_code":"31110","dong":"반구동","name":"반구신동아파밀리에","addr":"448-3","query":"울산 반구동 448-3","lat":35.55865827159,"lng":129.343768653038,"road":"울산 중구 반구정15길 8","region":"울산 중구 반구동 448-3","building":"반구 신동아파밀리에","method":"address"},"31110|반구동|삼익빌라|53-3":{"city_code":"31110","dong":"반구동","name":"삼익빌라","addr":"53-3","query":"울산 반구동 53-3","lat":35.5627809943652,"lng":129.339834870038,"road":"울산 중구 구교4길 24","region":"울산 중구 반구동 53-3","building":"삼익빌라","method":"address"},"31110|반구동|삼일|51-11":{"city_code":"31110","dong":"반구동","name":"삼일","addr":"51-11","query":"울산 반구동 51-11","lat":35.5633425078587,"lng":129.339135298737,"road":"울산 중구 구교5길 9","region":"울산 중구 반구동 51-11","building":"삼일아파트","method":"address"},"31110|반구동|세창짜임101동|215":{"city_code":"31110","dong":"반구동","name":"세창짜임101동","addr":"215","query":"울산 반구동 215","lat":35.5610605481454,"lng":129.339193008757,"road":"울산 중구 화합로 398","region":"울산 중구 반구동 215","building":"세창짜임아파트 101동","method":"address"},"31110|반구동|세창짜임102동|60-5":{"city_code":"31110","dong":"반구동","name":"세창짜임102동","addr":"60-5","query":"울산 반구동 60-5","lat":35.5615698531222,"lng":129.33861124414,"road":"울산 중구 화합로 404","region":"울산 중구 반구동 60-5","building":"세창짜임아파트","method":"address"},"31110|반구동|세한프리빌|251-3":{"city_code":"31110","dong":"반구동","name":"세한프리빌","addr":"251-3","query":"울산 반구동 251-3","lat":35.5604131362051,"lng":129.339847608457,"road":"울산 중구 화합로 388","region":"울산 중구 반구동 251-3","building":"세한프리빌Ⅱ","method":"address"},"31110|반구동|세한프리빌3차|103-5":{"city_code":"31110","dong":"반구동","name":"세한프리빌3차","addr":"103-5","query":"울산 반구동 103-5","lat":35.560818571165,"lng":129.338484980258,"road":"울산 중구 화합로 397","region":"울산 중구 반구동 103-5","building":"세한프리빌3차","method":"address"},"31110|반구동|세한프리빌반구5차|54-10":{"city_code":"31110","dong":"반구동","name":"세한프리빌반구5차","addr":"54-10","query":"울산 반구동 54-10","lat":35.5641012857997,"lng":129.337064219387,"road":"울산 중구 구교8길 11","region":"울산 중구 반구동 54-10","building":"","method":"address"},"31110|반구동|소담팰리스|106-3":{"city_code":"31110","dong":"반구동","name":"소담팰리스","addr":"106-3","query":"울산 반구동 106-3","lat":35.5594084545615,"lng":129.339759728663,"road":"울산 중구 화합로 379","region":"울산 중구 반구동 106-3","building":"","method":"address"},"31110|반구동|소미빌|26-23":{"city_code":"31110","dong":"반구동","name":"소미빌","addr":"26-23","query":"울산 반구동 26-23","lat":35.5661076118454,"lng":129.34013101116,"road":"울산 중구 번영로 520","region":"울산 중구 반구동 26-23","building":"소미빌","method":"address"},"31110|반구동|승웅아트빌|442-1":{"city_code":"31110","dong":"반구동","name":"승웅아트빌","addr":"442-1","query":"울산 반구동 442-1","lat":35.5592002280063,"lng":129.341373743342,"road":"울산 중구 해오름길 11-7","region":"울산 중구 반구동 442-1","building":"승웅 아트빌","method":"address"},"31110|반구동|아담1|877-1":{"city_code":"31110","dong":"반구동","name":"아담1","addr":"877-1","query":"울산 반구동 877-1","lat":35.5596018948135,"lng":129.349342351013,"road":"울산 중구 반구정19길 14","region":"울산 중구 반구동 877-1","building":"아담아파트","method":"address"},"31110|반구동|아담2|875-17":{"city_code":"31110","dong":"반구동","name":"아담2","addr":"875-17","query":"울산 반구동 875-17","lat":35.5602382511683,"lng":129.350809879883,"road":"울산 중구 반구정17길 55","region":"울산 중구 반구동 875-17","building":"아담(2차)아파트","method":"address"},"31110|반구동|에일린아파트(7차)|105-8":{"city_code":"31110","dong":"반구동","name":"에일린아파트(7차)","addr":"105-8","query":"울산 반구동 105-8","lat":35.5599296435316,"lng":129.339452455459,"road":"울산 중구 화합로 383","region":"울산 중구 반구동 105-8","building":"","method":"address"},"31110|반구동|엘리시아|41-20":{"city_code":"31110","dong":"반구동","name":"엘리시아","addr":"41-20","query":"울산 반구동 41-20","lat":35.5650085233096,"lng":129.338807476332,"road":"울산 중구 구교8길 39","region":"울산 중구 반구동 41-20","building":"엘리시아","method":"address"},"31110|반구동|오뜨빌|54-7":{"city_code":"31110","dong":"반구동","name":"오뜨빌","addr":"54-7","query":"울산 반구동 54-7","lat":35.5638813082811,"lng":129.336782361133,"road":"울산 중구 구교8길 3","region":"울산 중구 반구동 54-7","building":"오뜨빌","method":"address"},"31110|반구동|용인그린맨션|104-1":{"city_code":"31110","dong":"반구동","name":"용인그린맨션","addr":"104-1","query":"울산 반구동 104-1","lat":35.5597572491511,"lng":129.338464830246,"road":"울산 중구 서원1길 85","region":"울산 중구 반구동 104-1","building":"용인그린맨션","method":"address"},"31110|반구동|유로캐슬|449-16":{"city_code":"31110","dong":"반구동","name":"유로캐슬","addr":"449-16","query":"울산 반구동 449-16","lat":35.5593503370851,"lng":129.344580984025,"road":"울산 중구 염포로 26","region":"울산 중구 반구동 449-16","building":"유로캐슬","method":"address"},"31110|반구동|은실|49-5":{"city_code":"31110","dong":"반구동","name":"은실","addr":"49-5","query":"울산 반구동 49-5","lat":35.5648835557816,"lng":129.337961990887,"road":"울산 중구 번영로 498","region":"울산 중구 반구동 49-5","building":"은실맨션","method":"address"},"31110|반구동|이주아트빌|57-5":{"city_code":"31110","dong":"반구동","name":"이주아트빌","addr":"57-5","query":"울산 반구동 57-5","lat":35.5627619685787,"lng":129.33786725328,"road":"울산 중구 구교6길 6","region":"울산 중구 반구동 57-5","building":"이주아트빌","method":"address"},"31110|반구동|제일|52-1":{"city_code":"31110","dong":"반구동","name":"제일","addr":"52-1","query":"울산 반구동 52-1","lat":35.5630221056071,"lng":129.339157852181,"road":"울산 중구 구교5길 4","region":"울산 중구 반구동 52-1","building":"제일아파트","method":"address"},"31110|반구동|준우빌라|795-8":{"city_code":"31110","dong":"반구동","name":"준우빌라","addr":"795-8","query":"울산 반구동 795-8","lat":35.551162560639,"lng":129.343296985511,"road":"울산 중구 내황10길 51","region":"울산 중구 반구동 795-8","building":"","method":"address"},"31110|반구동|참좋은가|796-4":{"city_code":"31110","dong":"반구동","name":"참좋은가","addr":"796-4","query":"울산 반구동 796-4","lat":35.5513167781229,"lng":129.342284125291,"road":"울산 중구 내황7길 75","region":"울산 중구 반구동 796-4","building":"참좋은가","method":"address"},"31110|반구동|창조메리트|99-17":{"city_code":"31110","dong":"반구동","name":"창조메리트","addr":"99-17","query":"울산 반구동 99-17","lat":35.5620218184,"lng":129.337325037521,"road":"울산 중구 화합로 415","region":"울산 중구 반구동 99-17","building":"","method":"address"},"31110|반구동|천지강변|794-8":{"city_code":"31110","dong":"반구동","name":"천지강변","addr":"794-8","query":"울산 반구동 794-8","lat":35.5510454551011,"lng":129.345421436397,"road":"울산 중구 내황7길 113","region":"울산 중구 반구동 794-8","building":"천지강변아파트","method":"address"},"31110|반구동|천지강변102동|794-5":{"city_code":"31110","dong":"반구동","name":"천지강변102동","addr":"794-5","query":"울산 반구동 794-5","lat":35.5511822722972,"lng":129.344947235643,"road":"울산 중구 내황7길 107","region":"울산 중구 반구동 794-5","building":"천지강변 102동","method":"address"},"31110|반구동|청운빌라|22-3":{"city_code":"31110","dong":"반구동","name":"청운빌라","addr":"22-3","query":"울산 반구동 22-3","lat":35.5665508386429,"lng":129.340789808814,"road":"울산 중구 번영로 532","region":"울산 중구 반구동 22-3","building":"청운빌라","method":"address"},"31110|반구동|하얀빌라트|611-1":{"city_code":"31110","dong":"반구동","name":"하얀빌라트","addr":"611-1","query":"울산 반구동 611-1","lat":35.5556863407262,"lng":129.344546010526,"road":"울산 중구 반구정10길 46","region":"울산 중구 반구동 611-1","building":"하얀빌라트","method":"address"},"31110|반구동|하얀빌라트2|542":{"city_code":"31110","dong":"반구동","name":"하얀빌라트2","addr":"542","query":"울산 반구동 542","lat":35.553021537022,"lng":129.347800992558,"road":"울산 중구 내황2길 79","region":"울산 중구 반구동 542","building":"하얀빌라트2차","method":"address"},"31110|반구동|한라그랜드|290-2":{"city_code":"31110","dong":"반구동","name":"한라그랜드","addr":"290-2","query":"울산 반구동 290-2","lat":35.5574163863856,"lng":129.348566001013,"road":"울산 중구 반구정9길 10","region":"울산 중구 반구동 290-2","building":"한라그랜드맨션","method":"address"},"31110|반구동|한미강변빌리지|796-11":{"city_code":"31110","dong":"반구동","name":"한미강변빌리지","addr":"796-11","query":"울산 반구동 796-11","lat":35.5512180168956,"lng":129.342868484351,"road":"울산 중구 내황10길 50","region":"울산 중구 반구동 796-11","building":"한미강변빌리지","method":"address"},"31110|반구동|한일|107-10":{"city_code":"31110","dong":"반구동","name":"한일","addr":"107-10","query":"울산 반구동 107-10","lat":35.559720198534,"lng":129.338015286953,"road":"울산 중구 서원1길 80","region":"울산 중구 반구동 107-10","building":"한일아파트","method":"address"},"31110|반구동|해룡타워시티|22-19":{"city_code":"31110","dong":"반구동","name":"해룡타워시티","addr":"22-19","query":"울산 반구동 22-19","lat":35.5665097377376,"lng":129.341226419855,"road":"울산 중구 구교8길 81","region":"울산 중구 반구동 22-19","building":"해룡타워시티","method":"address"},"31110|반구동|헤븐에이레네|796-1":{"city_code":"31110","dong":"반구동","name":"헤븐에이레네","addr":"796-1","query":"울산 반구동 796-1","lat":35.5513372041707,"lng":129.342039836709,"road":"울산 중구 내황7길 71","region":"울산 중구 반구동 796-1","building":"해븐에이레네","method":"address"},"31110|반구동|현대그랜드맨션|290-3":{"city_code":"31110","dong":"반구동","name":"현대그랜드맨션","addr":"290-3","query":"울산 반구동 290-3","lat":35.5578444275771,"lng":129.348476056316,"road":"울산 중구 반구정9길 20","region":"울산 중구 반구동 290-3","building":"현대그랜드맨션 101동","method":"address"},"31110|반구동|현대글로리아맨션|565-1":{"city_code":"31110","dong":"반구동","name":"현대글로리아맨션","addr":"565-1","query":"울산 반구동 565-1","lat":35.5542456041461,"lng":129.347228167175,"road":"울산 중구 반구로 58","region":"울산 중구 반구동 565-1","building":"현대글로리아맨션","method":"address"},"31110|반구동|현대타워맨션|285":{"city_code":"31110","dong":"반구동","name":"현대타워맨션","addr":"285","query":"울산 반구동 285","lat":35.5587172363338,"lng":129.346234751321,"road":"울산 중구 반구정8길 31","region":"울산 중구 반구동 285","building":"현대타워맨션 A동","method":"address"},"31110|반구동|홍실|102-9":{"city_code":"31110","dong":"반구동","name":"홍실","addr":"102-9","query":"울산 반구동 102-9","lat":35.5603206862537,"lng":129.33833443587,"road":"울산 중구 서원2길 72","region":"울산 중구 반구동 102-9","building":"홍실아파트","method":"address"},"31110|반구동|화이트빌|26-25":{"city_code":"31110","dong":"반구동","name":"화이트빌","addr":"26-25","query":"울산 반구동 26-25","lat":35.5660512076093,"lng":129.340539164268,"road":"울산 중구 구교8길 67","region":"울산 중구 반구동 26-25","building":"화이트빌","method":"address"},"31110|반구동|화전|880-8":{"city_code":"31110","dong":"반구동","name":"화전","addr":"880-8","query":"울산 반구동 880-8","lat":35.559749148295,"lng":129.347357721706,"road":"울산 중구 반구정17길 12-1","region":"울산 중구 반구동 880-8","building":"화전아파트","method":"address"},"31110|복산동|골든빌리지|364-6":{"city_code":"31110","dong":"복산동","name":"골든빌리지","addr":"364-6","query":"울산 복산동 364-6","lat":35.5637800790844,"lng":129.330158712272,"road":"울산 중구 도화골15길 3-9","region":"울산 중구 복산동 364-6","building":"골든빌리지","method":"address"},"31110|복산동|꽃동산|619":{"city_code":"31110","dong":"복산동","name":"꽃동산","addr":"619","query":"울산 복산동 619","lat":35.5622542600938,"lng":129.325422829754,"road":null,"region":"울산 중구 복산동 619","building":null,"method":"address"},"31110|복산동|남운럭키|186-2":{"city_code":"31110","dong":"복산동","name":"남운럭키","addr":"186-2","query":"울산 복산동 186-2","lat":35.5675228130659,"lng":129.331070852132,"road":"울산 중구 도화골길 28","region":"울산 중구 복산동 186-2","building":"남운럭키맨션","method":"address"},"31110|복산동|동덕현대(101동102동)|677-9":{"city_code":"31110","dong":"복산동","name":"동덕현대(101동102동)","addr":"677-9","query":"울산 복산동 677-9","lat":35.5655105785595,"lng":129.325684910125,"road":"울산 중구 손골2길 17-6","region":"울산 중구 복산동 677-9","building":"동덕아파트","method":"address"},"31110|복산동|동덕현대(103동)|329":{"city_code":"31110","dong":"복산동","name":"동덕현대(103동)","addr":"329","query":"울산 복산동 329","lat":35.5659198882289,"lng":129.326597166903,"road":"울산 중구 손골2길 12","region":"울산 중구 복산동 329","building":"동덕현대아파트","method":"address"},"31110|복산동|동덕현대(104동)|319":{"city_code":"31110","dong":"복산동","name":"동덕현대(104동)","addr":"319","query":"울산 복산동 319","lat":35.5650709130222,"lng":129.327007767176,"road":"울산 중구 손골2길 5","region":"울산 중구 복산동 319","building":"동덕현대아파트","method":"address"},"31110|복산동|동덕현대(105동106동)|320":{"city_code":"31110","dong":"복산동","name":"동덕현대(105동106동)","addr":"320","query":"울산 복산동 320","lat":35.5649395708164,"lng":129.327705881342,"road":"울산 중구 손골5길 30","region":"울산 중구 복산동 320","building":"동덕현대아파트","method":"address"},"31110|복산동|동아맨션(34-1)|34-1":{"city_code":"31110","dong":"복산동","name":"동아맨션(34-1)","addr":"34-1","query":"울산 복산동 34-1","lat":35.5611893686268,"lng":129.336077941354,"road":"울산 중구 서원1길 42-2","region":"울산 중구 복산동 34-1","building":"동아아파트","method":"address"},"31110|복산동|동아파크|431":{"city_code":"31110","dong":"복산동","name":"동아파크","addr":"431","query":"울산 복산동 431","lat":35.5620439405371,"lng":129.327155095925,"road":null,"region":"울산 중구 복산동 431","building":null,"method":"address"},"31110|복산동|물망초|31-11":{"city_code":"31110","dong":"복산동","name":"물망초","addr":"31-11","query":"울산 복산동 31-11","lat":35.5622877966239,"lng":129.335173946594,"road":"울산 중구 서원4길 10","region":"울산 중구 복산동 31-11","building":"물망초아파트","method":"address"},"31110|복산동|번영로드림파크|40-9":{"city_code":"31110","dong":"복산동","name":"번영로드림파크","addr":"40-9","query":"울산 복산동 40-9","lat":35.5609444477629,"lng":129.331943041014,"road":"울산 중구 계변로 54","region":"울산 중구 복산동 40-9","building":"","method":"address"},"31110|복산동|번영로서한이다음1단지|779":{"city_code":"31110","dong":"복산동","name":"번영로서한이다음1단지","addr":"779","query":"울산 복산동 779","lat":35.5642197114446,"lng":129.333091994315,"road":"울산 중구 번영로 463","region":"울산 중구 복산동 779","building":"번영로 서한이다음 1단지","method":"address"},"31110|복산동|번영로서한이다음2단지|780":{"city_code":"31110","dong":"복산동","name":"번영로서한이다음2단지","addr":"780","query":"울산 복산동 780","lat":35.5647951082377,"lng":129.333358127656,"road":"울산 중구 번영로 465","region":"울산 중구 복산동 780","building":"번영로 서한이다음 2단지","method":"address"},"31110|복산동|번영로서한이다음프레스티지|828":{"city_code":"31110","dong":"복산동","name":"번영로서한이다음프레스티지","addr":"828","query":"울산 복산동 828","lat":35.5651989063958,"lng":129.333789003809,"road":"울산 중구 화합로 459","region":"울산 중구 복산동 828","building":"번영로 서한이다음 프레스티지","method":"address"},"31110|복산동|번영로센트리지|460-72":{"city_code":"31110","dong":"복산동","name":"번영로센트리지","addr":"460-72","query":"울산 복산동 460-72","lat":35.5607079935751,"lng":129.326727859039,"road":null,"region":"울산 중구 복산동 460-72","building":null,"method":"address"},"31110|복산동|번영로센트리지|829":{"city_code":"31110","dong":"복산동","name":"번영로센트리지","addr":"829","query":"울산 복산동 829","lat":35.5607056242804,"lng":129.3231565443,"road":"울산 중구 복산1길 1","region":"울산 중구 복산동 829","building":"번영로센트리지","method":"address"},"31110|복산동|번영로센트리지2단지|830":{"city_code":"31110","dong":"복산동","name":"번영로센트리지2단지","addr":"830","query":"울산 복산동 830","lat":35.5618751485807,"lng":129.323406779707,"road":"울산 중구 복산1길 1","region":"울산 중구 복산동 830","building":"번영로센트리지","method":"address"},"31110|복산동|번영로센트리지3단지|832":{"city_code":"31110","dong":"복산동","name":"번영로센트리지3단지","addr":"832","query":"울산 복산동 832","lat":35.5615098509951,"lng":129.326909509194,"road":"울산 중구 복산1길 1","region":"울산 중구 복산동 832","building":"번영로센트리지","method":"address"},"31110|복산동|번영로센트리지4단지|833":{"city_code":"31110","dong":"복산동","name":"번영로센트리지4단지","addr":"833","query":"울산 복산동 833","lat":35.5598511202195,"lng":129.326805521176,"road":"울산 중구 복산1길 1","region":"울산 중구 복산동 833","building":"번영로센트리지","method":"address"},"31110|복산동|번영로센트리지5단지|834":{"city_code":"31110","dong":"복산동","name":"번영로센트리지5단지","addr":"834","query":"울산 복산동 834","lat":35.5589075703417,"lng":129.324581240172,"road":"울산 중구 복산1길 1","region":"울산 중구 복산동 834","building":"번영로센트리지","method":"address"},"31110|복산동|번영로효성해링턴플레이스1차아파트|766":{"city_code":"31110","dong":"복산동","name":"번영로효성해링턴플레이스1차아파트","addr":"766","query":"울산 복산동 766","lat":35.5622458927413,"lng":129.331335112716,"road":"울산 중구 번영로 435","region":"울산 중구 복산동 766","building":"번영로 효성해링턴 플레이스 1차 아파트","method":"address"},"31110|복산동|번영로효성해링턴플레이스2차아파트|770":{"city_code":"31110","dong":"복산동","name":"번영로효성해링턴플레이스2차아파트","addr":"770","query":"울산 복산동 770","lat":35.5627453127899,"lng":129.332347343147,"road":"울산 중구 번영로 445","region":"울산 중구 복산동 770","building":"번영로 효성해링턴 플레이스 2차 아파트","method":"address"},"31110|복산동|보림빌|364-4":{"city_code":"31110","dong":"복산동","name":"보림빌","addr":"364-4","query":"울산 복산동 364-4","lat":35.5633595428856,"lng":129.330313157117,"road":"울산 중구 도화골15길 3-8","region":"울산 중구 복산동 364-4","building":"보림빌","method":"address"},"31110|복산동|복산맨션(3동)|609-1":{"city_code":"31110","dong":"복산동","name":"복산맨션(3동)","addr":"609-1","query":"울산 복산동 609-1","lat":35.5616209781867,"lng":129.323232928154,"road":null,"region":"울산 중구 복산동 609-1","building":null,"method":"address"},"31110|복산동|복산맨션(4동)|611":{"city_code":"31110","dong":"복산동","name":"복산맨션(4동)","addr":"611","query":"울산 복산동 611","lat":35.5618707861834,"lng":129.323698435906,"road":null,"region":"울산 중구 복산동 611","building":null,"method":"address"},"31110|복산동|복산맨션(608)|608":{"city_code":"31110","dong":"복산동","name":"복산맨션(608)","addr":"608","query":"울산 복산동 608","lat":35.5610222458301,"lng":129.322928050762,"road":null,"region":"울산 중구 복산동 608","building":null,"method":"address"},"31110|복산동|복산아이파크|776":{"city_code":"31110","dong":"복산동","name":"복산아이파크","addr":"776","query":"울산 복산동 776","lat":35.5645212162542,"lng":129.329444745757,"road":"울산 중구 계변로 96","region":"울산 중구 복산동 776","building":"복산아이파크","method":"address"},"31110|복산동|새운파래스|186-3":{"city_code":"31110","dong":"복산동","name":"새운파래스","addr":"186-3","query":"울산 복산동 186-3","lat":35.5680361163127,"lng":129.331808069483,"road":"울산 중구 북부순환도로 680","region":"울산 중구 복산동 186-3","building":"새운파래스타운","method":"address"},"31110|복산동|송림|33-3":{"city_code":"31110","dong":"복산동","name":"송림","addr":"33-3","query":"울산 복산동 33-3","lat":35.5616081502727,"lng":129.33573546528,"road":"울산 중구 서원5길 25","region":"울산 중구 복산동 33-3","building":"송림아파트","method":"address"},"31110|복산동|신한그린맨션|671":{"city_code":"31110","dong":"복산동","name":"신한그린맨션","addr":"671","query":"울산 복산동 671","lat":35.5649087692539,"lng":129.324288276549,"road":"울산 중구 손골9길 38","region":"울산 중구 복산동 671","building":"신한그린맨션","method":"address"},"31110|복산동|아느칸빌3차|40-16":{"city_code":"31110","dong":"복산동","name":"아느칸빌3차","addr":"40-16","query":"울산 복산동 40-16","lat":35.5614012171261,"lng":129.332588910733,"road":"울산 중구 서원3길 62","region":"울산 중구 복산동 40-16","building":"아느칸빌3차","method":"address"},"31110|복산동|아느칸빌4차|36-15":{"city_code":"31110","dong":"복산동","name":"아느칸빌4차","addr":"36-15","query":"울산 복산동 36-15","lat":35.5621138656004,"lng":129.333794014658,"road":"울산 중구 서원3길 42","region":"울산 중구 복산동 36-15","building":"아느칸빌4차","method":"address"},"31110|복산동|아띠안|36-11":{"city_code":"31110","dong":"복산동","name":"아띠안","addr":"36-11","query":"울산 복산동 36-11","lat":35.5618762782813,"lng":129.333392787722,"road":"울산 중구 서원3길 48","region":"울산 중구 복산동 36-11","building":"아띠안","method":"address"},"31110|복산동|옥교|574":{"city_code":"31110","dong":"복산동","name":"옥교","addr":"574","query":"울산 복산동 574","lat":35.5588701714089,"lng":129.324945811013,"road":null,"region":"울산 중구 복산동 574","building":null,"method":"address"},"31110|복산동|올림푸스|617":{"city_code":"31110","dong":"복산동","name":"올림푸스","addr":"617","query":"울산 복산동 617","lat":35.5618904851356,"lng":129.324662569823,"road":null,"region":"울산 중구 복산동 617","building":null,"method":"address"},"31110|복산동|장미|646-1":{"city_code":"31110","dong":"복산동","name":"장미","addr":"646-1","query":"울산 복산동 646-1","lat":35.5632415208709,"lng":129.325461621473,"road":"울산 중구 손골9길 3","region":"울산 중구 복산동 646-1","building":"장미아파트","method":"address"},"31110|복산동|정우|35-1":{"city_code":"31110","dong":"복산동","name":"정우","addr":"35-1","query":"울산 복산동 35-1","lat":35.5606672619987,"lng":129.336302841995,"road":"울산 중구 서원6길 25","region":"울산 중구 복산동 35-1","building":"정우아파트","method":"address"},"31110|복산동|제일|459":{"city_code":"31110","dong":"복산동","name":"제일","addr":"459","query":"울산 복산동 459","lat":35.5600636495408,"lng":129.32730634004,"road":null,"region":"울산 중구 복산동 459","building":null,"method":"address"},"31110|복산동|제일3차|456-6":{"city_code":"31110","dong":"복산동","name":"제일3차","addr":"456-6","query":"울산 복산동 456-6","lat":35.5594095501696,"lng":129.327522074071,"road":null,"region":"울산 중구 복산동 456-6","building":null,"method":"address"},"31110|복산동|청풍리버빌|36-36":{"city_code":"31110","dong":"복산동","name":"청풍리버빌","addr":"36-36","query":"울산 복산동 36-36","lat":35.5622919788711,"lng":129.334093059534,"road":"울산 중구 서원길 6","region":"울산 중구 복산동 36-36","building":"청풍리버빌","method":"address"},"31110|복산동|평창|597-1":{"city_code":"31110","dong":"복산동","name":"평창","addr":"597-1","query":"울산 복산동 597-1","lat":35.5616180331809,"lng":129.325338277222,"road":"울산 중구 복산6길 13","region":"울산 중구 복산동 597-1","building":"평창아파트","method":"address"},"31110|복산동|해동성지|186-1":{"city_code":"31110","dong":"복산동","name":"해동성지","addr":"186-1","query":"울산 복산동 186-1","lat":35.5666888858047,"lng":129.330162465775,"road":"울산 중구 도화골길 30","region":"울산 중구 복산동 186-1","building":"성지아파트","method":"address"},"31110|복산동|현대복산|631-3":{"city_code":"31110","dong":"복산동","name":"현대복산","addr":"631-3","query":"울산 복산동 631-3","lat":35.5622927336863,"lng":129.323965685257,"road":null,"region":"울산 중구 복산동 631-3","building":null,"method":"address"},"31110|북정동|남도|127-5":{"city_code":"31110","dong":"북정동","name":"남도","addr":"127-5","query":"울산 북정동 127-5","lat":35.5613420592258,"lng":129.322201989034,"road":"울산 중구 옥교동길 10","region":"울산 중구 북정동 127-5","building":"남도아파트","method":"address"},"31110|북정동|동양아파트1동|139":{"city_code":"31110","dong":"북정동","name":"동양아파트1동","addr":"139","query":"울산 북정동 139","lat":35.5616008253044,"lng":129.321665152185,"road":"울산 중구 북부순환도로 562","region":"울산 중구 북정동 139","building":"동양아파트","method":"address"},"31110|북정동|동양아파트2동|128-2":{"city_code":"31110","dong":"북정동","name":"동양아파트2동","addr":"128-2","query":"울산 북정동 128-2","lat":35.5617389200173,"lng":129.321947686172,"road":"울산 중구 북부순환도로 562","region":"울산 중구 북정동 128-2","building":"동양아파트","method":"address"},"31110|북정동|동양아파트3동|128-1":{"city_code":"31110","dong":"북정동","name":"동양아파트3동","addr":"128-1","query":"울산 북정동 128-1","lat":35.5613438897249,"lng":129.321966720894,"road":"울산 중구 북부순환도로 562","region":"울산 중구 북정동 128-1","building":"동양아파트","method":"address"},"31110|북정동|복산맨션(5동)|143-2":{"city_code":"31110","dong":"북정동","name":"복산맨션(5동)","addr":"143-2","query":"울산 북정동 복산맨션(5동)","error":"not found"},"31110|북정동|북정|126-24":{"city_code":"31110","dong":"북정동","name":"북정","addr":"126-24","query":"울산 북정동 126-24","lat":35.5608876205819,"lng":129.322199128148,"road":"울산 중구 옥교동길 18","region":"울산 중구 북정동 126-24","building":"북정아파트","method":"address"},"31110|서동|강동그린타워|61-2":{"city_code":"31110","dong":"서동","name":"강동그린타워","addr":"61-2","query":"울산 서동 61-2","lat":35.5796665678662,"lng":129.346195285141,"road":"울산 중구 병영성4길 142","region":"울산 중구 서동 61-2","building":"강동그린타워","method":"address"},"31110|서동|광명아트빌|64-2":{"city_code":"31110","dong":"서동","name":"광명아트빌","addr":"64-2","query":"울산 서동 64-2","lat":35.5780614821439,"lng":129.344434029597,"road":"울산 중구 병영성2길 32-1","region":"울산 중구 서동 64-2","building":"서동 광명 아트빌","method":"address"},"31110|서동|광명파크맨션|41-3":{"city_code":"31110","dong":"서동","name":"광명파크맨션","addr":"41-3","query":"울산 서동 41-3","lat":35.5814632647304,"lng":129.344681797866,"road":"울산 중구 동천5길 40","region":"울산 중구 서동 41-3","building":"광명파크맨션","method":"address"},"31110|서동|구룡골든맨션|62-4":{"city_code":"31110","dong":"서동","name":"구룡골든맨션","addr":"62-4","query":"울산 서동 62-4","lat":35.578775236691,"lng":129.345487869725,"road":"울산 중구 병영성7길 18","region":"울산 중구 서동 62-4","building":"구룡골든맨션","method":"address"},"31110|서동|나이스빌|62-1":{"city_code":"31110","dong":"서동","name":"나이스빌","addr":"62-1","query":"울산 서동 62-1","lat":35.5786483327686,"lng":129.344614819251,"road":"울산 중구 병영성6길 20","region":"울산 중구 서동 62-1","building":"나이스빌","method":"address"},"31110|서동|나이스빌A동|59-9":{"city_code":"31110","dong":"서동","name":"나이스빌A동","addr":"59-9","query":"울산 서동 59-9","lat":35.5790111419546,"lng":129.34454764029,"road":"울산 중구 병영성6길 21","region":"울산 중구 서동 59-9","building":"나이스빌","method":"address"},"31110|서동|나이스빌B동|59-14":{"city_code":"31110","dong":"서동","name":"나이스빌B동","addr":"59-14","query":"울산 서동 59-14","lat":35.5788782608076,"lng":129.344301004561,"road":"울산 중구 병영성6길 19","region":"울산 중구 서동 59-14","building":"나이스빌","method":"address"},"31110|서동|두강팔레스맨션|34-1":{"city_code":"31110","dong":"서동","name":"두강팔레스맨션","addr":"34-1","query":"울산 서동 34-1","lat":35.5830295413566,"lng":129.34487726797,"road":"울산 중구 동천4길 31","region":"울산 중구 서동 34-1","building":"두강팔레스맨션","method":"address"},"31110|서동|서동현대|34-2":{"city_code":"31110","dong":"서동","name":"서동현대","addr":"34-2","query":"울산 서동 34-2","lat":35.5833191801423,"lng":129.34626349644,"road":"울산 중구 동천1길 31","region":"울산 중구 서동 34-2","building":"서동현대아파트","method":"address"},"31110|서동|성진파크|452-1":{"city_code":"31110","dong":"서동","name":"성진파크","addr":"452-1","query":"울산 서동 452-1","lat":35.5731672194686,"lng":129.344930461846,"road":"울산 중구 고복수길 11","region":"울산 중구 서동 452-1","building":"성진파크","method":"address"},"31110|서동|신라맨션|65-1":{"city_code":"31110","dong":"서동","name":"신라맨션","addr":"65-1","query":"울산 서동 65-1","lat":35.5783132044943,"lng":129.343731731216,"road":"울산 중구 병영성2길 20","region":"울산 중구 서동 65-1","building":"신라맨션","method":"address"},"31110|서동|우정혁신도시KCC스위첸|613":{"city_code":"31110","dong":"서동","name":"우정혁신도시KCC스위첸","addr":"613","query":"울산 서동 613","lat":35.5803043381049,"lng":129.340909898468,"road":"울산 중구 종가로 668-10","region":"울산 중구 서동 613","building":"우정혁신도시 KCC스위첸","method":"address"},"31110|서동|우현에덴맨션|192-1":{"city_code":"31110","dong":"서동","name":"우현에덴맨션","addr":"192-1","query":"울산 서동 192-1","lat":35.5758850677995,"lng":129.344680163308,"road":"울산 중구 병영성9길 34","region":"울산 중구 서동 192-1","building":"우현에덴맨션","method":"address"},"31110|서동|청구빌라|42-3":{"city_code":"31110","dong":"서동","name":"청구빌라","addr":"42-3","query":"울산 서동 42-3","lat":35.5822915915245,"lng":129.344131290383,"road":"울산 중구 동천6길 21","region":"울산 중구 서동 42-3","building":"청구빌라","method":"address"},"31110|서동|하니콤타워|66-13":{"city_code":"31110","dong":"서동","name":"하니콤타워","addr":"66-13","query":"울산 서동 66-13","lat":35.5786868051957,"lng":129.343406220009,"road":"울산 중구 병영성2길 14","region":"울산 중구 서동 66-13","building":"하니콤타워","method":"address"},"31110|서동|한도아트빌|55-10":{"city_code":"31110","dong":"서동","name":"한도아트빌","addr":"55-10","query":"울산 서동 55-10","lat":35.5801215455166,"lng":129.344679949746,"road":"울산 중구 병영성4길 123","region":"울산 중구 서동 55-10","building":"한도 아트빌","method":"address"},"31110|서동|한라강변|36":{"city_code":"31110","dong":"서동","name":"한라강변","addr":"36","query":"울산 서동 36","lat":35.5824846540457,"lng":129.346955984654,"road":"울산 중구 동천4길 61","region":"울산 중구 서동 36","building":"한라강변아파트","method":"address"},"31110|서동|한라하야트|42-4":{"city_code":"31110","dong":"서동","name":"한라하야트","addr":"42-4","query":"울산 서동 42-4","lat":35.5816636880112,"lng":129.343712484361,"road":"울산 중구 동천4길 15","region":"울산 중구 서동 42-4","building":"한라하야트","method":"address"},"31110|서동|해성빌라트|35-15":{"city_code":"31110","dong":"서동","name":"해성빌라트","addr":"35-15","query":"울산 서동 35-15","lat":35.5825894416373,"lng":129.345364645518,"road":"울산 중구 동천6길 12","region":"울산 중구 서동 35-15","building":"해성아파트","method":"address"},"31110|서동|현대강변맨션|37":{"city_code":"31110","dong":"서동","name":"현대강변맨션","addr":"37","query":"울산 서동 37","lat":35.5816627461967,"lng":129.347370651971,"road":"울산 중구 동천4길 71","region":"울산 중구 서동 37","building":"현대강변맨션","method":"address"},"31110|성남동|롯데캐슬스카이|255-1":{"city_code":"31110","dong":"성남동","name":"롯데캐슬스카이","addr":"255-1","query":"울산 성남동 255-1","lat":35.553178688834,"lng":129.321348627594,"road":"울산 중구 강북로 105","region":"울산 중구 성남동 255-1","building":"롯데캐슬 스카이","method":"address"},"31110|성남동|리버팰리스|313-1":{"city_code":"31110","dong":"성남동","name":"리버팰리스","addr":"313-1","query":"울산 성남동 313-1","lat":35.5529097036855,"lng":129.3140734709,"road":"울산 중구 학성로 22","region":"울산 중구 성남동 313-1","building":"리버팰리스","method":"address"},"31110|성남동|한사랑|80-1":{"city_code":"31110","dong":"성남동","name":"한사랑","addr":"80-1","query":"울산 성남동 80-1","lat":35.5561886221995,"lng":129.319666906775,"road":"울산 중구 중앙1길 5-2","region":"울산 중구 성남동 80-1","building":"한사랑빌라","method":"address"},"31110|성안동|강산파란들|835-8":{"city_code":"31110","dong":"성안동","name":"강산파란들","addr":"835-8","query":"울산 성안동 835-8","lat":35.573361066737,"lng":129.310199172908,"road":"울산 중구 함월6길 41-9","region":"울산 중구 성안동 835-8","building":"강산파란들","method":"address"},"31110|성안동|강산파크빌|801-1":{"city_code":"31110","dong":"성안동","name":"강산파크빌","addr":"801-1","query":"울산 성안동 801-1","lat":35.5778445216815,"lng":129.310168051097,"road":"울산 중구 함월16길 35","region":"울산 중구 성안동 801-1","building":"강산파크빌","method":"address"},"31110|성안동|개벽이루마빌|388-1":{"city_code":"31110","dong":"성안동","name":"개벽이루마빌","addr":"388-1","query":"울산 성안동 388-1","lat":35.5786983166705,"lng":129.315933835291,"road":"울산 중구 함월21길 10","region":"울산 중구 성안동 388-1","building":"개벽이루마빌","method":"address"},"31110|성안동|경동윈츠힐1|869-5":{"city_code":"31110","dong":"성안동","name":"경동윈츠힐1","addr":"869-5","query":"울산 성안동 869-5","lat":35.5732119051685,"lng":129.307473840882,"road":"울산 중구 함월11길 21-10","region":"울산 중구 성안동 869-5","building":"윈츠힐","method":"address"},"31110|성안동|경동윈츠힐2|872-2":{"city_code":"31110","dong":"성안동","name":"경동윈츠힐2","addr":"872-2","query":"울산 성안동 872-2","lat":35.5736148197138,"lng":129.308792882837,"road":"울산 중구 함월10길 17","region":"울산 중구 성안동 872-2","building":"윈츠힐2차","method":"address"},"31110|성안동|경동햇빛마을|854-2":{"city_code":"31110","dong":"성안동","name":"경동햇빛마을","addr":"854-2","query":"울산 성안동 854-2","lat":35.5745794306807,"lng":129.307102797448,"road":"울산 중구 함월11길 10","region":"울산 중구 성안동 854-2","building":"경동햇빛마을","method":"address"},"31110|성안동|경동햇빛마을2단지|855-3":{"city_code":"31110","dong":"성안동","name":"경동햇빛마을2단지","addr":"855-3","query":"울산 성안동 855-3","lat":35.5750065623044,"lng":129.306574182475,"road":"울산 중구 함월2길 56","region":"울산 중구 성안동 855-3","building":"경동햇빛마을","method":"address"},"31110|성안동|공주마을|382-1":{"city_code":"31110","dong":"성안동","name":"공주마을","addr":"382-1","query":"울산 성안동 382-1","lat":35.5803740535522,"lng":129.319594269067,"road":"울산 중구 함월20길 48","region":"울산 중구 성안동 382-1","building":"공주 마을 A동","method":"address"},"31110|성안동|공주마을(301)|793-3":{"city_code":"31110","dong":"성안동","name":"공주마을(301)","addr":"793-3","query":"울산 성안동 793-3","lat":35.577495665537,"lng":129.31190432451,"road":"울산 중구 함월17길 58","region":"울산 중구 성안동 793-3","building":"공주마을","method":"address"},"31110|성안동|공주마을401동|476-2":{"city_code":"31110","dong":"성안동","name":"공주마을401동","addr":"476-2","query":"울산 성안동 476-2","lat":35.5798673280588,"lng":129.32212322565,"road":"울산 중구 성안8길 66","region":"울산 중구 성안동 476-2","building":"공주마을 401동","method":"address"},"31110|성안동|공주마을402동|476-1":{"city_code":"31110","dong":"성안동","name":"공주마을402동","addr":"476-1","query":"울산 성안동 476-1","lat":35.5798761546912,"lng":129.321791484492,"road":"울산 중구 성안8길 62","region":"울산 중구 성안동 476-1","building":"공주마을402동","method":"address"},"31110|성안동|궁전빌|870-3":{"city_code":"31110","dong":"성안동","name":"궁전빌","addr":"870-3","query":"울산 성안동 870-3","lat":35.5738738891489,"lng":129.307286923714,"road":"울산 중구 함월11길 21","region":"울산 중구 성안동 870-3","building":"공주마을","method":"address"},"31110|성안동|금강솜니움|791-17":{"city_code":"31110","dong":"성안동","name":"금강솜니움","addr":"791-17","query":"울산 성안동 791-17","lat":35.5781529290349,"lng":129.310888208318,"road":"울산 중구 함월16길 44","region":"울산 중구 성안동 791-17","building":"금강 솜니움","method":"address"},"31110|성안동|금광|788-2":{"city_code":"31110","dong":"성안동","name":"금광","addr":"788-2","query":"울산 성안동 788-2","lat":35.5792774273001,"lng":129.311927319338,"road":"울산 중구 함월16길 64","region":"울산 중구 성안동 788-2","building":"금광아파트","method":"address"},"31110|성안동|금광예다움|393-8":{"city_code":"31110","dong":"성안동","name":"금광예다움","addr":"393-8","query":"울산 성안동 393-8","lat":35.5754450027825,"lng":129.316217445346,"road":"울산 중구 성안로 167","region":"울산 중구 성안동 393-8","building":"","method":"address"},"31110|성안동|나르샤아파트|509-14":{"city_code":"31110","dong":"성안동","name":"나르샤아파트","addr":"509-14","query":"울산 성안동 509-14","lat":35.5737849362045,"lng":129.317255542186,"road":"울산 중구 백양로 99","region":"울산 중구 성안동 509-14","building":"성안동 나르샤 아파트","method":"address"},"31110|성안동|네오드림빌|510-3":{"city_code":"31110","dong":"성안동","name":"네오드림빌","addr":"510-3","query":"울산 성안동 510-3","lat":35.5740719598936,"lng":129.318644641309,"road":"울산 중구 성안5길 34","region":"울산 중구 성안동 510-3","building":"네오드림빌","method":"address"},"31110|성안동|네오빌6차|504-3":{"city_code":"31110","dong":"성안동","name":"네오빌6차","addr":"504-3","query":"울산 성안동 504-3","lat":35.5763247404784,"lng":129.318253535777,"road":"울산 중구 성안3길 50","region":"울산 중구 성안동 504-3","building":"성안 네오빌 6차","method":"address"},"31110|성안동|네오빌8차|868-6":{"city_code":"31110","dong":"성안동","name":"네오빌8차","addr":"868-6","query":"울산 성안동 868-6","lat":35.5726665914502,"lng":129.307765126919,"road":"울산 중구 함월2길 25","region":"울산 중구 성안동 868-6","building":"네오빌8차","method":"address"},"31110|성안동|네오빌9차|800-3":{"city_code":"31110","dong":"성안동","name":"네오빌9차","addr":"800-3","query":"울산 성안동 800-3","lat":35.5774207954056,"lng":129.310269260262,"road":"울산 중구 함월16길 32","region":"울산 중구 성안동 800-3","building":"네오빌9차","method":"address"},"31110|성안동|네오빌라4차|857-4":{"city_code":"31110","dong":"성안동","name":"네오빌라4차","addr":"857-4","query":"울산 성안동 857-4","lat":35.5761012933606,"lng":129.306242940055,"road":"울산 중구 함월5길 34","region":"울산 중구 성안동 857-4","building":"네오빌라4차","method":"address"},"31110|성안동|노블레스빌|507-6":{"city_code":"31110","dong":"성안동","name":"노블레스빌","addr":"507-6","query":"울산 성안동 507-6","lat":35.5746572594719,"lng":129.319404434399,"road":"울산 중구 성안6길 36","region":"울산 중구 성안동 507-6","building":"노블레스빌","method":"address"},"31110|성안동|다솜까사미아|390-4":{"city_code":"31110","dong":"성안동","name":"다솜까사미아","addr":"390-4","query":"울산 성안동 390-4","lat":35.5776093630532,"lng":129.315977360996,"road":"울산 중구 함월로 100","region":"울산 중구 성안동 390-4","building":"다솜 까사미아","method":"address"},"31110|성안동|대동대숲아파트|383-3":{"city_code":"31110","dong":"성안동","name":"대동대숲아파트","addr":"383-3","query":"울산 성안동 383-3","lat":35.578975285176,"lng":129.318384882282,"road":"울산 중구 함월20길 26","region":"울산 중구 성안동 383-3","building":"대동 실크로드","method":"address"},"31110|성안동|대동로즈빌|867-6":{"city_code":"31110","dong":"성안동","name":"대동로즈빌","addr":"867-6","query":"울산 성안동 867-6","lat":35.5730070062338,"lng":129.30642430051,"road":"울산 중구 함월1길 82","region":"울산 중구 성안동 867-6","building":"대동로즈빌","method":"address"},"31110|성안동|대동뷰티파크|871-13":{"city_code":"31110","dong":"성안동","name":"대동뷰티파크","addr":"871-13","query":"울산 성안동 871-13","lat":35.5736403418441,"lng":129.308241506434,"road":"울산 중구 함월10길 20","region":"울산 중구 성안동 871-13","building":"대동뷰티파크","method":"address"},"31110|성안동|대신드림빌|490-3":{"city_code":"31110","dong":"성안동","name":"대신드림빌","addr":"490-3","query":"울산 성안동 490-3","lat":35.5780672390726,"lng":129.319501690452,"road":"울산 중구 성안8길 22","region":"울산 중구 성안동 490-3","building":"대신드림빌","method":"address"},"31110|성안동|대신리치빌|501-1":{"city_code":"31110","dong":"성안동","name":"대신리치빌","addr":"501-1","query":"울산 성안동 501-1","lat":35.5756540895084,"lng":129.320069460005,"road":"울산 중구 함월로 142","region":"울산 중구 성안동 501-1","building":"대신리치빌","method":"address"},"31110|성안동|대신빌|495-2":{"city_code":"31110","dong":"성안동","name":"대신빌","addr":"495-2","query":"울산 성안동 495-2","lat":35.5758950768544,"lng":129.321138417097,"road":"울산 중구 백양로 148","region":"울산 중구 성안동 495-2","building":"대신하이츠","method":"address"},"31110|성안동|대신센츄럴|870-2":{"city_code":"31110","dong":"성안동","name":"대신센츄럴","addr":"870-2","query":"울산 성안동 870-2","lat":35.5740759706076,"lng":129.307438855916,"road":"울산 중구 함월11길 17","region":"울산 중구 성안동 870-2","building":"대신센츄럴","method":"address"},"31110|성안동|대신스카이|796-1":{"city_code":"31110","dong":"성안동","name":"대신스카이","addr":"796-1","query":"울산 성안동 796-1","lat":35.5765136487511,"lng":129.313136522647,"road":"울산 중구 함월14길 26","region":"울산 중구 성안동 796-1","building":"대신스카이","method":"address"},"31110|성안동|대신에버빌|835-11":{"city_code":"31110","dong":"성안동","name":"대신에버빌","addr":"835-11","query":"울산 성안동 835-11","lat":35.5733275302529,"lng":129.310472608569,"road":"울산 중구 함월9길 16","region":"울산 중구 성안동 835-11","building":"대신에버빌","method":"address"},"31110|성안동|대신파래스|499-1":{"city_code":"31110","dong":"성안동","name":"대신파래스","addr":"499-1","query":"울산 성안동 499-1","lat":35.5750618699509,"lng":129.321428365909,"road":"울산 중구 성안15길 10","region":"울산 중구 성안동 499-1","building":"대신파래스","method":"address"},"31110|성안동|대신파인힐|391-7":{"city_code":"31110","dong":"성안동","name":"대신파인힐","addr":"391-7","query":"울산 성안동 391-7","lat":35.5765838409325,"lng":129.316316314141,"road":"울산 중구 함월13길 35","region":"울산 중구 성안동 391-7","building":"대신파인힐","method":"address"},"31110|성안동|대협팔래스|792-3":{"city_code":"31110","dong":"성안동","name":"대협팔래스","addr":"792-3","query":"울산 성안동 792-3","lat":35.5779437415912,"lng":129.311670587289,"road":"울산 중구 함월로 46","region":"울산 중구 성안동 792-3","building":"대협 팔래스","method":"address"},"31110|성안동|대호하이빌12차|505-5":{"city_code":"31110","dong":"성안동","name":"대호하이빌12차","addr":"505-5","query":"울산 성안동 505-5","lat":35.5750873664229,"lng":129.3174688763,"road":"울산 중구 성안3길 28","region":"울산 중구 성안동 505-5","building":"대호하이빌12차","method":"address"},"31110|성안동|대호하이빌13차|508-4":{"city_code":"31110","dong":"성안동","name":"대호하이빌13차","addr":"508-4","query":"울산 성안동 508-4","lat":35.5745601483025,"lng":129.31774573219,"road":"울산 중구 성안6길 16","region":"울산 중구 성안동 508-4","building":"대호하이빌13차","method":"address"},"31110|성안동|대호하이빌14차|507-21":{"city_code":"31110","dong":"성안동","name":"대호하이빌14차","addr":"507-21","query":"울산 성안동 507-21","lat":35.5743717613385,"lng":129.318629572832,"road":"울산 중구 성안5길 33","region":"울산 중구 성안동 507-21","building":"대호하이빌14차","method":"address"},"31110|성안동|데시앙|791-6":{"city_code":"31110","dong":"성안동","name":"데시앙","addr":"791-6","query":"울산 성안동 791-6","lat":35.5783502355543,"lng":129.311044543058,"road":"울산 중구 함월16길 46","region":"울산 중구 성안동 791-6","building":"데시앙","method":"address"},"31110|성안동|도원오케이빌|404-7":{"city_code":"31110","dong":"성안동","name":"도원오케이빌","addr":"404-7","query":"울산 성안동 404-7","lat":35.5804024179245,"lng":129.321298095672,"road":"울산 중구 성안로 242","region":"울산 중구 성안동 404-7","building":"도원OK빌","method":"address"},"31110|성안동|동남하이빌|386-13":{"city_code":"31110","dong":"성안동","name":"동남하이빌","addr":"386-13","query":"울산 성안동 386-13","lat":35.5782054328208,"lng":129.317419547926,"road":"울산 중구 함월20길 11","region":"울산 중구 성안동 386-13","building":"동남하이빌","method":"address"},"31110|성안동|동남하이빌2차|396-1":{"city_code":"31110","dong":"성안동","name":"동남하이빌2차","addr":"396-1","query":"울산 성안동 396-1","lat":35.5750544668854,"lng":129.315637094025,"road":"울산 중구 성안로 161-1","region":"울산 중구 성안동 396-1","building":"동남하이빌2차","method":"address"},"31110|성안동|동남하이빌3차|386-11":{"city_code":"31110","dong":"성안동","name":"동남하이빌3차","addr":"386-11","query":"울산 성안동 386-11","lat":35.5779391410198,"lng":129.317238378871,"road":"울산 중구 함월20길 7","region":"울산 중구 성안동 386-11","building":"동남하이빌3차","method":"address"},"31110|성안동|라인에이미|492-1":{"city_code":"31110","dong":"성안동","name":"라인에이미","addr":"492-1","query":"울산 성안동 492-1","lat":35.5774987460947,"lng":129.319273195112,"road":"울산 중구 성안8길 14","region":"울산 중구 성안동 492-1","building":"라인에이미아파트","method":"address"},"31110|성안동|로얄팰리스|372-7":{"city_code":"31110","dong":"성안동","name":"로얄팰리스","addr":"372-7","query":"울산 성안동 372-7","lat":35.580576673851,"lng":129.31923998944,"road":"울산 중구 함월1길 310-4","region":"울산 중구 성안동 372-7","building":"로얄팰리스","method":"address"},"31110|성안동|루미나리에|503-11":{"city_code":"31110","dong":"성안동","name":"루미나리에","addr":"503-11","query":"울산 성안동 503-11","lat":35.5757766805927,"lng":129.31895309063,"road":"울산 중구 성안7길 23","region":"울산 중구 성안동 503-11","building":"루미나리에","method":"address"},"31110|성안동|메트로힐|834-2":{"city_code":"31110","dong":"성안동","name":"메트로힐","addr":"834-2","query":"울산 성안동 834-2","lat":35.5733491936527,"lng":129.310921666103,"road":"울산 중구 함월9길 15","region":"울산 중구 성안동 834-2","building":"메트로힐","method":"address"},"31110|성안동|베네치아3차|372-6":{"city_code":"31110","dong":"성안동","name":"베네치아3차","addr":"372-6","query":"울산 성안동 372-6","lat":35.5803733982833,"lng":129.31908070057,"road":"울산 중구 함월20길 43","region":"울산 중구 성안동 372-6","building":"","method":"address"},"31110|성안동|베네치아4차|809-1":{"city_code":"31110","dong":"성안동","name":"베네치아4차","addr":"809-1","query":"울산 성안동 809-1","lat":35.5758730574683,"lng":129.310926474357,"road":"울산 중구 함월17길 38","region":"울산 중구 성안동 809-1","building":"베네치아4차","method":"address"},"31110|성안동|베네치아5차|809-4":{"city_code":"31110","dong":"성안동","name":"베네치아5차","addr":"809-4","query":"울산 성안동 809-4","lat":35.5755880209825,"lng":129.310744903931,"road":"울산 중구 함월17길 36","region":"울산 중구 성안동 809-4","building":"베네치아5차","method":"address"},"31110|성안동|베네치아6차|851-20":{"city_code":"31110","dong":"성안동","name":"베네치아6차","addr":"851-20","query":"울산 성안동 851-20","lat":35.5743004894334,"lng":129.310049915475,"road":"울산 중구 함월6길 46","region":"울산 중구 성안동 851-20","building":"베네치아 6차","method":"address"},"31110|성안동|벽산e빌리지|371-2":{"city_code":"31110","dong":"성안동","name":"벽산e빌리지","addr":"371-2","query":"울산 성안동 371-2","lat":35.5798586470881,"lng":129.31745936618,"road":"울산 중구 함월22길 24","region":"울산 중구 성안동 371-2","building":"벽산이빌리지","method":"address"},"31110|성안동|부명아트빌|507-5":{"city_code":"31110","dong":"성안동","name":"부명아트빌","addr":"507-5","query":"울산 성안동 507-5","lat":35.5745989982855,"lng":129.319182503863,"road":"울산 중구 성안6길 32","region":"울산 중구 성안동 507-5","building":"부명아트빌","method":"address"},"31110|성안동|빌화이트|790-6":{"city_code":"31110","dong":"성안동","name":"빌화이트","addr":"790-6","query":"울산 성안동 790-6","lat":35.5788324677876,"lng":129.310608393561,"road":"울산 중구 함월1길 222","region":"울산 중구 성안동 790-6","building":"빌화이트","method":"address"},"31110|성안동|삼대미소가빌라트|801-6":{"city_code":"31110","dong":"성안동","name":"삼대미소가빌라트","addr":"801-6","query":"울산 성안동 801-6","lat":35.5773376349694,"lng":129.30965793493,"road":"울산 중구 함월16길 29","region":"울산 중구 성안동 801-6","building":"삼대미소가 빌라트","method":"address"},"31110|성안동|선재아트빌|867-7":{"city_code":"31110","dong":"성안동","name":"선재아트빌","addr":"867-7","query":"울산 성안동 867-7","lat":35.5731396790632,"lng":129.306187013993,"road":"울산 중구 함월1길 84","region":"울산 중구 성안동 867-7","building":"선재아트빌","method":"address"},"31110|성안동|성림스카이빌|501-9":{"city_code":"31110","dong":"성안동","name":"성림스카이빌","addr":"501-9","query":"울산 성안동 501-9","lat":35.5750949854997,"lng":129.320031932824,"road":"울산 중구 백양로 137","region":"울산 중구 성안동 501-9","building":"성림스카이빌","method":"address"},"31110|성안동|성림아이빌|479-4":{"city_code":"31110","dong":"성안동","name":"성림아이빌","addr":"479-4","query":"울산 성안동 479-4","lat":35.5787320214987,"lng":129.320003303179,"road":"울산 중구 성안8길 34","region":"울산 중구 성안동 479-4","building":"성림아이빌","method":"address"},"31110|성안동|성모빌라트|808-1":{"city_code":"31110","dong":"성안동","name":"성모빌라트","addr":"808-1","query":"울산 성안동 808-1","lat":35.576135185401,"lng":129.310329271688,"road":"울산 중구 함월로 14","region":"울산 중구 성안동 808-1","building":"성모빌라트","method":"address"},"31110|성안동|성모이소빌|857-3":{"city_code":"31110","dong":"성안동","name":"성모이소빌","addr":"857-3","query":"울산 성안동 857-3","lat":35.5758515519743,"lng":129.306396584153,"road":"울산 중구 함월5길 32","region":"울산 중구 성안동 857-3","building":"성모이소빌","method":"address"},"31110|성안동|성벽한누리|396-5":{"city_code":"31110","dong":"성안동","name":"성벽한누리","addr":"396-5","query":"울산 성안동 396-5","lat":35.5744100972372,"lng":129.315188186364,"road":"울산 중구 함월13길 8","region":"울산 중구 성안동 396-5","building":"성벽 한누리 아파트","method":"address"},"31110|성안동|성안그린빌A|861-7":{"city_code":"31110","dong":"성안동","name":"성안그린빌A","addr":"861-7","query":"울산 성안동 861-7","lat":35.5749448731967,"lng":129.304759664617,"road":"울산 중구 함월12길 33","region":"울산 중구 성안동 861-7","building":"성안그린빌","method":"address"},"31110|성안동|성안그린빌B|860-3":{"city_code":"31110","dong":"성안동","name":"성안그린빌B","addr":"860-3","query":"울산 성안동 860-3","lat":35.5755067613478,"lng":129.304600183486,"road":"울산 중구 함월3길 33","region":"울산 중구 성안동 860-3","building":"성안그린빌","method":"address"},"31110|성안동|성안금호타운|858-1":{"city_code":"31110","dong":"성안동","name":"성안금호타운","addr":"858-1","query":"울산 성안동 858-1","lat":35.5758889208009,"lng":129.304716906419,"road":"울산 중구 함월5길 35","region":"울산 중구 성안동 858-1","building":"성안금호타운","method":"address"},"31110|성안동|성안센트럴빌|806-6":{"city_code":"31110","dong":"성안동","name":"성안센트럴빌","addr":"806-6","query":"울산 성안동 806-6","lat":35.5763369578786,"lng":129.309312761588,"road":"울산 중구 함월18길 12-6","region":"울산 중구 성안동 806-6","building":"성안센트럴빌","method":"address"},"31110|성안동|성안시티빌101동|386-4":{"city_code":"31110","dong":"성안동","name":"성안시티빌101동","addr":"386-4","query":"울산 성안동 386-4","lat":35.5780444285507,"lng":129.3169737264,"road":"울산 중구 함월22길 11-5","region":"울산 중구 성안동 386-4","building":"성안시티빌 101","method":"address"},"31110|성안동|성안시티빌102동|386-5":{"city_code":"31110","dong":"성안동","name":"성안시티빌102동","addr":"386-5","query":"울산 성안동 386-5","lat":35.5777881735006,"lng":129.31679538517,"road":"울산 중구 함월22길 11-7","region":"울산 중구 성안동 386-5","building":"성안시티빌 102","method":"address"},"31110|성안동|성안에델하임1차|393-12":{"city_code":"31110","dong":"성안동","name":"성안에델하임1차","addr":"393-12","query":"울산 성안동 393-12","lat":35.5758438902545,"lng":129.316494518559,"road":"울산 중구 성안로 173","region":"울산 중구 성안동 393-12","building":"성안에델하임1차","method":"address"},"31110|성안동|성안에일린|859-15":{"city_code":"31110","dong":"성안동","name":"성안에일린","addr":"859-15","query":"울산 성안동 859-15","lat":35.5752711807393,"lng":129.302745712949,"road":"울산 중구 함월1길 120-5","region":"울산 중구 성안동 859-15","building":"성안에일린","method":"address"},"31110|성안동|성안에일린2차|509-3":{"city_code":"31110","dong":"성안동","name":"성안에일린2차","addr":"509-3","query":"울산 성안동 509-3","lat":35.5740437654021,"lng":129.3172438098,"road":"울산 중구 성안5길 18","region":"울산 중구 성안동 509-3","building":"성안에일린 2차","method":"address"},"31110|성안동|성안에일린3차|400-5":{"city_code":"31110","dong":"성안동","name":"성안에일린3차","addr":"400-5","query":"울산 성안동 400-5","lat":35.5760908766963,"lng":129.317295409613,"road":"울산 중구 성안로 178","region":"울산 중구 성안동 400-5","building":"성안 에일린3차","method":"address"},"31110|성안동|성안에일린6차|393-10":{"city_code":"31110","dong":"성안동","name":"성안에일린6차","addr":"393-10","query":"울산 성안동 393-10","lat":35.5756616048748,"lng":129.316368056511,"road":"울산 중구 성안로 171","region":"울산 중구 성안동 393-10","building":"","method":"address"},"31110|성안동|성안에일린8차|385-14":{"city_code":"31110","dong":"성안동","name":"성안에일린8차","addr":"385-14","query":"울산 성안동 385-14","lat":35.5778451792437,"lng":129.317827624427,"road":"울산 중구 성안로 197","region":"울산 중구 성안동 385-14","building":"","method":"address"},"31110|성안동|성안에일린9차|399-2":{"city_code":"31110","dong":"성안동","name":"성안에일린9차","addr":"399-2","query":"울산 성안동 399-2","lat":35.575454240805,"lng":129.316852330243,"road":"울산 중구 성안로 170","region":"울산 중구 성안동 399-2","building":"","method":"address"},"31110|성안동|성안청구타운|370-1":{"city_code":"31110","dong":"성안동","name":"성안청구타운","addr":"370-1","query":"울산 성안동 370-1","lat":35.5795772534521,"lng":129.315612707683,"road":"울산 중구 함월22길 25","region":"울산 중구 성안동 370-1","building":"성안청구타운","method":"address"},"31110|성안동|성안하이얀빌|388-3":{"city_code":"31110","dong":"성안동","name":"성안하이얀빌","addr":"388-3","query":"울산 성안동 388-3","lat":35.5783026586994,"lng":129.315652766238,"road":"울산 중구 함월21길 4","region":"울산 중구 성안동 388-3","building":"성안 하이얀빌","method":"address"},"31110|성안동|성안하이페리온|399-3":{"city_code":"31110","dong":"성안동","name":"성안하이페리온","addr":"399-3","query":"울산 성안동 399-3","lat":35.5752682222021,"lng":129.316723223801,"road":"울산 중구 성안로 168","region":"울산 중구 성안동 399-3","building":"","method":"address"},"31110|성안동|세영파크홈3차|799-9":{"city_code":"31110","dong":"성안동","name":"세영파크홈3차","addr":"799-9","query":"울산 성안동 799-9","lat":35.576890299127,"lng":129.310966848038,"road":"울산 중구 함월17길 47","region":"울산 중구 성안동 799-9","building":"세영 파크홈 3차","method":"address"},"31110|성안동|솔마실빌라트|857-1":{"city_code":"31110","dong":"성안동","name":"솔마실빌라트","addr":"857-1","query":"울산 성안동 857-1","lat":35.5762297214162,"lng":129.306486290224,"road":"울산 중구 함월6길 83","region":"울산 중구 성안동 857-1","building":"솔마실빌라트","method":"address"},"31110|성안동|승지2차센트럴빌|864-9":{"city_code":"31110","dong":"성안동","name":"승지2차센트럴빌","addr":"864-9","query":"울산 성안동 864-9","lat":35.5742228894898,"lng":129.304258437745,"road":"울산 중구 함월5길 4","region":"울산 중구 성안동 864-9","building":"승지2차센트럴빌","method":"address"},"31110|성안동|신기아트빌리지|482-9":{"city_code":"31110","dong":"성안동","name":"신기아트빌리지","addr":"482-9","query":"울산 성안동 482-9","lat":35.5775371108518,"lng":129.322609166613,"road":"울산 중구 성안14길 45","region":"울산 중구 성안동 482-9","building":"신기 아트빌리지","method":"address"},"31110|성안동|신덕빌라|868-1":{"city_code":"31110","dong":"성안동","name":"신덕빌라","addr":"868-1","query":"울산 성안동 868-1","lat":35.5730328280425,"lng":129.306826381584,"road":"울산 중구 함월2길 35","region":"울산 중구 성안동 868-1","building":"신덕빌라","method":"address"},"31110|성안동|신덕하이빌|794-5":{"city_code":"31110","dong":"성안동","name":"신덕하이빌","addr":"794-5","query":"울산 성안동 794-5","lat":35.5772752457457,"lng":129.312816187751,"road":"울산 중구 함월14길 35","region":"울산 중구 성안동 794-5","building":"신덕하이빌","method":"address"},"31110|성안동|신성그린빌|870-13":{"city_code":"31110","dong":"성안동","name":"신성그린빌","addr":"870-13","query":"울산 성안동 870-13","lat":35.5746522756061,"lng":129.307877033815,"road":"울산 중구 함월11길 11","region":"울산 중구 성안동 870-13","building":"신성그린빌","method":"address"},"31110|성안동|신승화이트락|405-4":{"city_code":"31110","dong":"성안동","name":"신승화이트락","addr":"405-4","query":"울산 성안동 405-4","lat":35.5804565620601,"lng":129.322429997959,"road":"울산 중구 성안로 254","region":"울산 중구 성안동 405-4","building":"신승화이트락","method":"address"},"31110|성안동|신안골든빌|786-1":{"city_code":"31110","dong":"성안동","name":"신안골든빌","addr":"786-1","query":"울산 성안동 786-1","lat":35.5792327585137,"lng":129.313094963154,"road":"울산 중구 함월로 58","region":"울산 중구 성안동 786-1","building":"신안골든빌","method":"address"},"31110|성안동|신청빌리지|481-4":{"city_code":"31110","dong":"성안동","name":"신청빌리지","addr":"481-4","query":"울산 성안동 481-4","lat":35.5779942242659,"lng":129.32172523005,"road":"울산 중구 성안13길 4","region":"울산 중구 성안동 481-4","building":"신청빌리지","method":"address"},"31110|성안동|신한다솜|832-6":{"city_code":"31110","dong":"성안동","name":"신한다솜","addr":"832-6","query":"울산 성안동 832-6","lat":35.5738876454153,"lng":129.311627331964,"road":"울산 중구 함월8길 6","region":"울산 중구 성안동 832-6","building":"성안디아채아파트","method":"address"},"31110|성안동|아가바움|830-9":{"city_code":"31110","dong":"성안동","name":"아가바움","addr":"830-9","query":"울산 성안동 830-9","lat":35.5731376642522,"lng":129.312680648216,"road":"울산 중구 함월6길 17","region":"울산 중구 성안동 830-9","building":"아가바움","method":"address"},"31110|성안동|아느칸빌|397-9":{"city_code":"31110","dong":"성안동","name":"아느칸빌","addr":"397-9","query":"울산 성안동 397-9","lat":35.5737659502312,"lng":129.316363856457,"road":"울산 중구 백양로 91","region":"울산 중구 성안동 397-9","building":"아느칸빌","method":"address"},"31110|성안동|아드리아|481-8":{"city_code":"31110","dong":"성안동","name":"아드리아","addr":"481-8","query":"울산 성안동 481-8","lat":35.5779413323253,"lng":129.322015102336,"road":"울산 중구 백양로 171","region":"울산 중구 성안동 481-8","building":"아드리아","method":"address"},"31110|성안동|아드리아2차|794-4":{"city_code":"31110","dong":"성안동","name":"아드리아2차","addr":"794-4","query":"울산 성안동 794-4","lat":35.5773403008984,"lng":129.312492359401,"road":"울산 중구 함월15길 34","region":"울산 중구 성안동 794-4","building":"아드리안 2차","method":"address"},"31110|성안동|아드리아2차|405-5":{"city_code":"31110","dong":"성안동","name":"아드리아2차","addr":"405-5","query":"울산 성안동 405-5","lat":35.5804289770989,"lng":129.322753147679,"road":"울산 중구 성안로 256","region":"울산 중구 성안동 405-5","building":"아드리아2차","method":"address"},"31110|성안동|아드리아3차|405-12":{"city_code":"31110","dong":"성안동","name":"아드리아3차","addr":"405-12","query":"울산 성안동 405-12","lat":35.5804987718502,"lng":129.323044807994,"road":"울산 중구 성안로 258","region":"울산 중구 성안동 405-12","building":"아드리아3차","method":"address"},"31110|성안동|아드리아4차|856-1":{"city_code":"31110","dong":"성안동","name":"아드리아4차","addr":"856-1","query":"울산 성안동 856-1","lat":35.5762661120709,"lng":129.306976373741,"road":"울산 중구 백양로 2","region":"울산 중구 성안동 856-1","building":"아드리아4차","method":"address"},"31110|성안동|아드리안|794-11":{"city_code":"31110","dong":"성안동","name":"아드리안","addr":"794-11","query":"울산 성안동 794-11","lat":35.5771353262501,"lng":129.312392935136,"road":"울산 중구 함월15길 32","region":"울산 중구 성안동 794-11","building":"아드리안","method":"address"},"31110|성안동|아이리스|798-8":{"city_code":"31110","dong":"성안동","name":"아이리스","addr":"798-8","query":"울산 성안동 798-8","lat":35.5764894248963,"lng":129.311492566048,"road":"울산 중구 함월15길 21","region":"울산 중구 성안동 798-8","building":"","method":"address"},"31110|성안동|아이리스2차|400-4":{"city_code":"31110","dong":"성안동","name":"아이리스2차","addr":"400-4","query":"울산 성안동 400-4","lat":35.5763754126807,"lng":129.317493092616,"road":"울산 중구 성안로 182","region":"울산 중구 성안동 400-4","building":"아이리스2차","method":"address"},"31110|성안동|아크로골든빌|388-6":{"city_code":"31110","dong":"성안동","name":"아크로골든빌","addr":"388-6","query":"울산 성안동 388-6","lat":35.5782471526213,"lng":129.315934075975,"road":"울산 중구 함월21길 14-8","region":"울산 중구 성안동 388-6","building":"아크로골든빌","method":"address"},"31110|성안동|아크로골든빌2차|793-1":{"city_code":"31110","dong":"성안동","name":"아크로골든빌2차","addr":"793-1","query":"울산 성안동 793-1","lat":35.5781225651221,"lng":129.312433127851,"road":"울산 중구 함월17길 66","region":"울산 중구 성안동 793-1","building":"아크로골든빌아파트","method":"address"},"31110|성안동|애니원|481-2":{"city_code":"31110","dong":"성안동","name":"애니원","addr":"481-2","query":"울산 성안동 481-2","lat":35.5783883777194,"lng":129.321999445695,"road":"울산 중구 성안13길 10","region":"울산 중구 성안동 481-2","building":"애니원 아파트","method":"address"},"31110|성안동|에버그린홈|800-2":{"city_code":"31110","dong":"성안동","name":"에버그린홈","addr":"800-2","query":"울산 성안동 800-2","lat":35.5776086727488,"lng":129.310433372569,"road":"울산 중구 함월16길 34","region":"울산 중구 성안동 800-2","building":"은광에버그린","method":"address"},"31110|성안동|에이스원빌|386-2":{"city_code":"31110","dong":"성안동","name":"에이스원빌","addr":"386-2","query":"울산 성안동 386-2","lat":35.5783659319279,"lng":129.317198288019,"road":"울산 중구 함월22길 11-3","region":"울산 중구 성안동 386-2","building":"에이스원빌","method":"address"},"31110|성안동|에일린5차B동|851-19":{"city_code":"31110","dong":"성안동","name":"에일린5차B동","addr":"851-19","query":"울산 성안동 851-19","lat":35.5744701968151,"lng":129.310381581339,"road":"울산 중구 백양로 38","region":"울산 중구 성안동 851-19","building":"에일린5차","method":"address"},"31110|성안동|영진다정채|800-4":{"city_code":"31110","dong":"성안동","name":"영진다정채","addr":"800-4","query":"울산 성안동 800-4","lat":35.5772214823202,"lng":129.310095334889,"road":"울산 중구 함월16길 30","region":"울산 중구 성안동 800-4","building":"영진다정채","method":"address"},"31110|성안동|예영파크빌|507-2":{"city_code":"31110","dong":"성안동","name":"예영파크빌","addr":"507-2","query":"울산 성안동 507-2","lat":35.57458745533,"lng":129.318593109339,"road":"울산 중구 성안6길 26","region":"울산 중구 성안동 507-2","building":"예영파크빌","method":"address"},"31110|성안동|오블리제|863-9":{"city_code":"31110","dong":"성안동","name":"오블리제","addr":"863-9","query":"울산 성안동 863-9","lat":35.5741772092135,"lng":129.305713622596,"road":"울산 중구 함월3길 12","region":"울산 중구 성안동 863-9","building":"오블리제","method":"address"},"31110|성안동|웨일즈빌라트4|800-7":{"city_code":"31110","dong":"성안동","name":"웨일즈빌라트4","addr":"800-7","query":"울산 성안동 800-7","lat":35.5771009466544,"lng":129.310427607547,"road":"울산 중구 함월로 25","region":"울산 중구 성안동 800-7","building":"성안 웨일즈빌라트 4차","method":"address"},"31110|성안동|일원푸오레|482-4":{"city_code":"31110","dong":"성안동","name":"일원푸오레","addr":"482-4","query":"울산 성안동 482-4","lat":35.5776526722598,"lng":129.322359047545,"road":"울산 중구 백양로 172","region":"울산 중구 성안동 482-4","building":"일원 푸오레","method":"address"},"31110|성안동|장한리치빌4차|502-9":{"city_code":"31110","dong":"성안동","name":"장한리치빌4차","addr":"502-9","query":"울산 성안동 502-9","lat":35.5749403004311,"lng":129.319370687356,"road":"울산 중구 성안6길 35-1","region":"울산 중구 성안동 502-9","building":"장한리치빌4차(101동)","method":"address"},"31110|성안동|장한리치빌4차(101동)|502-9":{"city_code":"31110","dong":"성안동","name":"장한리치빌4차(101동)","addr":"502-9","query":"울산 성안동 502-9","lat":35.5749403004311,"lng":129.319370687356,"road":"울산 중구 성안6길 35-1","region":"울산 중구 성안동 502-9","building":"장한리치빌4차(101동)","method":"address"},"31110|성안동|장한리치빌4차(102동)|502-9":{"city_code":"31110","dong":"성안동","name":"장한리치빌4차(102동)","addr":"502-9","query":"울산 성안동 502-9","lat":35.5749403004311,"lng":129.319370687356,"road":"울산 중구 성안6길 35-1","region":"울산 중구 성안동 502-9","building":"장한리치빌4차(101동)","method":"address"},"31110|성안동|장한리치빌5차|863-4":{"city_code":"31110","dong":"성안동","name":"장한리치빌5차","addr":"863-4","query":"울산 성안동 863-4","lat":35.5743477976333,"lng":129.305943395931,"road":"울산 중구 함월2길 53","region":"울산 중구 성안동 863-4","building":"장한리치빌5차","method":"address"},"31110|성안동|창진아트빌2지구|502-6":{"city_code":"31110","dong":"성안동","name":"창진아트빌2지구","addr":"502-6","query":"울산 성안동 502-6","lat":35.5750609639375,"lng":129.319075168208,"road":"울산 중구 성안7길 18-3","region":"울산 중구 성안동 502-6","building":"창진아트빌","method":"address"},"31110|성안동|창진토파즈빌2|868-4":{"city_code":"31110","dong":"성안동","name":"창진토파즈빌2","addr":"868-4","query":"울산 성안동 868-4","lat":35.5728239485655,"lng":129.307222391362,"road":"울산 중구 함월2길 29","region":"울산 중구 성안동 868-4","building":"창진토파즈빌 2차","method":"address"},"31110|성안동|창진토파즈빌4차|793-2":{"city_code":"31110","dong":"성안동","name":"창진토파즈빌4차","addr":"793-2","query":"울산 성안동 793-2","lat":35.5778473285984,"lng":129.312187085149,"road":"울산 중구 함월17길 64","region":"울산 중구 성안동 793-2","building":"창진토파즈빌","method":"address"},"31110|성안동|창진토파즈빌5차|799-8":{"city_code":"31110","dong":"성안동","name":"창진토파즈빌5차","addr":"799-8","query":"울산 성안동 799-8","lat":35.5770724908611,"lng":129.311225319446,"road":"울산 중구 함월17길 49","region":"울산 중구 성안동 799-8","building":"창진토파즈빌5차","method":"address"},"31110|성안동|천운하이빌|870-15":{"city_code":"31110","dong":"성안동","name":"천운하이빌","addr":"870-15","query":"울산 성안동 870-15","lat":35.5743024436832,"lng":129.307611010216,"road":"울산 중구 함월11길 15","region":"울산 중구 성안동 870-15","building":"천운하이빌","method":"address"},"31110|성안동|청보해피니스|800-5":{"city_code":"31110","dong":"성안동","name":"청보해피니스","addr":"800-5","query":"울산 성안동 800-5","lat":35.5769994425933,"lng":129.309913036962,"road":"울산 중구 함월16길 28","region":"울산 중구 성안동 800-5","building":"청보해피니스","method":"address"},"31110|성안동|청산아르미|872-8":{"city_code":"31110","dong":"성안동","name":"청산아르미","addr":"872-8","query":"울산 성안동 872-8","lat":35.5738687983426,"lng":129.309316330458,"road":"울산 중구 함월6길 45-6","region":"울산 중구 성안동 872-8","building":"청산 아르미","method":"address"},"31110|성안동|청우하이빌|788-1":{"city_code":"31110","dong":"성안동","name":"청우하이빌","addr":"788-1","query":"울산 성안동 788-1","lat":35.5794014997321,"lng":129.312223285053,"road":"울산 중구 함월16길 68","region":"울산 중구 성안동 788-1","building":"청우하이빌","method":"address"},"31110|성안동|청풍그린빌|397-2":{"city_code":"31110","dong":"성안동","name":"청풍그린빌","addr":"397-2","query":"울산 성안동 397-2","lat":35.5740212887167,"lng":129.31617279972,"road":"울산 중구 성안5길 6","region":"울산 중구 성안동 397-2","building":"청풍그린빌","method":"address"},"31110|성안동|청풍리버빌|479-1":{"city_code":"31110","dong":"성안동","name":"청풍리버빌","addr":"479-1","query":"울산 성안동 479-1","lat":35.579276509069,"lng":129.320402075153,"road":"울산 중구 성안8길 42","region":"울산 중구 성안동 479-1","building":"청풍리버빌","method":"address"},"31110|성안동|캐슬타운하우스|484-2":{"city_code":"31110","dong":"성안동","name":"캐슬타운하우스","addr":"484-2","query":"울산 성안동 484-2","lat":35.5771415619727,"lng":129.323472923533,"road":"울산 중구 성안15길 46","region":"울산 중구 성안동 484-2","building":"캐슬타운하우스","method":"address"},"31110|성안동|클래시움|791-18":{"city_code":"31110","dong":"성안동","name":"클래시움","addr":"791-18","query":"울산 성안동 791-18","lat":35.5779511215813,"lng":129.310731634727,"road":"울산 중구 함월16길 42","region":"울산 중구 성안동 791-18","building":"클래시움","method":"address"},"31110|성안동|태경|790-11":{"city_code":"31110","dong":"성안동","name":"태경","addr":"790-11","query":"울산 성안동 790-11","lat":35.5789680876258,"lng":129.311087008027,"road":"울산 중구 함월16길 53","region":"울산 중구 성안동 790-11","building":"태경아파트","method":"address"},"31110|성안동|태인제이드빌|871-15":{"city_code":"31110","dong":"성안동","name":"태인제이드빌","addr":"871-15","query":"울산 성안동 871-15","lat":35.5740345413932,"lng":129.308505605578,"road":"울산 중구 함월10길 14","region":"울산 중구 성안동 871-15","building":"태인제이드빌","method":"address"},"31110|성안동|펠리스뷰|505-6":{"city_code":"31110","dong":"성안동","name":"펠리스뷰","addr":"505-6","query":"울산 성안동 505-6","lat":35.5748790556253,"lng":129.317271408055,"road":"울산 중구 성안3길 24","region":"울산 중구 성안동 505-6","building":"펠리스뷰","method":"address"},"31110|성안동|포인트힐|490-6":{"city_code":"31110","dong":"성안동","name":"포인트힐","addr":"490-6","query":"울산 성안동 490-6","lat":35.5779124521947,"lng":129.319744286293,"road":"울산 중구 성안10길 13","region":"울산 중구 성안동 490-6","building":"포인트 힐","method":"address"},"31110|성안동|플러스빌|851-14":{"city_code":"31110","dong":"성안동","name":"플러스빌","addr":"851-14","query":"울산 성안동 851-14","lat":35.5741575119352,"lng":129.310556341494,"road":"울산 중구 함월6길 40","region":"울산 중구 성안동 851-14","building":"성안동플러스빌","method":"address"},"31110|성안동|하얀빌3차|372-12":{"city_code":"31110","dong":"성안동","name":"하얀빌3차","addr":"372-12","query":"울산 성안동 372-12","lat":35.5807221731948,"lng":129.318815123699,"road":"울산 중구 함월1길 304","region":"울산 중구 성안동 372-12","building":"하얀빌3차","method":"address"},"31110|성안동|하이얀빌2차|869-1":{"city_code":"31110","dong":"성안동","name":"하이얀빌2차","addr":"869-1","query":"울산 성안동 869-1","lat":35.5736619828756,"lng":129.307050449235,"road":"울산 중구 함월11길 21-2","region":"울산 중구 성안동 869-1","building":"하이얀빌2차","method":"address"},"31110|성안동|한동리안느2차|399-9":{"city_code":"31110","dong":"성안동","name":"한동리안느2차","addr":"399-9","query":"울산 성안동 399-9","lat":35.5754034042558,"lng":129.317171814383,"road":"울산 중구 성안3길 31","region":"울산 중구 성안동 399-9","building":"","method":"address"},"31110|성안동|한솔그린빌|382-12":{"city_code":"31110","dong":"성안동","name":"한솔그린빌","addr":"382-12","query":"울산 성안동 382-12","lat":35.5799901315531,"lng":129.319518447956,"road":"울산 중구 성안로 225","region":"울산 중구 성안동 382-12","building":"한솔그린빌","method":"address"},"31110|성안동|한양캐슬아파트|399-11":{"city_code":"31110","dong":"성안동","name":"한양캐슬아파트","addr":"399-11","query":"울산 성안동 399-11","lat":35.5756596344547,"lng":129.317365480945,"road":"울산 중구 성안7길 6","region":"울산 중구 성안동 399-11","building":"한양캐슬 아파트","method":"address"},"31110|성안동|행복플러스|377-4":{"city_code":"31110","dong":"성안동","name":"행복플러스","addr":"377-4","query":"울산 성안동 377-4","lat":35.5814840373281,"lng":129.324069946172,"road":"울산 중구 함월20길 95","region":"울산 중구 성안동 377-4","building":"행복플러스","method":"address"},"31110|성안동|현대명작|382-5":{"city_code":"31110","dong":"성안동","name":"현대명작","addr":"382-5","query":"울산 성안동 382-5","lat":35.5796237543068,"lng":129.318882271388,"road":"울산 중구 함월23길 6","region":"울산 중구 성안동 382-5","building":"현대명작","method":"address"},"31110|성안동|현대싱그런|758":{"city_code":"31110","dong":"성안동","name":"현대싱그런","addr":"758","query":"울산 성안동 758","lat":35.5799142131964,"lng":129.31409985954,"road":"울산 중구 함월로 75","region":"울산 중구 성안동 758","building":"현대싱그런아파트","method":"address"},"31110|성안동|홍재늘안애|397-10":{"city_code":"31110","dong":"성안동","name":"홍재늘안애","addr":"397-10","query":"울산 성안동 397-10","lat":35.5737573421288,"lng":129.315953883236,"road":"울산 중구 백양로 89","region":"울산 중구 성안동 397-10","building":"홍재 늘안애","method":"address"},"31110|성안동|효은하이빌|501-12":{"city_code":"31110","dong":"성안동","name":"효은하이빌","addr":"501-12","query":"울산 성안동 501-12","lat":35.5755425159354,"lng":129.320337338191,"road":"울산 중구 함월로 144","region":"울산 중구 성안동 501-12","building":"효은하이빌","method":"address"},"31110|성안동|효제로즈빌|399-8":{"city_code":"31110","dong":"성안동","name":"효제로즈빌","addr":"399-8","query":"울산 성안동 399-8","lat":35.5751341831996,"lng":129.317002369762,"road":"울산 중구 성안3길 25","region":"울산 중구 성안동 399-8","building":"효제 로즈빌","method":"address"},"31110|성안동|휠그린솔리움|789-5":{"city_code":"31110","dong":"성안동","name":"휠그린솔리움","addr":"789-5","query":"울산 성안동 789-5","lat":35.5794664597389,"lng":129.311387775321,"road":"울산 중구 함월16길 63","region":"울산 중구 성안동 789-5","building":"힐그린솔리움","method":"address"},"31110|성안동|희재베스트빌|871-3":{"city_code":"31110","dong":"성안동","name":"희재베스트빌","addr":"871-3","query":"울산 성안동 871-3","lat":35.5742346925879,"lng":129.308316137263,"road":"울산 중구 함월6길 59-7","region":"울산 중구 성안동 871-3","building":"희재베네스트빌","method":"address"},"31110|성안동|희재아이브|787-7":{"city_code":"31110","dong":"성안동","name":"희재아이브","addr":"787-7","query":"울산 성안동 787-7","lat":35.5787054369131,"lng":129.312269997535,"road":"울산 중구 함월로 50","region":"울산 중구 성안동 787-7","building":"희재아이브","method":"address"},"31110|성안동|힐그린스위트|496-6":{"city_code":"31110","dong":"성안동","name":"힐그린스위트","addr":"496-6","query":"울산 성안동 496-6","lat":35.5753874544712,"lng":129.321763345483,"road":"울산 중구 성안15길 15","region":"울산 중구 성안동 496-6","building":"힐그린스위트","method":"address"},"31110|성안동|힐그린파크|375-1":{"city_code":"31110","dong":"성안동","name":"힐그린파크","addr":"375-1","query":"울산 성안동 375-1","lat":35.5817002324595,"lng":129.322124434164,"road":"울산 중구 함월1길 336","region":"울산 중구 성안동 375-1","building":"힐그린파크","method":"address"},"31110|약사동|극동|599-5":{"city_code":"31110","dong":"약사동","name":"극동","addr":"599-5","query":"울산 약사동 599-5","lat":35.5698973194482,"lng":129.337681916704,"road":"울산 중구 평산3길 6-1","region":"울산 중구 약사동 599-5","building":"극동빌라","method":"address"},"31110|약사동|대하|625-16":{"city_code":"31110","dong":"약사동","name":"대하","addr":"625-16","query":"울산 약사동 625-16","lat":35.5684746117372,"lng":129.341396097294,"road":"울산 중구 곽남길 23","region":"울산 중구 약사동 625-16","building":"대하아파트","method":"address"},"31110|약사동|미소|가-3-14":{"city_code":"31110","dong":"약사동","name":"미소","addr":"가-3-14","query":"울산 약사동 미소","lat":35.5714639271851,"lng":129.336054085147,"road":"울산 중구 평산로 63","region":"울산 중구 약사동 861","building":"미소마을아파트","method":"keyword"},"31110|약사동|삼성래미안|612-38":{"city_code":"31110","dong":"약사동","name":"삼성래미안","addr":"612-38","query":"울산 약사동 612-38","lat":35.5673484848289,"lng":129.339085263091,"road":"울산 중구 약사로 10","region":"울산 중구 약사동 612-38","building":"삼성래미안1차아파트","method":"address"},"31110|약사동|삼성래미안2차2단지|707-48":{"city_code":"31110","dong":"약사동","name":"삼성래미안2차2단지","addr":"707-48","query":"울산 약사동 707-48","lat":35.5696122335367,"lng":129.335846348143,"road":"울산 중구 약사로 40","region":"울산 중구 약사동 707-48","building":"래미안2차","method":"address"},"31110|약사동|삼성래미안2차3단지|707":{"city_code":"31110","dong":"약사동","name":"삼성래미안2차3단지","addr":"707","query":"울산 약사동 707","lat":35.5682154553244,"lng":129.335356388857,"road":"울산 중구 약사로 25","region":"울산 중구 약사동 707","building":"래미안2차","method":"address"},"31110|약사동|삼성래미안2차4단지|707-42":{"city_code":"31110","dong":"약사동","name":"삼성래미안2차4단지","addr":"707-42","query":"울산 약사동 707-42","lat":35.5665314760505,"lng":129.336941061745,"road":"울산 중구 약사로 15","region":"울산 중구 약사동 707-42","building":"래미안2차","method":"address"},"31110|약사동|삼성정밀화학사택-1|666-8":{"city_code":"31110","dong":"약사동","name":"삼성정밀화학사택-1","addr":"666-8","query":"울산 약사동 삼성정밀화학사택-1","error":"not found"},"31110|약사동|삼성정밀화학사택-2|666-13":{"city_code":"31110","dong":"약사동","name":"삼성정밀화학사택-2","addr":"666-13","query":"울산 약사동 삼성정밀화학사택-2","error":"not found"},"31110|약사동|삼성정밀화학사택-3|666-7":{"city_code":"31110","dong":"약사동","name":"삼성정밀화학사택-3","addr":"666-7","query":"울산 약사동 삼성정밀화학사택-3","error":"not found"},"31110|약사동|삼환크리스탈|가-3-1":{"city_code":"31110","dong":"약사동","name":"삼환크리스탈","addr":"가-3-1","query":"울산 약사동 삼환크리스탈","lat":35.57199853145247,"lng":129.3360861563729,"road":"울산 중구 북부순환도로 738","region":"울산 중구 약사동 860-1","building":"삼환크리스탈아파트","method":"keyword"},"31110|약사동|성경|624-4":{"city_code":"31110","dong":"약사동","name":"성경","addr":"624-4","query":"울산 약사동 624-4","lat":35.5684931336235,"lng":129.340711787849,"road":"울산 중구 곽남길 29","region":"울산 중구 약사동 624-4","building":"성경아파트","method":"address"},"31110|약사동|약사아이파크|1101":{"city_code":"31110","dong":"약사동","name":"약사아이파크","addr":"1101","query":"울산 약사동 1101","lat":35.5718167161147,"lng":129.338157013762,"road":"울산 중구 평산로 50","region":"울산 중구 약사동 1101","building":"약사 I-PARK","method":"address"},"31110|약사동|울산약사더샵|1108":{"city_code":"31110","dong":"약사동","name":"울산약사더샵","addr":"1108","query":"울산 약사동 1108","lat":35.5684668715294,"lng":129.337149038317,"road":"울산 중구 약사로 20","region":"울산 중구 약사동 1108","building":"약사더샵","method":"address"},"31110|옥교동|강남빌리지|316-11":{"city_code":"31110","dong":"옥교동","name":"강남빌리지","addr":"316-11","query":"울산 옥교동 316-11","lat":35.5534127390561,"lng":129.324464307125,"road":"울산 중구 옥교2길 8","region":"울산 중구 옥교동 316-11","building":"강남빌리지","method":"address"},"31110|옥교동|리버파크|312-3":{"city_code":"31110","dong":"옥교동","name":"리버파크","addr":"312-3","query":"울산 옥교동 312-3","lat":35.5536015780648,"lng":129.327052086182,"road":"울산 중구 옥교6길 30","region":"울산 중구 옥교동 312-3","building":"옥교동 리버파크 주상복합","method":"address"},"31110|옥교동|청강|310-6":{"city_code":"31110","dong":"옥교동","name":"청강","addr":"310-6","query":"울산 옥교동 310-6","lat":35.5541122082742,"lng":129.325665749172,"road":"울산 중구 옥교3길 19","region":"울산 중구 옥교동 310-6","building":"청강아파트","method":"address"},"31110|옥교동|태화강엑소디움|82-1":{"city_code":"31110","dong":"옥교동","name":"태화강엑소디움","addr":"82-1","query":"울산 옥교동 82-1","lat":35.5531203740691,"lng":129.322640196418,"road":"울산 중구 강북로 123","region":"울산 중구 옥교동 82-1","building":"태화강엑소디움","method":"address"},"31110|옥교동|한동리안느|310-3":{"city_code":"31110","dong":"옥교동","name":"한동리안느","addr":"310-3","query":"울산 옥교동 310-3","lat":35.5543535434654,"lng":129.325911552014,"road":"울산 중구 옥교13길 10","region":"울산 중구 옥교동 310-3","building":"","method":"address"},"31110|우정동|남운아파트1,2동|430-5":{"city_code":"31110","dong":"우정동","name":"남운아파트1,2동","addr":"430-5","query":"울산 우정동 430-5","lat":35.5593180444765,"lng":129.313529204281,"road":"울산 중구 우정1길 1","region":"울산 중구 우정동 430-5","building":"남운아파트","method":"address"},"31110|우정동|남운아파트3,4동|430-4":{"city_code":"31110","dong":"우정동","name":"남운아파트3,4동","addr":"430-4","query":"울산 우정동 430-4","lat":35.5596075640155,"lng":129.313251818984,"road":"울산 중구 우정1길 7","region":"울산 중구 우정동 430-4","building":"남운아파트","method":"address"},"31110|우정동|남운아파트6동|430":{"city_code":"31110","dong":"우정동","name":"남운아파트6동","addr":"430","query":"울산 우정동 430","lat":35.559998081391,"lng":129.313134580964,"road":"울산 중구 우정5길 31","region":"울산 중구 우정동 430","building":"남운아파트","method":"address"},"31110|우정동|덕우|394-35":{"city_code":"31110","dong":"우정동","name":"덕우","addr":"394-35","query":"울산 우정동 394-35","lat":35.5597300137297,"lng":129.309963991555,"road":"울산 중구 우정7길 15","region":"울산 중구 우정동 394-35","building":"덕우아파트","method":"address"},"31110|우정동|동원|284-1":{"city_code":"31110","dong":"우정동","name":"동원","addr":"284-1","query":"울산 우정동 284-1","lat":35.5556509512269,"lng":129.310469453704,"road":"울산 중구 당산3길 39","region":"울산 중구 우정동 284-1","building":"동원맨션","method":"address"},"31110|우정동|드림캐슬|225-11":{"city_code":"31110","dong":"우정동","name":"드림캐슬","addr":"225-11","query":"울산 우정동 225-11","lat":35.5545108734849,"lng":129.311881831081,"road":"울산 중구 당산5길 36","region":"울산 중구 우정동 225-11","building":"드림캐슬","method":"address"},"31110|우정동|마제스타워|172":{"city_code":"31110","dong":"우정동","name":"마제스타워","addr":"172","query":"울산 우정동 172","lat":35.5532834944699,"lng":129.312062575449,"road":"울산 중구 학성로 1","region":"울산 중구 우정동 172","building":"마제스타워 울산","method":"address"},"31110|우정동|백조|472-4":{"city_code":"31110","dong":"우정동","name":"백조","addr":"472-4","query":"울산 우정동 472-4","lat":35.5620175633798,"lng":129.311611871267,"road":"울산 중구 북부순환도로 460","region":"울산 중구 우정동 472-4","building":"백조아파트","method":"address"},"31110|우정동|범태|465-9":{"city_code":"31110","dong":"우정동","name":"범태","addr":"465-9","query":"울산 우정동 465-9","lat":35.5611713909426,"lng":129.312987025127,"road":"울산 중구 우정10길 24","region":"울산 중구 우정동 465-9","building":"범태아파트","method":"address"},"31110|우정동|보람빌라에이동|463-33":{"city_code":"31110","dong":"우정동","name":"보람빌라에이동","addr":"463-33","query":"울산 우정동 463-33","lat":35.5609043377643,"lng":129.31405130074,"road":"울산 중구 우정길 21","region":"울산 중구 우정동 463-33","building":"보람빌라","method":"address"},"31110|우정동|선경1차|385":{"city_code":"31110","dong":"우정동","name":"선경1차","addr":"385","query":"울산 우정동 385","lat":35.5587570778225,"lng":129.309243130088,"road":"울산 중구 우정3길 9","region":"울산 중구 우정동 385","building":"선경아파트","method":"address"},"31110|우정동|선경2차|369-1":{"city_code":"31110","dong":"우정동","name":"선경2차","addr":"369-1","query":"울산 우정동 369-1","lat":35.5576383316694,"lng":129.308635869239,"road":"울산 중구 유곡로 10","region":"울산 중구 우정동 369-1","building":"선경2차아파트","method":"address"},"31110|우정동|성경|394-31":{"city_code":"31110","dong":"우정동","name":"성경","addr":"394-31","query":"울산 우정동 394-31","lat":35.5601432526045,"lng":129.309742411692,"road":"울산 중구 우정8길 13","region":"울산 중구 우정동 394-31","building":"성경아파트","method":"address"},"31110|우정동|신보아트빌|139":{"city_code":"31110","dong":"우정동","name":"신보아트빌","addr":"139","query":"울산 우정동 139","lat":35.5536310699987,"lng":129.313173525718,"road":"울산 중구 당산1길 10","region":"울산 중구 우정동 139","building":"신보아트빌","method":"address"},"31110|우정동|영지아파트|472-4":{"city_code":"31110","dong":"우정동","name":"영지아파트","addr":"472-4","query":"울산 우정동 472-4","lat":35.5620175633798,"lng":129.311611871267,"road":"울산 중구 북부순환도로 460","region":"울산 중구 우정동 472-4","building":"백조아파트","method":"address"},"31110|우정동|우정2|284-8":{"city_code":"31110","dong":"우정동","name":"우정2","addr":"284-8","query":"울산 우정동 284-8","lat":35.5550035319297,"lng":129.310404004075,"road":"울산 중구 당산3길 31","region":"울산 중구 우정동 284-8","building":"우정아파트","method":"address"},"31110|우정동|우정I'PARK|689":{"city_code":"31110","dong":"우정동","name":"우정I'PARK","addr":"689","query":"울산 우정동 689","lat":35.560990495956,"lng":129.308897348334,"road":"울산 중구 우정2길 45","region":"울산 중구 우정동 689","building":"우정 I'PARK","method":"address"},"31110|우정동|우정골든|275-37":{"city_code":"31110","dong":"우정동","name":"우정골든","addr":"275-37","query":"울산 우정동 275-37","lat":35.5544885548647,"lng":129.314077519976,"road":null,"region":"울산 중구 우정동 275-37","building":null,"method":"address"},"31110|우정동|우정베르지움|266-6":{"city_code":"31110","dong":"우정동","name":"우정베르지움","addr":"266-6","query":"울산 우정동 266-6","lat":35.5587052674562,"lng":129.314170331647,"road":"울산 중구 강정길 5","region":"울산 중구 우정동 266-6","building":"","method":"address"},"31110|우정동|우정코아루웰메이드|218-2":{"city_code":"31110","dong":"우정동","name":"우정코아루웰메이드","addr":"218-2","query":"울산 우정동 218-2","lat":35.5542954529105,"lng":129.311133684088,"road":"울산 중구 당산2길 25","region":"울산 중구 우정동 218-2","building":"우정 코아루 웰메이드","method":"address"},"31110|우정동|우정파크맨션|725-3":{"city_code":"31110","dong":"우정동","name":"우정파크맨션","addr":"725-3","query":"울산 우정동 725-3","lat":35.557385331765,"lng":129.306743372817,"road":"울산 중구 평동길 12","region":"울산 중구 우정동 725-3","building":"우정파크맨션","method":"address"},"31110|우정동|우진|385-2":{"city_code":"31110","dong":"우정동","name":"우진","addr":"385-2","query":"울산 우정동 385-2","lat":35.5599702164851,"lng":129.30812638965,"road":"울산 중구 우정9길 39","region":"울산 중구 우정동 385-2","building":"우진아파트","method":"address"},"31110|우정동|유탑유블레스센트럴파크|811":{"city_code":"31110","dong":"우정동","name":"유탑유블레스센트럴파크","addr":"811","query":"울산 우정동 811","lat":35.553474192775,"lng":129.311224662021,"road":"울산 중구 당산2길 3","region":"울산 중구 우정동 811","building":"유탑 유블레스 센트럴파크","method":"address"},"31110|우정동|장한리치빌2|203-4":{"city_code":"31110","dong":"우정동","name":"장한리치빌2","addr":"203-4","query":"울산 우정동 203-4","lat":35.5533601499705,"lng":129.310532252161,"road":"울산 중구 당산3길 4","region":"울산 중구 우정동 203-4","building":"장한리치빌","method":"address"},"31110|우정동|진흥 마제스타워 울산Ⅱ|172-5":{"city_code":"31110","dong":"우정동","name":"진흥 마제스타워 울산Ⅱ","addr":"172-5","query":"울산 우정동 172-5","lat":35.5532814162051,"lng":129.312786051215,"road":"울산 중구 학성로 11","region":"울산 중구 우정동 172-5","building":"진흥 마제스타워 울산Ⅱ","method":"address"},"31110|우정동|청우하이츠|723-1":{"city_code":"31110","dong":"우정동","name":"청우하이츠","addr":"723-1","query":"울산 우정동 723-1","lat":35.5584870614258,"lng":129.306997478208,"road":"울산 중구 평동길 26","region":"울산 중구 우정동 723-1","building":"청우하이츠맨션","method":"address"},"31110|우정동|태광유토빌A동|284-9":{"city_code":"31110","dong":"우정동","name":"태광유토빌A동","addr":"284-9","query":"울산 우정동 284-9","lat":35.555121065951,"lng":129.309838085308,"road":"울산 중구 당산3길 31-2","region":"울산 중구 우정동 284-9","building":"태광유토빌4","method":"address"},"31110|우정동|태광유토빌B동|284-39":{"city_code":"31110","dong":"우정동","name":"태광유토빌B동","addr":"284-39","query":"울산 우정동 284-39","lat":35.5551035672833,"lng":129.310083471752,"road":"울산 중구 당산3길 31-1","region":"울산 중구 우정동 284-39","building":"태광유토빌 V","method":"address"},"31110|우정동|태화강유보라팰라티움|286-1":{"city_code":"31110","dong":"우정동","name":"태화강유보라팰라티움","addr":"286-1","query":"울산 우정동 286-1","lat":35.5535944914973,"lng":129.309945991345,"road":null,"region":"울산 중구 우정동 286-1","building":null,"method":"address"},"31110|우정동|태화강유보라팰라티움|810":{"city_code":"31110","dong":"우정동","name":"태화강유보라팰라티움","addr":"810","query":"울산 우정동 810","lat":35.5535950402863,"lng":129.309945566049,"road":"울산 중구 당산4길 12","region":"울산 중구 우정동 810","building":"태화강 유보라 팰라티움","method":"address"},"31110|우정동|평화맨션|406-14":{"city_code":"31110","dong":"우정동","name":"평화맨션","addr":"406-14","query":"울산 우정동 406-14","lat":35.5585169294939,"lng":129.312354635665,"road":"울산 중구 명륜로 79","region":"울산 중구 우정동 406-14","building":"평화맨션","method":"address"},"31110|우정동|평화비둘기|436-14":{"city_code":"31110","dong":"우정동","name":"평화비둘기","addr":"436-14","query":"울산 우정동 436-14","lat":35.5606175041829,"lng":129.31227363516,"road":"울산 중구 우정7길 57","region":"울산 중구 우정동 436-14","building":"평화비둘기아파트","method":"address"},"31110|우정동|한신뉴캐슬|276-27":{"city_code":"31110","dong":"우정동","name":"한신뉴캐슬","addr":"276-27","query":"울산 우정동 276-27","lat":35.5537255057997,"lng":129.31424335566,"road":null,"region":"울산 중구 우정동 276-27","building":null,"method":"address"},"31110|유곡동|금강골든타워|114":{"city_code":"31110","dong":"유곡동","name":"금강골든타워","addr":"114","query":"울산 유곡동 114","lat":35.5576876640456,"lng":129.304217537685,"road":"울산 중구 평동2길 14-1","region":"울산 중구 유곡동 114","building":"금강골든타워","method":"address"},"31110|유곡동|삼풍|109":{"city_code":"31110","dong":"유곡동","name":"삼풍","addr":"109","query":"울산 유곡동 109","lat":35.5582370745413,"lng":129.304719995096,"road":"울산 중구 평동2길 25","region":"울산 중구 유곡동 109","building":"삼풍아파트","method":"address"},"31110|유곡동|새운|117-27":{"city_code":"31110","dong":"유곡동","name":"새운","addr":"117-27","query":"울산 유곡동 117-27","lat":35.5568821163285,"lng":129.305734343742,"road":"울산 중구 평동2길 50","region":"울산 중구 유곡동 117-27","building":"새운6차태화아파트","method":"address"},"31110|유곡동|양지|114-1":{"city_code":"31110","dong":"유곡동","name":"양지","addr":"114-1","query":"울산 유곡동 114-1","lat":35.5573166411334,"lng":129.303980093972,"road":"울산 중구 유곡로 50","region":"울산 중구 유곡동 114-1","building":"양지아파트","method":"address"},"31110|유곡동|에일린의뜰1차|264":{"city_code":"31110","dong":"유곡동","name":"에일린의뜰1차","addr":"264","query":"울산 유곡동 264","lat":35.5622563720458,"lng":129.300588254653,"road":"울산 중구 종가5길 10","region":"울산 중구 유곡동 264","building":"에일린의 뜰 1차 아파트","method":"address"},"31110|유곡동|에일린의뜰3차|271-2":{"city_code":"31110","dong":"유곡동","name":"에일린의뜰3차","addr":"271-2","query":"울산 유곡동 271-2","lat":35.5646579207051,"lng":129.304405916984,"road":"울산 중구 종가로 245","region":"울산 중구 유곡동 271-2","building":"에일린의뜰3차","method":"address"},"31110|유곡동|우정혁신도시1차동원로얄듀크|259":{"city_code":"31110","dong":"유곡동","name":"우정혁신도시1차동원로얄듀크","addr":"259","query":"울산 유곡동 259","lat":35.562641182686,"lng":129.304409684139,"road":"울산 중구 종가로 250","region":"울산 중구 유곡동 259","building":"우정혁신도시1차 동원로얄듀크","method":"address"},"31110|유곡동|우정혁신도시2차동원로얄듀크|215":{"city_code":"31110","dong":"유곡동","name":"우정혁신도시2차동원로얄듀크","addr":"215","query":"울산 유곡동 215","lat":35.561158878195,"lng":129.294259865579,"road":"울산 중구 종가4길 10","region":"울산 중구 유곡동 215","building":"우정혁신도시2차동원로얄듀크","method":"address"},"31110|유곡동|우정혁신도시푸르지오|260":{"city_code":"31110","dong":"유곡동","name":"우정혁신도시푸르지오","addr":"260","query":"울산 유곡동 260","lat":35.5599264021905,"lng":129.301031967226,"road":"울산 중구 유곡로 80","region":"울산 중구 유곡동 260","building":"우정혁신도시 푸르지오","method":"address"},"31110|유곡동|울산유곡푸르지오|69":{"city_code":"31110","dong":"유곡동","name":"울산유곡푸르지오","addr":"69","query":"울산 유곡동 69","lat":35.5603263765434,"lng":129.304785463427,"road":"울산 중구 평동3길 1","region":"울산 중구 유곡동 69","building":"울산 유곡 푸르지오","method":"address"},"31110|유곡동|유곡e편한세상|142":{"city_code":"31110","dong":"유곡동","name":"유곡e편한세상","addr":"142","query":"울산 유곡동 142","lat":35.5599903802318,"lng":129.302550793647,"road":"울산 중구 평동3길 2","region":"울산 중구 유곡동 142","building":"유곡 e편한세상","method":"address"},"31110|유곡동|평동그린빌|117-7":{"city_code":"31110","dong":"유곡동","name":"평동그린빌","addr":"117-7","query":"울산 유곡동 117-7","lat":35.5573994225518,"lng":129.305465558942,"road":"울산 중구 평동5길 37","region":"울산 중구 유곡동 117-7","building":"평동그린빌","method":"address"},"31110|장현동|골드클래스|181":{"city_code":"31110","dong":"장현동","name":"골드클래스","addr":"181","query":"울산 장현동 181","lat":35.587556535281,"lng":129.345074959938,"road":"울산 중구 종가로 760","region":"울산 중구 장현동 181","building":"골드클래스","method":"address"},"31110|장현동|에일린의뜰2차아파트|191":{"city_code":"31110","dong":"장현동","name":"에일린의뜰2차아파트","addr":"191","query":"울산 장현동 191","lat":35.5858806680888,"lng":129.344139984576,"road":"울산 중구 종가로 730","region":"울산 중구 장현동 191","building":"에일린의 뜰 2차 아파트","method":"address"},"31110|태화동|경륜|472-1":{"city_code":"31110","dong":"태화동","name":"경륜","addr":"472-1","query":"울산 태화동 472-1","lat":35.5508410070864,"lng":129.295696236418,"road":"울산 중구 신기3길 15","region":"울산 중구 태화동 472-1","building":"경륜아파트","method":"address"},"31110|태화동|구룡유토빌|318":{"city_code":"31110","dong":"태화동","name":"구룡유토빌","addr":"318","query":"울산 태화동 318","lat":35.557417121312,"lng":129.2820350892,"road":"울산 중구 명난로 25-10","region":"울산 중구 태화동 318","building":"구룡유토빌 아파트","method":"address"},"31110|태화동|국제강변|산26":{"city_code":"31110","dong":"태화동","name":"국제강변","addr":"산26","query":"울산 태화동 산26","lat":35.5542057819833,"lng":129.300019258326,"road":"울산 중구 신기11길 10-10","region":"울산 중구 태화동 산 26","building":"국제강변아파트","method":"address"},"31110|태화동|꽃누리|486-9":{"city_code":"31110","dong":"태화동","name":"꽃누리","addr":"486-9","query":"울산 태화동 486-9","lat":35.5512064364544,"lng":129.298988406837,"road":"울산 중구 태화강국가정원길 229-3","region":"울산 중구 태화동 486-9","building":"꽃누리아파트","method":"address"},"31110|태화동|나영빌라|478-2":{"city_code":"31110","dong":"태화동","name":"나영빌라","addr":"478-2","query":"울산 태화동 478-2","lat":35.5508651966295,"lng":129.297297108127,"road":"울산 중구 신기4길 9-4","region":"울산 중구 태화동 478-2","building":"나영빌라","method":"address"},"31110|태화동|나이스빌|444-1":{"city_code":"31110","dong":"태화동","name":"나이스빌","addr":"444-1","query":"울산 태화동 444-1","lat":35.5516805446091,"lng":129.293310125899,"road":"울산 중구 신기8길 10","region":"울산 중구 태화동 444-1","building":"나이스빌","method":"address"},"31110|태화동|남운파크|171":{"city_code":"31110","dong":"태화동","name":"남운파크","addr":"171","query":"울산 태화동 171","lat":35.5546419798488,"lng":129.303147662698,"road":"울산 중구 화진4길 92","region":"울산 중구 태화동 171","building":"남운파크맨션","method":"address"},"31110|태화동|대륜로얄맨션|11-14":{"city_code":"31110","dong":"태화동","name":"대륜로얄맨션","addr":"11-14","query":"울산 태화동 11-14","lat":35.5551245697465,"lng":129.30334197631,"road":"울산 중구 화진4길 86","region":"울산 중구 태화동 11-14","building":"대륜로얄맨션","method":"address"},"31110|태화동|동덕현대맨션|200-7":{"city_code":"31110","dong":"태화동","name":"동덕현대맨션","addr":"200-7","query":"울산 태화동 200-7","lat":35.5572046325084,"lng":129.302462369172,"road":"울산 중구 유곡로 55","region":"울산 중구 태화동 200-7","building":"동덕현대맨션","method":"address"},"31110|태화동|동원빌라|451-7":{"city_code":"31110","dong":"태화동","name":"동원빌라","addr":"451-7","query":"울산 태화동 451-7","lat":35.5510554981384,"lng":129.29511235927,"road":"울산 중구 신기3길 16","region":"울산 중구 태화동 451-7","building":"동원빌라","method":"address"},"31110|태화동|동현빌리지|169-2":{"city_code":"31110","dong":"태화동","name":"동현빌리지","addr":"169-2","query":"울산 태화동 169-2","lat":35.553624521277,"lng":129.300849239837,"road":"울산 중구 신기11길 10-6","region":"울산 중구 태화동 169-2","building":"동현빌리지","method":"address"},"31110|태화동|리버스위트|37-7":{"city_code":"31110","dong":"태화동","name":"리버스위트","addr":"37-7","query":"울산 태화동 37-7","lat":35.5548696524072,"lng":129.308583456157,"road":"울산 중구 화진길 13-2","region":"울산 중구 태화동 37-7","building":"리버스위트","method":"address"},"31110|태화동|미래빌리지|453-13":{"city_code":"31110","dong":"태화동","name":"미래빌리지","addr":"453-13","query":"울산 태화동 453-13","lat":35.5500725516195,"lng":129.293913617653,"road":"울산 중구 신기3길 36-4","region":"울산 중구 태화동 453-13","building":"미래빌리지","method":"address"},"31110|태화동|범진그린파크|200-17":{"city_code":"31110","dong":"태화동","name":"범진그린파크","addr":"200-17","query":"울산 태화동 200-17","lat":35.5565815384709,"lng":129.303429438726,"road":"울산 중구 유곡로 51","region":"울산 중구 태화동 200-17","building":"범진그린파크","method":"address"},"31110|태화동|보람빌라|452-7":{"city_code":"31110","dong":"태화동","name":"보람빌라","addr":"452-7","query":"울산 태화동 452-7","lat":35.5504248004833,"lng":129.294541983062,"road":"울산 중구 신기1길 47","region":"울산 중구 태화동 452-7","building":"보람빌라","method":"address"},"31110|태화동|삼익그린맨션|452-6":{"city_code":"31110","dong":"태화동","name":"삼익그린맨션","addr":"452-6","query":"울산 태화동 452-6","lat":35.5503486189028,"lng":129.294757129583,"road":"울산 중구 신기3길 28","region":"울산 중구 태화동 452-6","building":"삼익그린맨션","method":"address"},"31110|태화동|삼익세라믹|150-2":{"city_code":"31110","dong":"태화동","name":"삼익세라믹","addr":"150-2","query":"울산 태화동 150-2","lat":35.5529041348481,"lng":129.298917377172,"road":"울산 중구 신기12길 12","region":"울산 중구 태화동 150-2","building":"삼익세라믹","method":"address"},"31110|태화동|삼익세라믹(102동)|150-5":{"city_code":"31110","dong":"태화동","name":"삼익세라믹(102동)","addr":"150-5","query":"울산 태화동 150-5","lat":35.5523397893916,"lng":129.299078446018,"road":"울산 중구 신기13길 2","region":"울산 중구 태화동 150-5","building":"삼익세라믹아파트","method":"address"},"31110|태화동|삼익세라믹(103동)|150-7":{"city_code":"31110","dong":"태화동","name":"삼익세라믹(103동)","addr":"150-7","query":"울산 태화동 150-7","lat":35.5523604937868,"lng":129.299674554359,"road":"울산 중구 신기12길 4","region":"울산 중구 태화동 150-7","building":"삼익세라믹아파트","method":"address"},"31110|태화동|새운임대|123-7":{"city_code":"31110","dong":"태화동","name":"새운임대","addr":"123-7","query":"울산 태화동 123-7","lat":35.5533259430095,"lng":129.301158919394,"road":"울산 중구 신기11길 8","region":"울산 중구 태화동 123-7","building":"새운아파트","method":"address"},"31110|태화동|서린파크맨션|431-11":{"city_code":"31110","dong":"태화동","name":"서린파크맨션","addr":"431-11","query":"울산 태화동 431-11","lat":35.5504084755379,"lng":129.29325513818,"road":"울산 중구 신기2길 30","region":"울산 중구 태화동 431-11","building":"태화강 서린아파트","method":"address"},"31110|태화동|선경맨션|200-1":{"city_code":"31110","dong":"태화동","name":"선경맨션","addr":"200-1","query":"울산 태화동 200-1","lat":35.5581390233955,"lng":129.30103356281,"road":"울산 중구 유곡로 77","region":"울산 중구 태화동 200-1","building":"선경맨션","method":"address"},"31110|태화동|양지동산맨션|157":{"city_code":"31110","dong":"태화동","name":"양지동산맨션","addr":"157","query":"울산 태화동 157","lat":35.5537677285251,"lng":129.299138643292,"road":"울산 중구 신기11길 22","region":"울산 중구 태화동 157","building":"양지동산맨션","method":"address"},