{"36110|고운동|가락마을 20단지(호반베르디움5차)|1396":{"city_code":"36110","dong":"고운동","name":"가락마을 20단지(호반베르디움5차)","addr":"1396","query":"세종 고운동 1396","lat":36.5162348436404,"lng":127.240401539453,"road":"세종특별자치시 만남로 190","region":"세종특별자치시 고운동 1396","building":"가락마을20단지","method":"address"},"36110|고운동|가락마을11단지(중흥에듀카운티)|1409":{"city_code":"36110","dong":"고운동","name":"가락마을11단지(중흥에듀카운티)","addr":"1409","query":"세종 고운동 1409","lat":36.5114779872358,"lng":127.230553620516,"road":"세종특별자치시 마음로 152","region":"세종특별자치시 고운동 1409","building":"가락마을11단지","method":"address"},"36110|고운동|가락마을13단지(대광로제비앙)|1401":{"city_code":"36110","dong":"고운동","name":"가락마을13단지(대광로제비앙)","addr":"1401","query":"세종 고운동 1401","lat":36.5138489816943,"lng":127.23043048332,"road":"세종특별자치시 마음로 182","region":"세종특별자치시 고운동 1401","building":"가락마을13단지","method":"address"},"36110|고운동|가락마을14단지(우남퍼스트빌)|1403":{"city_code":"36110","dong":"고운동","name":"가락마을14단지(우남퍼스트빌)","addr":"1403","query":"세종 고운동 1403","lat":36.5138207126064,"lng":127.232089895479,"road":"세종특별자치시 마음안로 131","region":"세종특별자치시 고운동 1403","building":"가락마을 14단지","method":"address"},"36110|고운동|가락마을15단지(중흥파크뷰)|1393":{"city_code":"36110","dong":"고운동","name":"가락마을15단지(중흥파크뷰)","addr":"1393","query":"세종 고운동 1393","lat":36.5162644107332,"lng":127.236928805078,"road":"세종특별자치시 마음안로 190","region":"세종특별자치시 고운동 1393","building":"가락마을15단지","method":"address"},"36110|고운동|가락마을16단지(에듀그린)|1395":{"city_code":"36110","dong":"고운동","name":"가락마을16단지(에듀그린)","addr":"1395","query":"세종 고운동 1395","lat":36.5160080209785,"lng":127.238562335083,"road":"세종특별자치시 만남로 187","region":"세종특별자치시 고운동 1395","building":"가락마을16단지","method":"address"},"36110|고운동|가락마을17단지(골드클래스)|1386":{"city_code":"36110","dong":"고운동","name":"가락마을17단지(골드클래스)","addr":"1386","query":"세종 고운동 1386","lat":36.5179917456724,"lng":127.236608964287,"road":"세종특별자치시 마음안1로 167","region":"세종특별자치시 고운동 1386","building":"가락마을17단지","method":"address"},"36110|고운동|가락마을18단지|2112":{"city_code":"36110","dong":"고운동","name":"가락마을18단지","addr":"2112","query":"세종 고운동 2112","lat":36.5210681905272,"lng":127.235105833063,"road":"세종특별자치시 마음안1로 137","region":"세종특별자치시 고운동 2112","building":"가락마을18단지 근린생활시설","method":"address"},"36110|고운동|가락마을19단지|2111":{"city_code":"36110","dong":"고운동","name":"가락마을19단지","addr":"2111","query":"세종 고운동 2111","lat":36.5235958224891,"lng":127.232860570084,"road":"세종특별자치시 밝은뜰로 15","region":"세종특별자치시 고운동 2111","building":"가락마을19단지","method":"address"},"36110|고운동|가락마을1단지(힐데스하임)|1729":{"city_code":"36110","dong":"고운동","name":"가락마을1단지(힐데스하임)","addr":"1729","query":"세종 고운동 1729","lat":36.5036603640453,"lng":127.233663925586,"road":"세종특별자치시 마음로 67","region":"세종특별자치시 고운동 1729","building":"가락마을1단지","method":"address"},"36110|고운동|가락마을21단지(에듀포레)|1390":{"city_code":"36110","dong":"고운동","name":"가락마을21단지(에듀포레)","addr":"1390","query":"세종 고운동 1390","lat":36.5181605123445,"lng":127.240538566139,"road":"세종특별자치시 마음안로 221","region":"세종특별자치시 고운동 1390","building":"가락마을21단지","method":"address"},"36110|고운동|가락마을22단지(에듀힐스)|1387":{"city_code":"36110","dong":"고운동","name":"가락마을22단지(에듀힐스)","addr":"1387","query":"세종 고운동 1387","lat":36.5194043797903,"lng":127.240803667334,"road":"세종특별자치시 마음로 322","region":"세종특별자치시 고운동 1387","building":"가락마을22단지","method":"address"},"36110|고운동|가락마을2단지|1731":{"city_code":"36110","dong":"고운동","name":"가락마을2단지","addr":"1731","query":"세종 고운동 1731","lat":36.5030046000221,"lng":127.235539329907,"road":"세종특별자치시 마음로 49","region":"세종특별자치시 고운동 1731","building":"가락마을2단지","method":"address"},"36110|고운동|가락마을3단지(호반베르디움)|1708":{"city_code":"36110","dong":"고운동","name":"가락마을3단지(호반베르디움)","addr":"1708","query":"세종 고운동 1708","lat":36.5063004196895,"lng":127.2358463535,"road":"세종특별자치시 마음안로 47","region":"세종특별자치시 고운동 1708","building":"가락마을3단지","method":"address"},"36110|고운동|가락마을5단지(유승한내들)|1705":{"city_code":"36110","dong":"고운동","name":"가락마을5단지(유승한내들)","addr":"1705","query":"세종 고운동 1705","lat":36.5074423462303,"lng":127.238529127927,"road":"세종특별자치시 마음안로 34","region":"세종특별자치시 고운동 1705","building":"가락마을5단지","method":"address"},"36110|고운동|가락마을6단지(중흥S클래스프라디움)|1728":{"city_code":"36110","dong":"고운동","name":"가락마을6단지(중흥S클래스프라디움)","addr":"1728","query":"세종 고운동 1728","lat":36.503218698286,"lng":127.239126188259,"road":"세종특별자치시 마음로 14","region":"세종특별자치시 고운동 1728","building":"가락마을6단지","method":"address"},"36110|고운동|가락마을7단지(중흥S-클래스프라디움)|1724":{"city_code":"36110","dong":"고운동","name":"가락마을7단지(중흥S-클래스프라디움)","addr":"1724","query":"세종 고운동 1724","lat":36.5045974164562,"lng":127.239644905811,"road":"세종특별자치시 마음안로 13","region":"세종특별자치시 고운동 1724","building":"가락마을7단지","method":"address"},"36110|고운동|가락마을8단지(고운뜰아파트)|1706":{"city_code":"36110","dong":"고운동","name":"가락마을8단지(고운뜰아파트)","addr":"1706","query":"세종 고운동 1706","lat":36.5070764461165,"lng":127.240251208324,"road":"세종특별자치시 만남로 92","region":"세종특별자치시 고운동 1706","building":"가락마을8단지","method":"address"},"36110|고운동|가락마을9단지(신동아 파밀리에)|1408":{"city_code":"36110","dong":"고운동","name":"가락마을9단지(신동아 파밀리에)","addr":"1408","query":"세종 고운동 1408","lat":36.5111957486821,"lng":127.228679341,"road":"세종특별자치시 마음로 151","region":"세종특별자치시 고운동 1408","building":"가락마을9단지","method":"address"},"36110|고운동|세종한림풀에버가락마을12단지|1411":{"city_code":"36110","dong":"고운동","name":"세종한림풀에버가락마을12단지","addr":"1411","query":"세종 고운동 1411","lat":36.5116359028956,"lng":127.232532813335,"road":"세종특별자치시 마음안로 101","region":"세종특별자치시 고운동 1411","building":"가락마을12단지","method":"address"},"36110|고운동|이지더원(가락마을10단지)|1400":{"city_code":"36110","dong":"고운동","name":"이지더원(가락마을10단지)","addr":"1400","query":"세종 고운동 1400","lat":36.5138831799202,"lng":127.227779742787,"road":"세종특별자치시 마음로 181","region":"세종특별자치시 고운동 1400","building":"가락마을10단지","method":"address"},"36110|고운동|이지더원(가락마을4단지)|1703":{"city_code":"36110","dong":"고운동","name":"이지더원(가락마을4단지)","addr":"1703","query":"세종 고운동 1703","lat":36.5075873607128,"lng":127.2368916429,"road":"세종특별자치시 마음안로 48","region":"세종특별자치시 고운동 1703","building":"가락마을 4단지","method":"address"},"36110|금남면 용포리|두진리버빌|320":{"city_code":"36110","dong":"금남면 용포리","name":"두진리버빌","addr":"320","query":"세종 금남면 용포리 320","lat":36.4628890473191,"lng":127.278835674734,"road":"세종특별자치시 금남면 용포2길 70","region":"세종특별자치시 금남면 용포리 320","building":"금남두진리버빌아파트","method":"address"},"36110|금남면 용포리|신성연기미소지움|263":{"city_code":"36110","dong":"금남면 용포리","name":"신성연기미소지움","addr":"263","query":"세종 금남면 용포리 263","lat":36.4649715738138,"lng":127.278318987279,"road":"세종특별자치시 금남면 용포2길 57-15","region":"세종특별자치시 금남면 용포리 263","building":"신성미소지움아파트","method":"address"},"36110|나성동|SR파크센텀|727":{"city_code":"36110","dong":"나성동","name":"SR파크센텀","addr":"727","query":"세종 나성동 727","lat":36.4939393302596,"lng":127.255844287738,"road":"세종특별자치시 한누리대로 331","region":"세종특별자치시 나성동 727","building":"SR파크센텀","method":"address"},"36110|나성동|나릿재마을1단지|835":{"city_code":"36110","dong":"나성동","name":"나릿재마을1단지","addr":"835","query":"세종 나성동 835","lat":36.4874466779889,"lng":127.263339857418,"road":"세종특별자치시 국세청로 46","region":"세종특별자치시 나성동 835","building":"나릿재마을1단지","method":"address"},"36110|나성동|나릿재마을1단지|NO_ADRESS_DATA":{"city_code":"36110","dong":"나성동","name":"나릿재마을1단지","addr":"NO_ADRESS_DATA","query":"세종 나성동 나릿재마을1단지","lat":36.48743092086853,"lng":127.26353800541345,"road":"세종특별자치시 국세청로 46","region":"세종특별자치시 나성동 835","building":"나릿재마을1단지세종리더스포레아파트","method":"keyword"},"36110|나성동|나릿재마을2단지|853":{"city_code":"36110","dong":"나성동","name":"나릿재마을2단지","addr":"853","query":"세종 나성동 853","lat":36.4881720635815,"lng":127.265920516801,"road":"세종특별자치시 중앙공원서로 10","region":"세종특별자치시 나성동 853","building":"나릿재마을2단지","method":"address"},"36110|나성동|나릿재마을2단지|가-":{"city_code":"36110","dong":"나성동","name":"나릿재마을2단지","addr":"가-","query":"세종 나성동 나릿재마을2단지","lat":36.48827694823023,"lng":127.26604631487773,"road":"세종특별자치시 중앙공원서로 10","region":"세종특별자치시 나성동 853","building":"나릿재마을2단지세종리더스포레아파트","method":"keyword"},"36110|나성동|나릿재마을3단지|833":{"city_code":"36110","dong":"나성동","name":"나릿재마을3단지","addr":"833","query":"세종 나성동 833","lat":36.4888742106375,"lng":127.262353775916,"road":"세종특별자치시 국세청로 45","region":"세종특별자치시 나성동 833","building":"나릿재마을3단지","method":"address"},"36110|나성동|나릿재마을3단지제일풍경채위너스카이|BL-2-4":{"city_code":"36110","dong":"나성동","name":"나릿재마을3단지제일풍경채위너스카이","addr":"BL-2-4","query":"세종 나성동 나릿재마을3단지제일풍경채위너스카이","lat":36.488969498480266,"lng":127.26258343947167,"road":"세종특별자치시 국세청로 45","region":"세종특별자치시 나성동 833","building":"나릿재마을3단지제일풍경채위너스카이아파트","method":"keyword"},"36110|나성동|나릿재마을4단지|831":{"city_code":"36110","dong":"나성동","name":"나릿재마을4단지","addr":"831","query":"세종 나성동 831","lat":36.4907121105216,"lng":127.261742800752,"road":"세종특별자치시 나성북로 47","region":"세종특별자치시 나성동 831","building":"나릿재마을4단지","method":"address"},"36110|나성동|나릿재마을4단지|가-":{"city_code":"36110","dong":"나성동","name":"나릿재마을4단지","addr":"가-","query":"세종 나성동 나릿재마을4단지","lat":36.49076028260715,"lng":127.26167879017196,"road":"세종특별자치시 나성북로 47","region":"세종특별자치시 나성동 831","building":"나릿재마을4단지부원트리쉐이드리젠시아파트","method":"keyword"},"36110|나성동|나릿재마을5단지|827":{"city_code":"36110","dong":"나성동","name":"나릿재마을5단지","addr":"827","query":"세종 나성동 827","lat":36.492173625723,"lng":127.258260233416,"road":"세종특별자치시 나성북1로 23","region":"세종특별자치시 나성동 827","building":"나릿재마을 5단지","method":"address"},"36110|나성동|나릿재마을5단지한신더휴리저브|2지구BL 403-1":{"city_code":"36110","dong":"나성동","name":"나릿재마을5단지한신더휴리저브","addr":"2지구BL 403-1","query":"세종 나성동 나릿재마을5단지한신더휴리저브","lat":36.49220059840243,"lng":127.25824726498202,"road":"세종특별자치시 나성북1로 23","region":"세종특별자치시 나성동 827","building":"나릿재마을5단지한신더휴리저브아파트","method":"keyword"},"36110|나성동|나릿재마을6단지|823":{"city_code":"36110","dong":"나성동","name":"나릿재마을6단지","addr":"823","query":"세종 나성동 823","lat":36.486058619836,"lng":127.261457190298,"road":null,"region":"세종특별자치시 나성동 823","building":null,"method":"address"},"36110|나성동|나릿재마을6단지|829":{"city_code":"36110","dong":"나성동","name":"나릿재마을6단지","addr":"829","query":"세종 나성동 829","lat":36.492094468522,"lng":127.261380378032,"road":"세종특별자치시 나성북1로 51","region":"세종특별자치시 나성동 829","building":"나릿재마을 6단지","method":"address"},"36110|나성동|나릿재마을6단지한신더휴리저브|2지구BL 403-2":{"city_code":"36110","dong":"나성동","name":"나릿재마을6단지한신더휴리저브","addr":"2지구BL 403-2","query":"세종 나성동 나릿재마을6단지한신더휴리저브","lat":36.49202325948062,"lng":127.26105915864491,"road":"세종특별자치시 나성북1로 51","region":"세종특별자치시 나성동 829","building":"나릿재마을6단지한신더휴리저브아파트","method":"keyword"},"36110|나성동|더리치세종의아침(CB4-1BL-2BL)|775":{"city_code":"36110","dong":"나성동","name":"더리치세종의아침(CB4-1BL-2BL)","addr":"775","query":"세종 나성동 775","lat":36.4825041072413,"lng":127.261368248018,"road":"세종특별자치시 한누리대로 194","region":"세종특별자치시 나성동 775","building":"세종의아침","method":"address"},"36110|나성동|리베라아이누리(2-2)|751":{"city_code":"36110","dong":"나성동","name":"리베라아이누리(2-2)","addr":"751","query":"세종 나성동 751","lat":36.4845489512494,"lng":127.258751166272,"road":"세종특별자치시 한누리대로 223","region":"세종특별자치시 나성동 751","building":"리베라아이누리","method":"address"},"36110|나성동|블루지움(2-4)|759":{"city_code":"36110","dong":"나성동","name":"블루지움(2-4)","addr":"759","query":"세종 나성동 759","lat":36.4917458055789,"lng":127.256859831222,"road":"세종특별자치시 한누리대로 306","region":"세종특별자치시 나성동 759","building":"블루지움","method":"address"},"36110|나성동|세종갤러리밸류시티|764":{"city_code":"36110","dong":"나성동","name":"세종갤러리밸류시티","addr":"764","query":"세종 나성동 764","lat":36.4899287566569,"lng":127.257090431043,"road":"세종특별자치시 한누리대로 288","region":"세종특별자치시 나성동 764","building":"갤러리밸류시티","method":"address"},"36110|나성동|세종마루(CB5-3BL)|750":{"city_code":"36110","dong":"나성동","name":"세종마루(CB5-3BL)","addr":"750","query":"세종 나성동 750","lat":36.4848799208392,"lng":127.258513562603,"road":"세종특별자치시 한누리대로 227","region":"세종특별자치시 나성동 750","building":"세종마루","method":"address"},"36110|나성동|세종마루투|757":{"city_code":"36110","dong":"나성동","name":"세종마루투","addr":"757","query":"세종 나성동 757","lat":36.4924757887891,"lng":127.256796505032,"road":"세종특별자치시 한누리대로 316","region":"세종특별자치시 나성동 757","building":"세종마루2","method":"address"},"36110|나성동|세종모닝시티2차|732":{"city_code":"36110","dong":"나성동","name":"세종모닝시티2차","addr":"732","query":"세종 나성동 732","lat":36.4921134214536,"lng":127.25579531382,"road":"세종특별자치시 한누리대로 311","region":"세종특별자치시 나성동 732","building":"모닝시티2","method":"address"},"36110|나성동|세종퍼스트타워|712":{"city_code":"36110","dong":"나성동","name":"세종퍼스트타워","addr":"712","query":"세종 나성동 712","lat":36.4834934453089,"lng":127.259488753576,"road":"세종특별자치시 한누리대로 211","region":"세종특별자치시 나성동 712","building":"세종퍼스트타워","method":"address"},"36110|나성동|세종포레뷰원|738":{"city_code":"36110","dong":"나성동","name":"세종포레뷰원","addr":"738","query":"세종 나성동 738","lat":36.4897905218997,"lng":127.256125387345,"road":"세종특별자치시 한누리대로 287","region":"세종특별자치시 나성동 738","building":"세종포레뷰1","method":"address"},"36110|나성동|세진팰리스|739":{"city_code":"36110","dong":"나성동","name":"세진팰리스","addr":"739","query":"세종 나성동 739","lat":36.4893908397503,"lng":127.256218152563,"road":"세종특별자치시 한누리대로 283","region":"세종특별자치시 나성동 739","building":"세진팰리스","method":"address"},"36110|나성동|에스알파크|714":{"city_code":"36110","dong":"나성동","name":"에스알파크","addr":"714","query":"세종 나성동 714","lat":36.482909899018,"lng":127.25992414207,"road":"세종특별자치시 한누리대로 205","region":"세종특별자치시 나성동 714","building":"SR파크 도시형생활주택","method":"address"},"36110|나성동|에스알파크시티|730":{"city_code":"36110","dong":"나성동","name":"에스알파크시티","addr":"730","query":"세종 나성동 730","lat":36.492998045161,"lng":127.255814852346,"road":"세종특별자치시 한누리대로 321","region":"세종특별자치시 나성동 730","building":"SR파크시티","method":"address"},"36110|나성동|우빈가온|715":{"city_code":"36110","dong":"나성동","name":"우빈가온","addr":"715","query":"세종 나성동 715","lat":36.4826113382346,"lng":127.26013416707,"road":"세종특별자치시 한누리대로 201","region":"세종특별자치시 나성동 715","building":"우빈가온","method":"address"},"36110|나성동|포레뷰투도시형생활주택|737":{"city_code":"36110","dong":"나성동","name":"포레뷰투도시형생활주택","addr":"737","query":"세종 나성동 737","lat":36.4902048807374,"lng":127.256038249681,"road":"세종특별자치시 한누리대로 291","region":"세종특별자치시 나성동 737","building":"포레뷰2차","method":"address"},"36110|나성동|한스웰시티(CB5-1BL)|748":{"city_code":"36110","dong":"나성동","name":"한스웰시티(CB5-1BL)","addr":"748","query":"세종 나성동 748","lat":36.485553862221,"lng":127.25802990764,"road":"세종특별자치시 한누리대로 237","region":"세종특별자치시 나성동 748","building":"한스웰시티","method":"address"},"36110|나성동|행복의아침|763":{"city_code":"36110","dong":"나성동","name":"행복의아침","addr":"763","query":"세종 나성동 763","lat":36.4903223704737,"lng":127.257012158159,"road":"세종특별자치시 한누리대로 292","region":"세종특별자치시 나성동 763","building":"행복의아침","method":"address"},"36110|다정동|가온마을10단지|969":{"city_code":"36110","dong":"다정동","name":"가온마을10단지","addr":"969","query":"세종 다정동 969","lat":36.491892404204,"lng":127.253285901328,"road":"세종특별자치시 가온로 9","region":"세종특별자치시 다정동 969","building":"가온마을 10단지","method":"address"},"36110|다정동|가온마을11단지(세종지웰푸르지오)|970":{"city_code":"36110","dong":"다정동","name":"가온마을11단지(세종지웰푸르지오)","addr":"970","query":"세종 다정동 970","lat":36.4920879160253,"lng":127.254827935998,"road":"세종특별자치시 다정남로 130","region":"세종특별자치시 다정동 970","building":"가온마을11단지 근린생활시설","method":"address"},"36110|다정동|가온마을12단지|926":{"city_code":"36110","dong":"다정동","name":"가온마을12단지","addr":"926","query":"세종 다정동 926","lat":36.4940077169555,"lng":127.253951284052,"road":"세종특별자치시 다정남로 123","region":"세종특별자치시 다정동 926","building":"가온마을12단지","method":"address"},"36110|다정동|가온마을1단지|960":{"city_code":"36110","dong":"다정동","name":"가온마을1단지","addr":"960","query":"세종 다정동 960","lat":36.4914072542821,"lng":127.244192260854,"road":"세종특별자치시 다정남로 22","region":"세종특별자치시 다정동 960","building":"가온마을1단지","method":"address"},"36110|다정동|가온마을1단지(힐스테이트)|960":{"city_code":"36110","dong":"다정동","name":"가온마을1단지(힐스테이트)","addr":"960","query":"세종 다정동 960","lat":36.4914072542821,"lng":127.244192260854,"road":"세종특별자치시 다정남로 22","region":"세종특별자치시 다정동 960","building":"가온마을1단지","method":"address"},"36110|다정동|가온마을2단지|953":{"city_code":"36110","dong":"다정동","name":"가온마을2단지","addr":"953","query":"세종 다정동 953","lat":36.4948495038188,"lng":127.242685498618,"road":"세종특별자치시 다정북로 110","region":"세종특별자치시 다정동 953","building":"가온마을2단지","method":"address"},"36110|다정동|가온마을3단지|916":{"city_code":"36110","dong":"다정동","name":"가온마을3단지","addr":"916","query":"세종 다정동 916","lat":36.4976061623495,"lng":127.242675237306,"road":"세종특별자치시 다정북로 109","region":"세종특별자치시 다정동 916","building":"가온마을3단지","method":"address"},"36110|다정동|가온마을4단지|964":{"city_code":"36110","dong":"다정동","name":"가온마을4단지","addr":"964","query":"세종 다정동 964","lat":36.4922136690373,"lng":127.247617771364,"road":"세종특별자치시 다정중앙로 19","region":"세종특별자치시 다정동 964","building":"가온마을4단지","method":"address"},"36110|다정동|가온마을5단지(중흥에스클래스센텀시티)|946":{"city_code":"36110","dong":"다정동","name":"가온마을5단지(중흥에스클래스센텀시티)","addr":"946","query":"세종 다정동 946","lat":36.4952855652934,"lng":127.246557422699,"road":"세종특별자치시 다정서로 60","region":"세종특별자치시 다정동 946","building":"가온마을5단지","method":"address"},"36110|다정동|가온마을5단지(중흥에스클래스센텀시티)|가-":{"city_code":"36110","dong":"다정동","name":"가온마을5단지(중흥에스클래스센텀시티)","addr":"가-","query":"세종 다정동 가온마을5단지(중흥에스클래스센텀시티)","lat":36.49528477065563,"lng":127.24654949578913,"road":"세종특별자치시 다정서로 60","region":"세종특별자치시 다정동 946","building":"가온마을5단지중흥S클래스센텀시티아파트","method":"keyword"},"36110|다정동|가온마을6단지|918":{"city_code":"36110","dong":"다정동","name":"가온마을6단지","addr":"918","query":"세종 다정동 918","lat":36.497398327397,"lng":127.246862018555,"road":"세종특별자치시 다정중앙로 77","region":"세종특별자치시 다정동 918","building":"가온마을6단지","method":"address"},"36110|다정동|가온마을8단지(더하이스트)|931":{"city_code":"36110","dong":"다정동","name":"가온마을8단지(더하이스트)","addr":"931","query":"세종 다정동 931","lat":36.4951223225661,"lng":127.250729479443,"road":"세종특별자치시 다정북로 180","region":"세종특별자치시 다정동 931","building":"가온마을8단지","method":"address"},"36110|다정동|가온마을9단지|920":{"city_code":"36110","dong":"다정동","name":"가온마을9단지","addr":"920","query":"세종 다정동 920","lat":36.4971659274249,"lng":127.250532818551,"road":"세종특별자치시 다정북로 179","region":"세종특별자치시 다정동 920","building":"가온마을9단지 근린생활시설","method":"address"},"36110|대평동|해들마을1단지|266-8":{"city_code":"36110","dong":"대평동","name":"해들마을1단지","addr":"266-8","query":"세종 대평동 해들마을1단지","lat":36.4692808273697,"lng":127.27700376243627,"road":"세종특별자치시 대평1길 27","region":"세종특별자치시 대평동 707","building":"해들마을1단지신동아파밀리에아파트","method":"keyword"},"36110|대평동|해들마을1단지|707":{"city_code":"36110","dong":"대평동","name":"해들마을1단지","addr":"707","query":"세종 대평동 707","lat":36.4692812768871,"lng":127.277004210329,"road":"세종특별자치시 대평1길 27","region":"세종특별자치시 대평동 707","building":"해들마을1단지","method":"address"},"36110|대평동|해들마을2단지|706":{"city_code":"36110","dong":"대평동","name":"해들마을2단지","addr":"706","query":"세종 대평동 706","lat":36.470457176617,"lng":127.276392497637,"road":"세종특별자치시 대평1길 37","region":"세종특별자치시 대평동 706","building":"해들마을2단지","method":"address"},"36110|대평동|해들마을3단지|705":{"city_code":"36110","dong":"대평동","name":"해들마을3단지","addr":"705","query":"세종 대평동 705","lat":36.47143842694,"lng":127.278186232406,"road":"세종특별자치시 대평1길 38","region":"세종특별자치시 대평동 705","building":"해들마을3단지","method":"address"},"36110|대평동|해들마을4단지|704":{"city_code":"36110","dong":"대평동","name":"해들마을4단지","addr":"704","query":"세종 대평동 704","lat":36.471810375619,"lng":127.282351741781,"road":"세종특별자치시 대평로 34","region":"세종특별자치시 대평동 704","building":"해들마을4단지","method":"address"},"36110|대평동|해들마을5단지|700":{"city_code":"36110","dong":"대평동","name":"해들마을5단지","addr":"700","query":"세종 대평동 700","lat":36.4734447055686,"lng":127.280752706697,"road":"세종특별자치시 대평로 56","region":"세종특별자치시 대평동 700","building":"해들마을 5단지","method":"address"},"36110|대평동|해들마을6단지|668":{"city_code":"36110","dong":"대평동","name":"해들마을6단지","addr":"668","query":"세종 대평동 668","lat":36.4749224528824,"lng":127.278124258254,"road":"세종특별자치시 한누리대로 2236","region":"세종특별자치시 대평동 668","building":"해들마을 6단지 상가동","method":"address"},"36110|도담동|까사누보|674":{"city_code":"36110","dong":"도담동","name":"까사누보","addr":"674","query":"세종 도담동 674","lat":36.5143808679238,"lng":127.257932995815,"road":"세종특별자치시 보듬3로 8-23","region":"세종특별자치시 도담동 674","building":"까사누보","method":"address"},"36110|도담동|까사리움|656":{"city_code":"36110","dong":"도담동","name":"까사리움","addr":"656","query":"세종 도담동 656","lat":36.515607400846,"lng":127.258445029535,"road":"세종특별자치시 한누리대로 587","region":"세종특별자치시 도담동 656","building":"까사리움","method":"address"},"36110|도담동|도램마을 14단지(한림풀에버)|858":{"city_code":"36110","dong":"도담동","name":"도램마을 14단지(한림풀에버)","addr":"858","query":"세종 도담동 858","lat":36.5099059057037,"lng":127.26594192836,"road":"세종특별자치시 보듬2로 42","region":"세종특별자치시 도담동 858","building":"도램마을14단지","method":"address"},"36110|도담동|도램마을 19단지(모아미래도)|638":{"city_code":"36110","dong":"도담동","name":"도램마을 19단지(모아미래도)","addr":"638","query":"세종 도담동 638","lat":36.5154033820654,"lng":127.267116323033,"road":"세종특별자치시 보듬4로 111","region":"세종특별자치시 도담동 638","building":"도램마을19단지","method":"address"},"36110|도담동|도램마을10단지 호반 어반시티|853":{"city_code":"36110","dong":"도담동","name":"도램마을10단지 호반 어반시티","addr":"853","query":"세종 도담동 853","lat":36.5118758593472,"lng":127.26136103031,"road":"세종특별자치시 보듬4로 20","region":"세종특별자치시 도담동 853","building":"도램마을10단지","method":"address"},"36110|도담동|도램마을11단지(반도유보라)|653":{"city_code":"36110","dong":"도담동","name":"도램마을11단지(반도유보라)","addr":"653","query":"세종 도담동 653","lat":36.5137171858289,"lng":127.260083166134,"road":"세종특별자치시 보듬4로 9","region":"세종특별자치시 도담동 653","building":"도램마을11단지","method":"address"},"36110|도담동|도램마을16단지(모아미래도)|641":{"city_code":"36110","dong":"도담동","name":"도램마을16단지(모아미래도)","addr":"641","query":"세종 도담동 641","lat":36.5142791248142,"lng":127.265370565776,"road":"세종특별자치시 보듬4로 55","region":"세종특별자치시 도담동 641","building":"도램마을16단지","method":"address"},"36110|도담동|도램마을17단지(모아미래도)|639":{"city_code":"36110","dong":"도담동","name":"도램마을17단지(모아미래도)","addr":"639","query":"세종 도담동 639","lat":36.5153812305722,"lng":127.265007814633,"road":"세종특별자치시 보듬6로 52","region":"세종특별자치시 도담동 639","building":"도램마을17단지","method":"address"},"36110|도담동|도램마을18단지(모아미래도)|636":{"city_code":"36110","dong":"도담동","name":"도램마을18단지(모아미래도)","addr":"636","query":"세종 도담동 636","lat":36.5144547465034,"lng":127.267233297689,"road":"세종특별자치시 보듬4로 85","region":"세종특별자치시 도담동 636","building":"도램마을18단지","method":"address"},"36110|도담동|도램마을1단지(웅진스타클래스)|845":{"city_code":"36110","dong":"도담동","name":"도램마을1단지(웅진스타클래스)","addr":"845","query":"세종 도담동 845","lat":36.5101897157583,"lng":127.257045229646,"road":"세종특별자치시 다솜1로 140","region":"세종특별자치시 도담동 845","building":"도램마을1단지","method":"address"},"36110|도담동|도램마을20단지(에듀파크)|633":{"city_code":"36110","dong":"도담동","name":"도램마을20단지(에듀파크)","addr":"633","query":"세종 도담동 633","lat":36.5171092052508,"lng":127.263659595387,"road":"세종특별자치시 보람로 96","region":"세종특별자치시 도담동 633","building":"도램마을20단지","method":"address"},"36110|도담동|도램마을2단지(웅진스타클래스)|685":{"city_code":"36110","dong":"도담동","name":"도램마을2단지(웅진스타클래스)","addr":"685","query":"세종 도담동 685","lat":36.5126588292122,"lng":127.256481482758,"road":"세종특별자치시 다솜1로 164","region":"세종특별자치시 도담동 685","building":"도램마을2단지","method":"address"},"36110|도담동|도램마을3단지(웅진스타클래스)|683":{"city_code":"36110","dong":"도담동","name":"도램마을3단지(웅진스타클래스)","addr":"683","query":"세종 도담동 683","lat":36.5140462596454,"lng":127.256307105037,"road":"세종특별자치시 다솜1로 184","region":"세종특별자치시 도담동 683","building":"도램마을3단지","method":"address"},"36110|도담동|도램마을4단지(이지더원)|681":{"city_code":"36110","dong":"도담동","name":"도램마을4단지(이지더원)","addr":"681","query":"세종 도담동 681","lat":36.5155521935855,"lng":127.256257478979,"road":"세종특별자치시 다솜1로 200","region":"세종특별자치시 도담동 681","building":"도램마을 4단지","method":"address"},"36110|도담동|도램마을9단지(제일풍경채)|855":{"city_code":"36110","dong":"도담동","name":"도램마을9단지(제일풍경채)","addr":"855","query":"세종 도담동 855","lat":36.5098207539787,"lng":127.262807569285,"road":"세종특별자치시 보람로 15","region":"세종특별자치시 도담동 855","building":"도램마을9단지","method":"address"},"36110|도담동|라온프라이빗시티 Ⅰ|664":{"city_code":"36110","dong":"도담동","name":"라온프라이빗시티 Ⅰ","addr":"664","query":"세종 도담동 664","lat":36.5135806976891,"lng":127.258740269818,"road":"세종특별자치시 보듬3로 8-12","region":"세종특별자치시 도담동 664","building":"라온프라이빗시티Ⅰ","method":"address"},"36110|도담동|라온프라이빗시티 Ⅱ|666":{"city_code":"36110","dong":"도담동","name":"라온프라이빗시티 Ⅱ","addr":"666","query":"세종 도담동 666","lat":36.5129777535591,"lng":127.258898237936,"road":"세종특별자치시 보듬3로 6","region":"세종특별자치시 도담동 666","building":"라온프라이빗시티Ⅱ","method":"address"},"36110|도담동|엘가도램마을12단지|651":{"city_code":"36110","dong":"도담동","name":"엘가도램마을12단지","addr":"651","query":"세종 도담동 651","lat":36.5135727240313,"lng":127.261939658855,"road":"세종특별자치시 보듬4로 19","region":"세종특별자치시 도담동 651","building":"도램마을 12단지","method":"address"},"36110|도담동|엘가에코힐(도램마을5단지)|627":{"city_code":"36110","dong":"도담동","name":"엘가에코힐(도램마을5단지)","addr":"627","query":"세종 도담동 627","lat":36.5175363511627,"lng":127.256928409138,"road":"세종특별자치시 다솜1로 220","region":"세종특별자치시 도담동 627","building":"도램마을 5단지","method":"address"},"36110|도담동|중흥 그린카운티(13단지)|632":{"city_code":"36110","dong":"도담동","name":"중흥 그린카운티(13단지)","addr":"632","query":"세종 도담동 632","lat":36.5169911494497,"lng":127.260751025081,"road":"세종특별자치시 보람로 95","region":"세종특별자치시 도담동 632","building":"도램마을13단지","method":"address"},"36110|도담동|현대힐스테이트(도램마을15단지)|859":{"city_code":"36110","dong":"도담동","name":"현대힐스테이트(도램마을15단지)","addr":"859","query":"세종 도담동 859","lat":36.5124029606582,"lng":127.264988953044,"road":"세종특별자치시 보듬2로 43","region":"세종특별자치시 도담동 859","building":"도램마을15단지","method":"address"},"36110|반곡동|수루배마을1단지|851":{"city_code":"36110","dong":"반곡동","name":"수루배마을1단지","addr":"851","query":"세종 반곡동 851","lat":36.4975155125624,"lng":127.307267479006,"road":"세종특별자치시 한누리대로 1864","region":"세종특별자치시 반곡동 851","building":"수루배마을1단지 근린생활시설","method":"address"},"36110|반곡동|수루배마을1단지|가-4102-1":{"city_code":"36110","dong":"반곡동","name":"수루배마을1단지","addr":"가-4102-1","query":"세종 반곡동 수루배마을1단지","lat":36.49723588087948,"lng":127.30674346365657,"road":"세종특별자치시 반곡로 14","region":"세종특별자치시 반곡동 851","building":"수루배마을1단지캐슬파밀리에디아트아파트","method":"keyword"},"36110|반곡동|수루배마을2단지|897":{"city_code":"36110","dong":"반곡동","name":"수루배마을2단지","addr":"897","query":"세종 반곡동 897","lat":36.4961163692751,"lng":127.310750836544,"road":"세종특별자치시 한누리대로 1839","region":"세종특별자치시 반곡동 897","building":"수루배마을2단지 근린생활시설","method":"address"},"36110|반곡동|수루배마을2단지|가-4101-2":{"city_code":"36110","dong":"반곡동","name":"수루배마을2단지","addr":"가-4101-2","query":"세종 반곡동 수루배마을2단지","lat":36.49646347916201,"lng":127.3102718424496,"road":"세종특별자치시 반곡1길 9","region":"세종특별자치시 반곡동 897","building":"수루배마을2단지아파트","method":"keyword"},"36110|반곡동|수루배마을3단지|852":{"city_code":"36110","dong":"반곡동","name":"수루배마을3단지","addr":"852","query":"세종 반곡동 852","lat":36.4996096893824,"lng":127.308600649102,"road":"세종특별자치시 반곡로 13","region":"세종특별자치시 반곡동 852","building":"수루배마을 3단지 근린생활시설","method":"address"},"36110|반곡동|수루배마을3단지|가-4102-2":{"city_code":"36110","dong":"반곡동","name":"수루배마을3단지","addr":"가-4102-2","query":"세종 반곡동 수루배마을3단지","lat":36.49966109085375,"lng":127.30876102384991,"road":"세종특별자치시 반곡로 15","region":"세종특별자치시 반곡동 852","building":"수루배마을3단지리슈빌더리버아파트","method":"keyword"},"36110|반곡동|수루배마을4단지(세종더샵예미지)|857":{"city_code":"36110","dong":"반곡동","name":"수루배마을4단지(세종더샵예미지)","addr":"857","query":"세종 반곡동 857","lat":36.4998362763961,"lng":127.313906058705,"road":"세종특별자치시 시청대로 500","region":"세종특별자치시 반곡동 857","building":"수루배마을 4단지","method":"address"},"36110|반곡동|수루배마을4단지(세종더샵예미지)|가-4102-3":{"city_code":"36110","dong":"반곡동","name":"수루배마을4단지(세종더샵예미지)","addr":"가-4102-3","query":"세종 반곡동 수루배마을4단지(세종더샵예미지)","lat":36.500132814184056,"lng":127.31378123904047,"road":"세종특별자치시 시청대로 500","region":"세종특별자치시 반곡동 857","building":"수루배마을4단지더샵예미지아파트","method":"keyword"},"36110|반곡동|수루배마을4단지(세종더샵예미지)|4102-3":{"city_code":"36110","dong":"반곡동","name":"수루배마을4단지(세종더샵예미지)","addr":"4102-3","query":"세종 반곡동 수루배마을4단지(세종더샵예미지)","lat":36.500132814184056,"lng":127.31378123904047,"road":"세종특별자치시 시청대로 500","region":"세종특별자치시 반곡동 857","building":"수루배마을4단지더샵예미지아파트","method":"keyword"},"36110|반곡동|수루배마을5단지|899":{"city_code":"36110","dong":"반곡동","name":"수루배마을5단지","addr":"899","query":"세종 반곡동 899","lat":36.4970947198157,"lng":127.31297005165,"road":"세종특별자치시 한누리대로 1811","region":"세종특별자치시 반곡동 899","building":"수루배마을5단지 상가동","method":"address"},"36110|반곡동|수루배마을5단지|가-4101-3":{"city_code":"36110","dong":"반곡동","name":"수루배마을5단지","addr":"가-4101-3","query":"세종 반곡동 수루배마을5단지","lat":36.49706038105385,"lng":127.31221518285066,"road":"세종특별자치시 반곡2길 9","region":"세종특별자치시 반곡동 899","building":"수루배마을5단지아파트","method":"keyword"},"36110|반곡동|수루배마을6단지|1035":{"city_code":"36110","dong":"반곡동","name":"수루배마을6단지","addr":"1035","query":"세종 반곡동 1035","lat":36.4939892287052,"lng":127.318156977751,"road":"세종특별자치시 시청대로 580","region":"세종특별자치시 반곡동 1035","building":"수루배마을6단지 근린생활시설","method":"address"},"36110|반곡동|수루배마을6단지|가-4101-4":{"city_code":"36110","dong":"반곡동","name":"수루배마을6단지","addr":"가-4101-4","query":"세종 반곡동 수루배마을6단지","lat":36.493876486368265,"lng":127.31805852396664,"road":"세종특별자치시 시청대로 598","region":"세종특별자치시 반곡동 1035","building":"수루배마을6단지예미지리버포레아파트","method":"keyword"},"36110|반곡동|씨즈파크뷰|가-4121-2002":{"city_code":"36110","dong":"반곡동","name":"씨즈파크뷰","addr":"가-4121-2002","query":"세종 반곡동 씨즈파크뷰","lat":36.49204384224761,"lng":127.30376207267955,"road":"세종특별자치시 국책연구원3로 6","region":"세종특별자치시 반곡동 849","building":"씨즈파크뷰","method":"keyword"},"36110|보람동|스타힐타워Ⅰ|743":{"city_code":"36110","dong":"보람동","name":"스타힐타워Ⅰ","addr":"743","query":"세종 보람동 743","lat":36.47834307756,"lng":127.289117287929,"road":"세종특별자치시 한누리대로 2135","region":"세종특별자치시 보람동 743","building":"스타힐타워Ⅰ","method":"address"},"36110|보람동|스타힐타워Ⅱ|744":{"city_code":"36110","dong":"보람동","name":"스타힐타워Ⅱ","addr":"744","query":"세종 보람동 744","lat":36.4785885710994,"lng":127.289704366888,"road":"세종특별자치시 한누리대로 2129","region":"세종특별자치시 보람동 744","building":"스타힐타워Ⅱ","method":"address"},"36110|보람동|호려울마을 4단지 센트럴파크|700-1":{"city_code":"36110","dong":"보람동","name":"호려울마을 4단지 센트럴파크","addr":"700-1","query":"세종 보람동 호려울마을 4단지 센트럴파크","lat":36.47530618444009,"lng":127.28870341814898,"road":"세종특별자치시 남세종로 469","region":"세종특별자치시 보람동 784","building":"호려울마을4단지EG더원센트럴파크아파트","method":"keyword"},"36110|보람동|호려울마을 4단지 센트럴파크|784":{"city_code":"36110","dong":"보람동","name":"호려울마을 4단지 센트럴파크","addr":"784","query":"세종 보람동 784","lat":36.4756911625585,"lng":127.288776593893,"road":"세종특별자치시 남세종로 469","region":"세종특별자치시 보람동 784","building":"호려울마을4단지","method":"address"},"36110|보람동|호려울마을 7단지|738":{"city_code":"36110","dong":"보람동","name":"호려울마을 7단지","addr":"738","query":"세종 보람동 738","lat":36.4766408002721,"lng":127.286834867973,"road":"세종특별자치시 한누리대로 2165","region":"세종특별자치시 보람동 738","building":"호려울마을7단지 근린생활시설","method":"address"},"36110|보람동|호려울마을 7단지|BL H1":{"city_code":"36110","dong":"보람동","name":"호려울마을 7단지","addr":"BL H1","query":"세종 보람동 호려울마을 7단지","lat":36.47667148232266,"lng":127.28681712754856,"road":"세종특별자치시 남세종로 480","region":"세종특별자치시 보람동 738","building":"호려울마을7단지아파트","method":"keyword"},"36110|보람동|호려울마을10단지(중흥S클래스)|713":{"city_code":"36110","dong":"보람동","name":"호려울마을10단지(중흥S클래스)","addr":"713","query":"세종 보람동 713","lat":36.4824410643624,"lng":127.294399572186,"road":"세종특별자치시 시청대로 210","region":"세종특별자치시 보람동 713","building":"호려울마을10단지","method":"address"},"36110|보람동|호려울마을1단지(대방노블랜드)|786":{"city_code":"36110","dong":"보람동","name":"호려울마을1단지(대방노블랜드)","addr":"786","query":"세종 보람동 786","lat":36.4741465750868,"lng":127.285594160215,"road":"세종특별자치시 남세종로 503","region":"세종특별자치시 보람동 786","building":"호려울마을1단지","method":"address"},"36110|보람동|호려울마을3단지|730":{"city_code":"36110","dong":"보람동","name":"호려울마을3단지","addr":"730","query":"세종 보람동 730","lat":36.4767831385413,"lng":127.281861400995,"road":"세종특별자치시 한누리대로 2200","region":"세종특별자치시 보람동 730","building":"호려울마을3단지 근린생활시설","method":"address"},"36110|보람동|호려울마을5단지(제일풍경채)|783":{"city_code":"36110","dong":"보람동","name":"호려울마을5단지(제일풍경채)","addr":"783","query":"세종 보람동 783","lat":36.4760432548567,"lng":127.291257061096,"road":"세종특별자치시 남세종로 441","region":"세종특별자치시 보람동 783","building":"호려울마을5단지","method":"address"},"36110|보람동|호려울마을6단지(모아엘가)|779":{"city_code":"36110","dong":"보람동","name":"호려울마을6단지(모아엘가)","addr":"779","query":"세종 보람동 779","lat":36.4771855506889,"lng":127.294785415344,"road":"세종특별자치시 보람동로 13","region":"세종특별자치시 보람동 779","building":"호려울마을6단지","method":"address"},"36110|보람동|호려울마을8단지(중흥에코시티)|777":{"city_code":"36110","dong":"보람동","name":"호려울마을8단지(중흥에코시티)","addr":"777","query":"세종 보람동 777","lat":36.4787369772013,"lng":127.297005294865,"road":"세종특별자치시 보람동로 14","region":"세종특별자치시 보람동 777","building":"호려울마을8단지","method":"address"},"36110|보람동|호려울마을9단지(한양수자인와이즈시티)|774":{"city_code":"36110","dong":"보람동","name":"호려울마을9단지(한양수자인와이즈시티)","addr":"774","query":"세종 보람동 774","lat":36.4804906672968,"lng":127.295829470446,"road":"세종특별자치시 남세종로 384","region":"세종특별자치시 보람동 774","building":"호려울마을9단지","method":"address"},"36110|부강면 부강리|대광|976-2":{"city_code":"36110","dong":"부강면 부강리","name":"대광","addr":"976-2","query":"세종 부강면 부강리 976-2","lat":36.5304357295636,"lng":127.363199303783,"road":"세종특별자치시 부강면 부강신대길 56-17","region":"세종특별자치시 부강면 부강리 976-2","building":"대광아파트","method":"address"},"36110|부강면 부강리|대신하나로|498-7":{"city_code":"36110","dong":"부강면 부강리","name":"대신하나로","addr":"498-7","query":"세종 부강면 부강리 498-7","lat":36.5282491010337,"lng":127.36540929105,"road":"세종특별자치시 부강면 부강로 29-11","region":"세종특별자치시 부강면 부강리 498-7","building":"대신하나로아파트","method":"address"},"36110|부강면 부강리|삼호|401-173":{"city_code":"36110","dong":"부강면 부강리","name":"삼호","addr":"401-173","query":"세종 부강면 부강리 401-173","lat":36.5318351221391,"lng":127.363495278222,"road":"세종특별자치시 부강면 부강신대길 53","region":"세종특별자치시 부강면 부강리 401-173","building":"삼호아파트","method":"address"},"36110|부강면 부강리|주연|401-48":{"city_code":"36110","dong":"부강면 부강리","name":"주연","addr":"401-48","query":"세종 부강면 부강리 401-48","lat":36.5313953868747,"lng":127.366197243412,"road":"세종특별자치시 부강면 청연로 83","region":"세종특별자치시 부강면 부강리 401-48","building":"","method":"address"},"36110|부강면 부강리|청솔|970-3":{"city_code":"36110","dong":"부강면 부강리","name":"청솔","addr":"970-3","query":"세종 부강면 부강리 970-3","lat":36.529809607038,"lng":127.363969401195,"road":"세종특별자치시 부강면 부강3길 29-11","region":"세종특별자치시 부강면 부강리 970-3","building":"청솔아파트","method":"address"},"36110|부강면 부강리|팔팔|457-2":{"city_code":"36110","dong":"부강면 부강리","name":"팔팔","addr":"457-2","query":"세종 부강면 부강리 457-2","lat":36.5300564012482,"lng":127.368527878533,"road":"세종특별자치시 부강면 시장1길 34","region":"세종특별자치시 부강면 부강리 457-2","building":"팔팔아파트","method":"address"},"36110|산울동|산울마을2단지(세종자이더시티)|259":{"city_code":"36110","dong":"산울동","name":"산울마을2단지(세종자이더시티)","addr":"259","query":"세종 산울동 259","lat":36.5322501716496,"lng":127.258516249255,"road":"세종특별자치시 산울3로 45","region":"세종특별자치시 산울동 259","building":"산울마을2단지","method":"address"},"36110|산울동|산울마을5단지|가-":{"city_code":"36110","dong":"산울동","name":"산울마을5단지","addr":"가-","query":"세종 산울동 산울마을5단지","lat":36.530625059790026,"lng":127.26065843381478,"road":"세종특별자치시 산울2로 40","region":"세종특별자치시 산울동 308-2","building":"산울마을5단지세종파밀리에더파크아파트","method":"keyword"},"36110|산울동|산울마을8단지엘리프세종6-3|산7":{"city_code":"36110","dong":"산울동","name":"산울마을8단지엘리프세종6-3","addr":"산7","query":"세종 산울동 산7","lat":36.5331005181259,"lng":127.267938616728,"road":"세종특별자치시 산울7로 10","region":"세종특별자치시 산울동 산 7","building":"산울마을8단지","method":"address"},"36110|산울동|세종리첸시아파밀리에H2블록(산울마을7단지)|152-1":{"city_code":"36110","dong":"산울동","name":"세종리첸시아파밀리에H2블록(산울마을7단지)","addr":"152-1","query":"세종 산울동 152-1","lat":36.53138048006,"lng":127.264999632935,"road":"세종특별자치시 산울7로 11","region":"세종특별자치시 산울동 152-1","building":"산울마을7단지","method":"address"},"36110|산울동|세종리첸시아파밀리에H3블록(산울마을6단지)|313-14":{"city_code":"36110","dong":"산울동","name":"세종리첸시아파밀리에H3블록(산울마을6단지)","addr":"313-14","query":"세종 산울동 313-14","lat":36.529587165017,"lng":127.262729824462,"road":"세종특별자치시 산울2로 10","region":"세종특별자치시 산울동 313-14","building":"산울마을6단지","method":"address"},"36110|새롬동|새뜸마을10단지(더샵힐스테이트)|558":{"city_code":"36110","dong":"새롬동","name":"새뜸마을10단지(더샵힐스테이트)","addr":"558","query":"세종 새롬동 558","lat":36.4889831159529,"lng":127.251493027798,"road":"세종특별자치시 새롬중앙로 90","region":"세종특별자치시 새롬동 558","building":"새뜸마을10단지","method":"address"},"36110|새롬동|새뜸마을11단지(더샵힐스테이트)|561":{"city_code":"36110","dong":"새롬동","name":"새뜸마을11단지(더샵힐스테이트)","addr":"561","query":"세종 새롬동 561","lat":36.4893548524528,"lng":127.253702287601,"road":"세종특별자치시 새롬로 55","region":"세종특별자치시 새롬동 561","building":"새뜸마을11단지","method":"address"},"36110|새롬동|새뜸마을12단지(금성백조예미지)|614":{"city_code":"36110","dong":"새롬동","name":"새뜸마을12단지(금성백조예미지)","addr":"614","query":"세종 새롬동 614","lat":36.4844166721687,"lng":127.25762160276,"road":"세종특별자치시 새롬남로 102","region":"세종특별자치시 새롬동 614","building":"새뜸마을12단지","method":"address"},"36110|새롬동|새뜸마을13단지|564":{"city_code":"36110","dong":"새롬동","name":"새뜸마을13단지","addr":"564","query":"세종 새롬동 564","lat":36.4879006560932,"lng":127.255685932439,"road":"세종특별자치시 새롬로 26","region":"세종특별자치시 새롬동 564","building":"새뜸마을13단지 근린생활시설","method":"address"},"36110|새롬동|새뜸마을13단지(트리쉐이드)|564":{"city_code":"36110","dong":"새롬동","name":"새뜸마을13단지(트리쉐이드)","addr":"564","query":"세종 새롬동 564","lat":36.4879006560932,"lng":127.255685932439,"road":"세종특별자치시 새롬로 26","region":"세종특별자치시 새롬동 564","building":"새뜸마을13단지 근린생활시설","method":"address"},"36110|새롬동|새뜸마을14단지(더샵힐스테이트)|563":{"city_code":"36110","dong":"새롬동","name":"새뜸마을14단지(더샵힐스테이트)","addr":"563","query":"세종 새롬동 563","lat":36.4897940144574,"lng":127.255126103286,"road":"세종특별자치시 새롬로 56","region":"세종특별자치시 새롬동 563","building":"새뜸마을14단지","method":"address"},"36110|새롬동|새뜸마을1단지(메이저시티)|601":{"city_code":"36110","dong":"새롬동","name":"새뜸마을1단지(메이저시티)","addr":"601","query":"세종 새롬동 601","lat":36.4812982823751,"lng":127.247715493845,"road":"세종특별자치시 새롬남로 18","region":"세종특별자치시 새롬동 601","building":"새뜸마을1단지","method":"address"},"36110|새롬동|새뜸마을2단지(메이저시티)|599":{"city_code":"36110","dong":"새롬동","name":"새뜸마을2단지(메이저시티)","addr":"599","query":"세종 새롬동 599","lat":36.4836134874292,"lng":127.247609930375,"road":"세종특별자치시 새롬남로 17","region":"세종특별자치시 새롬동 599","building":"새뜸마을2단지","method":"address"},"36110|새롬동|새뜸마을3단지(롯데캐슬)|597":{"city_code":"36110","dong":"새롬동","name":"새뜸마을3단지(롯데캐슬)","addr":"597","query":"세종 새롬동 597","lat":36.4852770068289,"lng":127.246966623431,"road":"세종특별자치시 새롬북로 14","region":"세종특별자치시 새롬동 597","building":"새뜸마을3단지","method":"address"},"36110|새롬동|새뜸마을3단지(캐슬파밀리에)|597":{"city_code":"36110","dong":"새롬동","name":"새뜸마을3단지(캐슬파밀리에)","addr":"597","query":"세종 새롬동 597","lat":36.4852770068289,"lng":127.246966623431,"road":"세종특별자치시 새롬북로 14","region":"세종특별자치시 새롬동 597","building":"새뜸마을3단지","method":"address"},"36110|새롬동|새뜸마을4단지(캐슬파밀리에)|554":{"city_code":"36110","dong":"새롬동","name":"새뜸마을4단지(캐슬파밀리에)","addr":"554","query":"세종 새롬동 554","lat":36.487992817848,"lng":127.246054649836,"road":"세종특별자치시 새롬북로 13","region":"세종특별자치시 새롬동 554","building":"새뜸마을4단지","method":"address"},"36110|새롬동|새뜸마을5단지(메이저시티)|605":{"city_code":"36110","dong":"새롬동","name":"새뜸마을5단지(메이저시티)","addr":"605","query":"세종 새롬동 605","lat":36.4823957479569,"lng":127.251703849634,"road":"세종특별자치시 새롬중앙로 19","region":"세종특별자치시 새롬동 605","building":"새뜸마을5단지","method":"address"},"36110|새롬동|새뜸마을6단지(메이저시티)|593":{"city_code":"36110","dong":"새롬동","name":"새뜸마을6단지(메이저시티)","addr":"593","query":"세종 새롬동 593","lat":36.4841745085375,"lng":127.25004917825,"road":"세종특별자치시 새롬중앙1로 13","region":"세종특별자치시 새롬동 593","building":"새뜸마을6단지","method":"address"},"36110|새롬동|새뜸마을7단지(투머로우시티)|556":{"city_code":"36110","dong":"새롬동","name":"새뜸마을7단지(투머로우시티)","addr":"556","query":"세종 새롬동 556","lat":36.4886625442732,"lng":127.248885646659,"road":"세종특별자치시 새롬중앙로 89","region":"세종특별자치시 새롬동 556","building":"새뜸마을7단지","method":"address"},"36110|새롬동|새뜸마을9단지(금성백조예미지)|611":{"city_code":"36110","dong":"새롬동","name":"새뜸마을9단지(금성백조예미지)","addr":"611","query":"세종 새롬동 611","lat":36.4840104939227,"lng":127.256462460309,"road":"세종특별자치시 새롬남로 98","region":"세종특별자치시 새롬동 611","building":"새뜸마을9단지","method":"address"},"36110|소담동|새샘마을1단지|597":{"city_code":"36110","dong":"소담동","name":"새샘마을1단지","addr":"597","query":"세종 소담동 597","lat":36.4801704668474,"lng":127.301240335987,"road":"세종특별자치시 남세종로 357","region":"세종특별자치시 소담동 597","building":"새샘마을1단지","method":"address"},"36110|소담동|새샘마을2단지(한양수자인)|594":{"city_code":"36110","dong":"소담동","name":"새샘마을2단지(한양수자인)","addr":"594","query":"세종 소담동 594","lat":36.4822001156159,"lng":127.299066118088,"road":"세종특별자치시 남세종로 358","region":"세종특별자치시 소담동 594","building":"새샘마을2단지","method":"address"},"36110|소담동|새샘마을3단지(모아미래도리버시티)|BL-M3":{"city_code":"36110","dong":"소담동","name":"새샘마을3단지(모아미래도리버시티)","addr":"BL-M3","query":"세종 소담동 새샘마을3단지(모아미래도리버시티)","lat":36.48394635626361,"lng":127.29683725179731,"road":"세종특별자치시 시청대로 236","region":"세종특별자치시 소담동 550","building":"새샘마을3단지세종모아미래도리버시티아파트","method":"keyword"},"36110|소담동|새샘마을3단지(모아미래도리버시티)|550":{"city_code":"36110","dong":"소담동","name":"새샘마을3단지(모아미래도리버시티)","addr":"550","query":"세종 소담동 550","lat":36.4839403498066,"lng":127.296860886969,"road":"세종특별자치시 시청대로 236","region":"세종특별자치시 소담동 550","building":"새샘마을3단지","method":"address"},"36110|소담동|새샘마을5단지(한양수자인엘시티)|598":{"city_code":"36110","dong":"소담동","name":"새샘마을5단지(한양수자인엘시티)","addr":"598","query":"세종 소담동 598","lat":36.4810990980914,"lng":127.305709676877,"road":"세종특별자치시 남세종로 301","region":"세종특별자치시 소담동 598","building":"새샘마을5단지","method":"address"},"36110|소담동|새샘마을6단지(한신더휴펜타힐스)|3302-6":{"city_code":"36110","dong":"소담동","name":"새샘마을6단지(한신더휴펜타힐스)","addr":"3302-6","query":"세종 소담동 새샘마을6단지(한신더휴펜타힐스)","lat":36.483522120064386,"lng":127.30426780282399,"road":"세종특별자치시 남세종로 302","region":"세종특별자치시 소담동 586","building":"새샘마을6단지한신더휴펜타힐스아파트","method":"keyword"},"36110|소담동|새샘마을6단지(한신더휴펜타힐스)|586":{"city_code":"36110","dong":"소담동","name":"새샘마을6단지(한신더휴펜타힐스)","addr":"586","query":"세종 소담동 586","lat":36.4835217575906,"lng":127.304268582564,"road":"세종특별자치시 남세종로 302","region":"세종특별자치시 소담동 586","building":"새샘마을6단지","method":"address"},"36110|소담동|새샘마을7단지|539":{"city_code":"36110","dong":"소담동","name":"새샘마을7단지","addr":"539","query":"세종 소담동 539","lat":36.4863104962551,"lng":127.299882744728,"road":"세종특별자치시 소담3로 8","region":"세종특별자치시 소담동 539","building":"새샘마을7단지 근린생활시설","method":"address"},"36110|소담동|새샘마을8단지|531":{"city_code":"36110","dong":"소담동","name":"새샘마을8단지","addr":"531","query":"세종 소담동 531","lat":36.4873948525117,"lng":127.300636985708,"road":"세종특별자치시 소담4로 7","region":"세종특별자치시 소담동 531","building":"새샘마을8단지 근린생활시설","method":"address"},"36110|소담동|새샘마을9단지(중흥S클래스리버뷰)|521":{"city_code":"36110","dong":"소담동","name":"새샘마을9단지(중흥S클래스리버뷰)","addr":"521","query":"세종 소담동 521","lat":36.4899144082585,"lng":127.300202429301,"road":"세종특별자치시 국책연구원1로 15","region":"세종특별자치시 소담동 521","building":"새샘마을9단지","method":"address"},"36110|소정면 소정리|(주)금강사원임대아파트|24":{"city_code":"36110","dong":"소정면 소정리","name":"(주)금강사원임대아파트","addr":"24","query":"세종 소정면 소정리 24","lat":36.7192383414758,"lng":127.160068893146,"road":"세종특별자치시 소정면 소정샘골길 17","region":"세종특별자치시 소정면 소정리 24","building":"KCC사원아파트","method":"address"},"36110|소정면 운당리|무궁화|35-1":{"city_code":"36110","dong":"소정면 운당리","name":"무궁화","addr":"35-1","query":"세종 소정면 운당리 35-1","lat":36.6978010662228,"lng":127.151982275583,"road":"세종특별자치시 소정면 세종로 4283","region":"세종특별자치시 소정면 운당리 35-1","building":"신창무궁화아파트","method":"address"},"36110|아름동|대우푸르지오(10단지)|1277":{"city_code":"36110","dong":"아름동","name":"대우푸르지오(10단지)","addr":"1277","query":"세종 아름동 1277","lat":36.5174215710211,"lng":127.250131990049,"road":"세종특별자치시 달빛로 211","region":"세종특별자치시 아름동 1277","building":"범지기마을10단지","method":"address"},"36110|아름동|범지기마을 4단지|1356":{"city_code":"36110","dong":"아름동","name":"범지기마을 4단지","addr":"1356","query":"세종 아름동 1356","lat":36.5088851364735,"lng":127.24861603829,"road":"세종특별자치시 달빛로 109","region":"세종특별자치시 아름동 1356","building":"범지기마을 4단지","method":"address"},"36110|아름동|범지기마을11단지(영무예다음)|1363":{"city_code":"36110","dong":"아름동","name":"범지기마을11단지(영무예다음)","addr":"1363","query":"세종 아름동 1363","lat":36.5105160752242,"lng":127.251225764006,"road":"세종특별자치시 보듬3로 73","region":"세종특별자치시 아름동 1363","building":"범지기마을 11단지","method":"address"},"36110|아름동|범지기마을12단지(중흥S-에코타운)|1276":{"city_code":"36110","dong":"아름동","name":"범지기마을12단지(중흥S-에코타운)","addr":"1276","query":"세종 아름동 1276","lat":36.5127409498491,"lng":127.251346711858,"road":"세종특별자치시 보듬3로 74","region":"세종특별자치시 아름동 1276","building":"범지기마을12단지","method":"address"},"36110|아름동|범지기마을1단지(한양수자인에듀센텀)|1339":{"city_code":"36110","dong":"아름동","name":"범지기마을1단지(한양수자인에듀센텀)","addr":"1339","query":"세종 아름동 1339","lat":36.5098560375787,"lng":127.243196391923,"road":"세종특별자치시 절재로 13","region":"세종특별자치시 아름동 1339","building":"범지기마을1단지","method":"address"},"36110|아름동|범지기마을3단지(중흥에듀하이)|1297":{"city_code":"36110","dong":"아름동","name":"범지기마을3단지(중흥에듀하이)","addr":"1297","query":"세종 아름동 1297","lat":36.5172426397273,"lng":127.244506967529,"road":"세종특별자치시 달빛1로 201","region":"세종특별자치시 아름동 1297","building":"범지기마을3단지","method":"address"},"36110|아름동|범지기마을7단지 호반에코시티|1284":{"city_code":"36110","dong":"아름동","name":"범지기마을7단지 호반에코시티","addr":"1284","query":"세종 아름동 1284","lat":36.513691710822,"lng":127.246837507052,"road":"세종특별자치시 달빛1로 158","region":"세종특별자치시 아름동 1284","building":"범지기마을 7단지","method":"address"},"36110|아름동|푸르지오(8단지)|1279":{"city_code":"36110","dong":"아름동","name":"푸르지오(8단지)","addr":"1279","query":"세종 아름동 1279","lat":36.5137352575447,"lng":127.249297469132,"road":"세종특별자치시 달빛로 165","region":"세종특별자치시 아름동 1279","building":"범지기마을 8단지","method":"address"},"36110|아름동|한신엘리트파크(범지기9단지)|1282":{"city_code":"36110","dong":"아름동","name":"한신엘리트파크(범지기9단지)","addr":"1282","query":"세종 아름동 1282","lat":36.5166198021089,"lng":127.246545485088,"road":"세종특별자치시 달빛1로 206","region":"세종특별자치시 아름동 1282","building":"범지기마을9단지","method":"address"},"36110|어진동|더샵레이크파크|613":{"city_code":"36110","dong":"어진동","name":"더샵레이크파크","addr":"613","query":"세종 어진동 613","lat":36.5044154590761,"lng":127.274762780458,"road":"세종특별자치시 다솜로 290","region":"세종특별자치시 어진동 613","building":"한뜰마을3단지","method":"address"},"36110|어진동|더샵센트럴시티|603":{"city_code":"36110","dong":"어진동","name":"더샵센트럴시티","addr":"603","query":"세종 어진동 603","lat":36.5061689033038,"lng":127.269119214019,"road":"세종특별자치시 갈매로 480","region":"세종특별자치시 어진동 603","building":"한뜰마을2단지","method":"address"},"36110|어진동|모닝시티|664":{"city_code":"36110","dong":"어진동","name":"모닝시티","addr":"664","query":"세종 어진동 664","lat":36.4968183979151,"lng":127.258536830912,"road":"세종특별자치시 가름로 170-14","region":"세종특별자치시 어진동 664","building":"모닝시티1차","method":"address"},"36110|어진동|세종리슈빌S|548":{"city_code":"36110","dong":"어진동","name":"세종리슈빌S","addr":"548","query":"세종 어진동 548","lat":36.5078050523849,"lng":127.262234237685,"road":"세종특별자치시 한누리대로 496","region":"세종특별자치시 어진동 548","building":"세종 리슈빌S","method":"address"},"36110|어진동|중흥S클래스센텀뷰한뜰마을6단지|673":{"city_code":"36110","dong":"어진동","name":"중흥S클래스센텀뷰한뜰마을6단지","addr":"673","query":"세종 어진동 673","lat":36.4947437388764,"lng":127.259499494,"road":"세종특별자치시 다솜로 50","region":"세종특별자치시 어진동 673","building":"한뜰마을6단지","method":"address"},"36110|어진동|한뜰마을4단지|520":{"city_code":"36110","dong":"어진동","name":"한뜰마을4단지","addr":"520","query":"세종 어진동 520","lat":36.5000642378223,"lng":127.255582712603,"road":"세종특별자치시 다솜1로 21","region":"세종특별자치시 어진동 520","building":"","method":"address"},"36110|어진동|한뜰마을4단지(한신더휴리저브2)|520":{"city_code":"36110","dong":"어진동","name":"한뜰마을4단지(한신더휴리저브2)","addr":"520","query":"세종 어진동 520","lat":36.5000642378223,"lng":127.255582712603,"road":"세종특별자치시 다솜1로 21","region":"세종특별자치시 어진동 520","building":"","method":"address"},"36110|어진동|한뜰마을5단지|682":{"city_code":"36110","dong":"어진동","name":"한뜰마을5단지","addr":"682","query":"세종 어진동 682","lat":36.49752264365,"lng":127.256536475816,"road":"세종특별자치시 다솜로 7","region":"세종특별자치시 어진동 682","building":"한뜰마을5단지","method":"address"},"36110|어진동|한뜰마을5단지(세종린스트라우스)|682":{"city_code":"36110","dong":"어진동","name":"한뜰마을5단지(세종린스트라우스)","addr":"682","query":"세종 어진동 682","lat":36.49752264365,"lng":127.256536475816,"road":"세종특별자치시 다솜로 7","region":"세종특별자치시 어진동 682","building":"한뜰마을5단지","method":"address"},"36110|어진동|한뜰마을6단지(중흥S클래스센텀뷰)|673":{"city_code":"36110","dong":"어진동","name":"한뜰마을6단지(중흥S클래스센텀뷰)","addr":"673","query":"세종 어진동 673","lat":36.4947437388764,"lng":127.259499494,"road":"세종특별자치시 다솜로 50","region":"세종특별자치시 어진동 673","building":"한뜰마을6단지","method":"address"},"36110|어진동|호수의 아침|649":{"city_code":"36110","dong":"어진동","name":"호수의 아침","addr":"649","query":"세종 어진동 649","lat":36.4948768007424,"lng":127.267313567814,"road":"세종특별자치시 가름로 253","region":"세종특별자치시 어진동 649","building":"호수의아침","method":"address"},"36110|연동면 명학리|다산청정|255":{"city_code":"36110","dong":"연동면 명학리","name":"다산청정","addr":"255","query":"세종 연동면 명학리 255","lat":36.5291738898665,"lng":127.350996725982,"road":"세종특별자치시 연동면 태산로 58","region":"세종특별자치시 연동면 명학리 255","building":"세종청정아파트","method":"address"},"36110|연동면 명학리|세종청정아파트|255":{"city_code":"36110","dong":"연동면 명학리","name":"세종청정아파트","addr":"255","query":"세종 연동면 명학리 255","lat":36.5291738898665,"lng":127.350996725982,"road":"세종특별자치시 연동면 태산로 58","region":"세종특별자치시 연동면 명학리 255","building":"세종청정아파트","method":"address"},"36110|연서면 봉암리|대원네스트빌|622":{"city_code":"36110","dong":"연서면 봉암리","name":"대원네스트빌","addr":"622","query":"세종 연서면 봉암리 622","lat":36.5592992166066,"lng":127.279914481528,"road":"세종특별자치시 연서면 당산로 286","region":"세종특별자치시 연서면 봉암리 622","building":"","method":"address"},"36110|장군면 금암리|금암그린임대아파트|268":{"city_code":"36110","dong":"장군면 금암리","name":"금암그린임대아파트","addr":"268","query":"세종 장군면 금암리 268","lat":36.4423804029809,"lng":127.210298314957,"road":"세종특별자치시 장군면 대학길 56-7","region":"세종특별자치시 장군면 금암리 268","building":"영상마을아파트","method":"address"},"36110|장군면 금암리|영상마을아파트|268":{"city_code":"36110","dong":"장군면 금암리","name":"영상마을아파트","addr":"268","query":"세종 장군면 금암리 268","lat":36.4423804029809,"lng":127.210298314957,"road":"세종특별자치시 장군면 대학길 56-7","region":"세종특별자치시 장군면 금암리 268","building":"영상마을아파트","method":"address"},"36110|장군면 금암리|영조정보마을임대아파트|259-1":{"city_code":"36110","dong":"장군면 금암리","name":"영조정보마을임대아파트","addr":"259-1","query":"세종 장군면 금암리 259-1","lat":36.4484282034954,"lng":127.211220598325,"road":"세종특별자치시 장군면 대학길 118","region":"세종특별자치시 장군면 금암리 259-1","building":"영조정보마을임대아파트","method":"address"},"36110|장군면 금암리|정보마을|259-1":{"city_code":"36110","dong":"장군면 금암리","name":"정보마을","addr":"259-1","query":"세종 장군면 금암리 259-1","lat":36.4484282034954,"lng":127.211220598325,"road":"세종특별자치시 장군면 대학길 118","region":"세종특별자치시 장군면 금암리 259-1","building":"영조정보마을임대아파트","method":"address"},"36110|전동면 노장리|도원|586":{"city_code":"36110","dong":"전동면 노장리","name":"도원","addr":"586","query":"세종 전동면 노장리 586","lat":36.6553676959603,"lng":127.265529718611,"road":"세종특별자치시 전동면 하노장4길 8","region":"세종특별자치시 전동면 노장리 586","building":"도원아파트","method":"address"},"36110|전의면 동교리|성호늘푸른|213-28":{"city_code":"36110","dong":"전의면 동교리","name":"성호늘푸른","addr":"213-28","query":"세종 전의면 동교리 213-28","lat":36.6829510828935,"lng":127.205590218669,"road":"세종특별자치시 전의면 동교동촌2길 16","region":"세종특별자치시 전의면 동교리 213-28","building":"성호늘푸른아파트","method":"address"},"36110|전의면 동교리|재동|197-16":{"city_code":"36110","dong":"전의면 동교리","name":"재동","addr":"197-16","query":"세종 전의면 동교리 197-16","lat":36.6799669765719,"lng":127.207108286115,"road":"세종특별자치시 전의면 운주산로 1170","region":"세종특별자치시 전의면 동교리 197-16","building":"","method":"address"},"36110|전의면 동교리|재동(1,2동)|121-6":{"city_code":"36110","dong":"전의면 동교리","name":"재동(1,2동)","addr":"121-6","query":"세종 전의면 동교리 121-6","lat":36.6804772285685,"lng":127.207555376788,"road":"세종특별자치시 전의면 동신길 11","region":"세종특별자치시 전의면 동교리 121-6","building":"재동아파트","method":"address"},"36110|전의면 동교리|재동(3동)|121":{"city_code":"36110","dong":"전의면 동교리","name":"재동(3동)","addr":"121","query":"세종 전의면 동교리 121","lat":36.6810068371165,"lng":127.207805170979,"road":"세종특별자치시 전의면 동신길 15","region":"세종특별자치시 전의면 동교리 121","building":"재동아파트","method":"address"},"36110|전의면 유천리|민석그린|528":{"city_code":"36110","dong":"전의면 유천리","name":"민석그린","addr":"528","query":"세종 전의면 유천리 528","lat":36.6820510769205,"lng":127.184783641772,"road":"세종특별자치시 전의면 운주산로 1398","region":"세종특별자치시 전의면 유천리 528","building":"민석그린아파트","method":"address"},"36110|조치원읍 교리|(26-3)|26-3":{"city_code":"36110","dong":"조치원읍 교리","name":"(26-3)","addr":"26-3","query":"세종 조치원읍 교리 26-3","lat":36.602286107914,"lng":127.29691861744,"road":null,"region":"세종특별자치시 조치원읍 교리 26-3","building":null,"method":"address"},"36110|조치원읍 교리|계룡|11-1":{"city_code":"36110","dong":"조치원읍 교리","name":"계룡","addr":"11-1","query":"세종 조치원읍 교리 11-1","lat":36.6045905343304,"lng":127.29715825086,"road":"세종특별자치시 조치원읍 새내로 143","region":"세종특별자치시 조치원읍 교리 11-1","building":"계룡아파트","method":"address"},"36110|조치원읍 교리|목화|12-1":{"city_code":"36110","dong":"조치원읍 교리","name":"목화","addr":"12-1","query":"세종 조치원읍 교리 12-1","lat":36.6045821369468,"lng":127.296586188569,"road":"세종특별자치시 조치원읍 새내17길 7","region":"세종특별자치시 조치원읍 교리 12-1","building":"조치원목화아파트","method":"address"},"36110|조치원읍 교리|현대|140":{"city_code":"36110","dong":"조치원읍 교리","name":"현대","addr":"140","query":"세종 조치원읍 교리 140","lat":36.6064046477609,"lng":127.296567011768,"road":"세종특별자치시 조치원읍 새내로 165","region":"세종특별자치시 조치원읍 교리 140","building":"현대아파트","method":"address"},"36110|조치원읍 남리|다원파크리안|456":{"city_code":"36110","dong":"조치원읍 남리","name":"다원파크리안","addr":"456","query":"세종 조치원읍 남리 456","lat":36.5940409765588,"lng":127.300359975907,"road":"세종특별자치시 조치원읍 산책2길 8","region":"세종특별자치시 조치원읍 남리 456","building":"다원파크리안아파트","method":"address"},"36110|조치원읍 남리|세종3차굿애플|351":{"city_code":"36110","dong":"조치원읍 남리","name":"세종3차굿애플","addr":"351","query":"세종 조치원읍 남리 351","lat":36.5957373305315,"lng":127.300662814455,"road":"세종특별자치시 조치원읍 장안길 108","region":"세종특별자치시 조치원읍 남리 351","building":"세종3차 굿애플","method":"address"},"36110|조치원읍 번암리|번암리리치빌3차임대아파트|66-18":{"city_code":"36110","dong":"조치원읍 번암리","name":"번암리리치빌3차임대아파트","addr":"66-18","query":"세종 조치원읍 번암리 66-18","lat":36.5880661126386,"lng":127.295831621637,"road":"세종특별자치시 조치원읍 평안로 26","region":"세종특별자치시 조치원읍 번암리 66-18","building":"리치빌 3차","method":"address"},"36110|조치원읍 번암리|번암주공|75-2":{"city_code":"36110","dong":"조치원읍 번암리","name":"번암주공","addr":"75-2","query":"세종 조치원읍 번암리 75-2","lat":36.5865789663008,"lng":127.293275874708,"road":"세종특별자치시 조치원읍 군청로 23","region":"세종특별자치시 조치원읍 번암리 75-2","building":"번암주공아파트","method":"address"},"36110|조치원읍 봉산리|엘리프세종|372":{"city_code":"36110","dong":"조치원읍 봉산리","name":"엘리프세종","addr":"372","query":"세종 조치원읍 봉산리 372","lat":36.6025861406016,"lng":127.280916746254,"road":"세종특별자치시 조치원읍 서북부4로 10","region":"세종특별자치시 조치원읍 봉산리 372","building":"엘리프세종아파트","method":"address"},"36110|조치원읍 상리|굿애플허브|114-1":{"city_code":"36110","dong":"조치원읍 상리","name":"굿애플허브","addr":"114-1","query":"세종 조치원읍 상리 114-1","lat":36.6028776644561,"lng":127.302205172378,"road":"세종특별자치시 조치원읍 새내12길 78","region":"세종특별자치시 조치원읍 상리 114-1","building":"","method":"address"},"36110|조치원읍 상리|세종파인시티|79-3":{"city_code":"36110","dong":"조치원읍 상리","name":"세종파인시티","addr":"79-3","query":"세종 조치원읍 상리 79-3","lat":36.6010238112425,"lng":127.303493499669,"road":"세종특별자치시 조치원읍 새내10길 95","region":"세종특별자치시 조치원읍 상리 79-3","building":"세종파인시티","method":"address"},"36110|조치원읍 서창리|두진한라|133-10":{"city_code":"36110","dong":"조치원읍 서창리","name":"두진한라","addr":"133-10","query":"세종 조치원읍 서창리 133-10","lat":36.607279076667,"lng":127.285135617038,"road":null,"region":"세종특별자치시 조치원읍 서창리 133-10","building":null,"method":"address"},"36110|조치원읍 신안리|도화|346":{"city_code":"36110","dong":"조치원읍 신안리","name":"도화","addr":"346","query":"세종 조치원읍 신안리 346","lat":36.6175196718621,"lng":127.285748912835,"road":"세종특별자치시 조치원읍 섭골길 85","region":"세종특별자치시 조치원읍 신안리 346","building":"","method":"address"},"36110|조치원읍 신안리|세종e편한세상|542":{"city_code":"36110","dong":"조치원읍 신안리","name":"세종e편한세상","addr":"542","query":"세종 조치원읍 신안리 542","lat":36.6153548401926,"lng":127.284631581438,"road":"세종특별자치시 조치원읍 섭골길 59","region":"세종특별자치시 조치원읍 신안리 542","building":"e-편한세상 세종","method":"address"},"36110|조치원읍 신안리|유니빌|35-3":{"city_code":"36110","dong":"조치원읍 신안리","name":"유니빌","addr":"35-3","query":"세종 조치원읍 신안리 35-3","lat":36.6149260357522,"lng":127.291618805163,"road":"세종특별자치시 조치원읍 신안새동네길 26-10","region":"세종특별자치시 조치원읍 신안리 35-3","building":"일신유니-빌 아파트","method":"address"},"36110|조치원읍 신안리|조형|244-1":{"city_code":"36110","dong":"조치원읍 신안리","name":"조형","addr":"244-1","query":"세종 조치원읍 신안리 244-1","lat":36.6350057385841,"lng":127.289417736067,"road":"세종특별자치시 조치원읍 운주산로 60","region":"세종특별자치시 조치원읍 신안리 244-1","building":"조형아파트","method":"address"},"36110|조치원읍 신흥리|신흥대우푸르지오|398":{"city_code":"36110","dong":"조치원읍 신흥리","name":"신흥대우푸르지오","addr":"398","query":"세종 조치원읍 신흥리 398","lat":36.5923165048955,"lng":127.289638980646,"road":"세종특별자치시 조치원읍 도원1로 16","region":"세종특별자치시 조치원읍 신흥리 398","building":"푸르지오1차","method":"address"},"36110|조치원읍 신흥리|신흥주공|393":{"city_code":"36110","dong":"조치원읍 신흥리","name":"신흥주공","addr":"393","query":"세종 조치원읍 신흥리 393","lat":36.5940631972405,"lng":127.289745639183,"road":"세종특별자치시 조치원읍 이화로 5","region":"세종특별자치시 조치원읍 신흥리 393","building":"신흥주공2단지","method":"address"},"36110|조치원읍 신흥리|조치원신흥e편한세상(아)|399":{"city_code":"36110","dong":"조치원읍 신흥리","name":"조치원신흥e편한세상(아)","addr":"399","query":"세종 조치원읍 신흥리 399","lat":36.5934296148183,"lng":127.285897988176,"road":"세종특별자치시 조치원읍 이화1로 15","region":"세종특별자치시 조치원읍 신흥리 399","building":"조치원 신흥 e-편한세상 아파트","method":"address"},"36110|조치원읍 원리|대도|2-3":{"city_code":"36110","dong":"조치원읍 원리","name":"대도","addr":"2-3","query":"세종 조치원읍 원리 2-3","lat":36.6023203094639,"lng":127.300029727751,"road":"세종특별자치시 조치원읍 새내12길 40","region":"세종특별자치시 조치원읍 원리 2-3","building":"대도아파트","method":"address"},"36110|조치원읍 원리|세종스카이뷰|2-11":{"city_code":"36110","dong":"조치원읍 원리","name":"세종스카이뷰","addr":"2-11","query":"세종 조치원읍 원리 2-11","lat":36.6021077980859,"lng":127.299644769507,"road":"세종특별자치시 조치원읍 조치원5길 12-9","region":"세종특별자치시 조치원읍 원리 2-11","building":"세종스카이뷰","method":"address"},"36110|조치원읍 정리|풍산|59-1":{"city_code":"36110","dong":"조치원읍 정리","name":"풍산","addr":"59-1","query":"세종 조치원읍 정리 59-1","lat":36.5989232842948,"lng":127.300029649749,"road":"세종특별자치시 조치원읍 새내8길 22-13","region":"세종특별자치시 조치원읍 정리 59-1","building":"풍산아파트","method":"address"},"36110|조치원읍 죽림리|삼일|21-2":{"city_code":"36110","dong":"조치원읍 죽림리","name":"삼일","addr":"21-2","query":"세종 조치원읍 죽림리 21-2","lat":36.5952585762019,"lng":127.297205050672,"road":"세종특별자치시 조치원읍 충현로 72","region":"세종특별자치시 조치원읍 죽림리 21-2","building":"조치원삼일아파트","method":"address"},"36110|조치원읍 죽림리|삼정하이츠|167":{"city_code":"36110","dong":"조치원읍 죽림리","name":"삼정하이츠","addr":"167","query":"세종 조치원읍 죽림리 167","lat":36.5909690755315,"lng":127.295857228454,"road":"세종특별자치시 조치원읍 도장말길 45","region":"세종특별자치시 조치원읍 죽림리 167","building":"삼정하이츠","method":"address"},"36110|조치원읍 죽림리|신동아|92":{"city_code":"36110","dong":"조치원읍 죽림리","name":"신동아","addr":"92","query":"세종 조치원읍 죽림리 92","lat":36.5929844499015,"lng":127.296375961555,"road":"세종특별자치시 조치원읍 산막2길 7","region":"세종특별자치시 조치원읍 죽림리 92","building":"신동아아파트","method":"address"},"36110|조치원읍 죽림리|조치원신동아파밀리에|393":{"city_code":"36110","dong":"조치원읍 죽림리","name":"조치원신동아파밀리에","addr":"393","query":"세종 조치원읍 죽림리 393","lat":36.5897001424277,"lng":127.29775364541,"road":"세종특별자치시 조치원읍 도장말길 30","region":"세종특별자치시 조치원읍 죽림리 393","building":"조치원 신동아파밀리에","method":"address"},"36110|조치원읍 죽림리|조치원죽림자이|396":{"city_code":"36110","dong":"조치원읍 죽림리","name":"조치원죽림자이","addr":"396","query":"세종 조치원읍 죽림리 396","lat":36.5899131178445,"lng":127.289990495945,"road":"세종특별자치시 조치원읍 도원로 16","region":"세종특별자치시 조치원읍 죽림리 396","building":"자이아파트","method":"address"},"36110|조치원읍 죽림리|죽림대우푸르지오|389":{"city_code":"36110","dong":"조치원읍 죽림리","name":"죽림대우푸르지오","addr":"389","query":"세종 조치원읍 죽림리 389","lat":36.5903098674111,"lng":127.294593304152,"road":"세종특별자치시 조치원읍 죽림본로 33-6","region":"세종특별자치시 조치원읍 죽림리 389","building":"죽림푸르지오","method":"address"},"36110|조치원읍 죽림리|죽림우방유셀|72":{"city_code":"36110","dong":"조치원읍 죽림리","name":"죽림우방유셀","addr":"72","query":"세종 조치원읍 죽림리 72","lat":36.5934848502384,"lng":127.295033271683,"road":"세종특별자치시 조치원읍 산막길 17","region":"세종특별자치시 조치원읍 죽림리 72","building":"우방유쉘아파트","method":"address"},"36110|조치원읍 침산리|욱일아파트|89":{"city_code":"36110","dong":"조치원읍 침산리","name":"욱일아파트","addr":"89","query":"세종 조치원읍 침산리 89","lat":36.6025164316267,"lng":127.292769207097,"road":"세종특별자치시 조치원읍 충현로 159","region":"세종특별자치시 조치원읍 침산리 89","building":"욱일아파트","method":"address"},"36110|종촌동|가재마을10단지|656":{"city_code":"36110","dong":"종촌동","name":"가재마을10단지","addr":"656","query":"세종 종촌동 656","lat":36.5023879708355,"lng":127.252316496299,"road":"세종특별자치시 도움1로 74","region":"세종특별자치시 종촌동 656","building":"가재마을10단지","method":"address"},"36110|종촌동|가재마을11단지|654":{"city_code":"36110","dong":"종촌동","name":"가재마을11단지","addr":"654","query":"세종 종촌동 654","lat":36.5037068192818,"lng":127.25197172997,"road":"세종특별자치시 도움3로 75","region":"세종특별자치시 종촌동 654","building":"가재마을 11단지","method":"address"},"36110|종촌동|가재마을12단지|652":{"city_code":"36110","dong":"종촌동","name":"가재마을12단지","addr":"652","query":"세종 종촌동 652","lat":36.5058126531557,"lng":127.252007353862,"road":"세종특별자치시 달빛로 80","region":"세종특별자치시 종촌동 652","building":"가재마을 12단지","method":"address"},"36110|종촌동|가재마을2단지|683":{"city_code":"36110","dong":"종촌동","name":"가재마을2단지","addr":"683","query":"세종 종촌동 683","lat":36.502731854091,"lng":127.243776755288,"road":"세종특별자치시 달빛1로 39","region":"세종특별자치시 종촌동 683","building":"가재마을2단지","method":"address"},"36110|종촌동|가재마을3단지|679":{"city_code":"36110","dong":"종촌동","name":"가재마을3단지","addr":"679","query":"세종 종촌동 679","lat":36.5043274504416,"lng":127.24319751691,"road":"세종특별자치시 도움3로 159","region":"세종특별자치시 종촌동 679","building":"가재마을3단지","method":"address"},"36110|종촌동|가재마을4단지(센트레빌)|640":{"city_code":"36110","dong":"종촌동","name":"가재마을4단지(센트레빌)","addr":"640","query":"세종 종촌동 640","lat":36.5067677998648,"lng":127.243231159373,"road":"세종특별자치시 도움3로 160","region":"세종특별자치시 종촌동 640","building":"가재마을4단지","method":"address"},"36110|종촌동|가재마을5단지|690":{"city_code":"36110","dong":"종촌동","name":"가재마을5단지","addr":"690","query":"세종 종촌동 690","lat":36.5007791223162,"lng":127.247331839402,"road":"세종특별자치시 도움1로 105","region":"세종특별자치시 종촌동 690","building":"가재마을 5단지","method":"address"},"36110|종촌동|가재마을6단지|644":{"city_code":"36110","dong":"종촌동","name":"가재마을6단지","addr":"644","query":"세종 종촌동 644","lat":36.5059023857643,"lng":127.245885830159,"road":"세종특별자치시 달빛1로 74","region":"세종특별자치시 종촌동 644","building":"가재마을6단지","method":"address"},"36110|종촌동|가재마을7단지|649":{"city_code":"36110","dong":"종촌동","name":"가재마을7단지","addr":"649","query":"세종 종촌동 649","lat":36.5066824177709,"lng":127.248195972685,"road":"세종특별자치시 달빛로 77","region":"세종특별자치시 종촌동 649","building":"가재마을 7단지","method":"address"},"36110|종촌동|가재마을7단지(중흥S클래스센터파크1차)|649":{"city_code":"36110","dong":"종촌동","name":"가재마을7단지(중흥S클래스센터파크1차)","addr":"649","query":"세종 종촌동 649","lat":36.5066824177709,"lng":127.248195972685,"road":"세종특별자치시 달빛로 77","region":"세종특별자치시 종촌동 649","building":"가재마을 7단지","method":"address"},"36110|종촌동|가재마을8단지|692":{"city_code":"36110","dong":"종촌동","name":"가재마을8단지","addr":"692","query":"세종 종촌동 692","lat":36.4999353460983,"lng":127.250324755044,"road":"세종특별자치시 달빛로 16","region":"세종특별자치시 종촌동 692","building":"가재마을8단지","method":"address"},"36110|종촌동|가재마을9단지|697":{"city_code":"36110","dong":"종촌동","name":"가재마을9단지","addr":"697","query":"세종 종촌동 697","lat":36.5005471876881,"lng":127.252993964897,"road":"세종특별자치시 도움1로 55","region":"세종특별자치시 종촌동 697","building":"가재마을9단지","method":"address"},"36110|집현동|새나루마을10단지|1185":{"city_code":"36110","dong":"집현동","name":"새나루마을10단지","addr":"1185","query":"세종 집현동 1185","lat":36.4936780244206,"lng":127.323764597045,"road":"세종특별자치시 시청대로 643","region":"세종특별자치시 집현동 1185","building":"새나루마을 10단지","method":"address"},"36110|집현동|새나루마을10단지|가-":{"city_code":"36110","dong":"집현동","name":"새나루마을10단지","addr":"가-","query":"세종 집현동 새나루마을10단지","lat":36.493761521292065,"lng":127.32394541593433,"road":"세종특별자치시 시청대로 643","region":"세종특별자치시 집현동 1185","building":"새나루마을10단지아파트","method":"keyword"},"36110|집현동|새나루마을11단지세종어울림파밀리에센트럴|1181":{"city_code":"36110","dong":"집현동","name":"새나루마을11단지세종어울림파밀리에센트럴","addr":"1181","query":"세종 집현동 1181","lat":36.4969423662624,"lng":127.323765014913,"road":"세종특별자치시 집현서2로 84","region":"세종특별자치시 집현동 1181","building":"새나루마을 11단지","method":"address"},"36110|집현동|새나루마을11단지세종어울림파밀리에센트럴|889":{"city_code":"36110","dong":"집현동","name":"새나루마을11단지세종어울림파밀리에센트럴","addr":"889","query":"세종 집현동 새나루마을11단지세종어울림파밀리에센트럴","lat":36.4966952013277,"lng":127.32379021507006,"road":"세종특별자치시 집현서2로 84","region":"세종특별자치시 집현동 1181","building":"새나루마을11단지세종어울림파밀리에센트럴아파트","method":"keyword"},"36110|집현동|새나루마을1단지세종자이e편한세상|1201":{"city_code":"36110","dong":"집현동","name":"새나루마을1단지세종자이e편한세상","addr":"1201","query":"세종 집현동 1201","lat":36.4861572754007,"lng":127.31917274163,"road":"세종특별자치시 남세종로 160","region":"세종특별자치시 집현동 1201","building":"새나루마을1단지","method":"address"},"36110|집현동|새나루마을1단지세종자이e편한세상|4-2":{"city_code":"36110","dong":"집현동","name":"새나루마을1단지세종자이e편한세상","addr":"4-2","query":"세종 집현동 새나루마을1단지세종자이e편한세상","lat":36.486179483195,"lng":127.318483492571,"road":"세종특별자치시 남세종로 160","region":"세종특별자치시 집현동 1201","building":"새나루마을1단지세종자이e편한세상아파트","method":"keyword"},"36110|집현동|새나루마을2단지세종하늘채센트레빌|1191":{"city_code":"36110","dong":"집현동","name":"새나루마을2단지세종하늘채센트레빌","addr":"1191","query":"세종 집현동 1191","lat":36.488109544867,"lng":127.321353280387,"road":"세종특별자치시 집현서로 15","region":"세종특별자치시 집현동 1191","building":"새나루마을2단지","method":"address"},"36110|집현동|새나루마을2단지세종하늘채센트레빌|883-115":{"city_code":"36110","dong":"집현동","name":"새나루마을2단지세종하늘채센트레빌","addr":"883-115","query":"세종 집현동 새나루마을2단지세종하늘채센트레빌","lat":36.48815880270371,"lng":127.3213664295295,"road":"세종특별자치시 집현서로 15","region":"세종특별자치시 집현동 1191","building":"새나루마을2단지세종하늘채센트레빌아파트","method":"keyword"},"36110|집현동|새나루마을3단지|1189":{"city_code":"36110","dong":"집현동","name":"새나루마을3단지","addr":"1189","query":"세종 집현동 1189","lat":36.4907467239615,"lng":127.32056899224,"road":"세종특별자치시 집현서로 45","region":"세종특별자치시 집현동 1189","building":"새나루마을 3단지","method":"address"},"36110|집현동|새나루마을3단지|4201-20-1":{"city_code":"36110","dong":"집현동","name":"새나루마을3단지","addr":"4201-20-1","query":"세종 집현동 새나루마을3단지","lat":36.490823684817734,"lng":127.32063526766608,"road":"세종특별자치시 집현서로 45","region":"세종특별자치시 집현동 1189","building":"새나루마을3단지세종더휴예미지아파트","method":"keyword"},"36110|집현동|새나루마을4단지|1187":{"city_code":"36110","dong":"집현동","name":"새나루마을4단지","addr":"1187","query":"세종 집현동 1187","lat":36.4926523078737,"lng":127.321339233639,"road":"세종특별자치시 집현서로 57","region":"세종특별자치시 집현동 1187","building":"새나루마을 4단지","method":"address"},"36110|집현동|새나루마을4단지|4201-10-1":{"city_code":"36110","dong":"집현동","name":"새나루마을4단지","addr":"4201-10-1","query":"세종 집현동 새나루마을4단지","lat":36.49270954551237,"lng":127.3214008540743,"road":"세종특별자치시 집현서로 57","region":"세종특별자치시 집현동 1187","building":"새나루마을4단지세종더휴예미지아파트","method":"keyword"},"36110|집현동|새나루마을8단지세종하늘채센트레빌|1196":{"city_code":"36110","dong":"집현동","name":"새나루마을8단지세종하늘채센트레빌","addr":"1196","query":"세종 집현동 1196","lat":36.4894291783812,"lng":127.32229585778,"road":"세종특별자치시 집현서로 16","region":"세종특별자치시 집현동 1196","building":"새나루마을8단지","method":"address"},"36110|집현동|새나루마을8단지세종하늘채센트레빌|4202-50-1":{"city_code":"36110","dong":"집현동","name":"새나루마을8단지세종하늘채센트레빌","addr":"4202-50-1","query":"세종 집현동 새나루마을8단지세종하늘채센트레빌","lat":36.489611353153315,"lng":127.3224103357462,"road":"세종특별자치시 집현서로 16","region":"세종특별자치시 집현동 1196","building":"새나루마을8단지세종하늘채센트레빌아파트","method":"keyword"},"36110|집현동|새나루마을9단지세종어울림파밀리에센트럴|1192":{"city_code":"36110","dong":"집현동","name":"새나루마을9단지세종어울림파밀리에센트럴","addr":"1192","query":"세종 집현동 1192","lat":36.4921892367891,"lng":127.323395121363,"road":"세종특별자치시 시청대로 642","region":"세종특별자치시 집현동 1192","building":"새나루마을 9단지","method":"address"},"36110|집현동|새나루마을9단지세종어울림파밀리에센트럴|883-11":{"city_code":"36110","dong":"집현동","name":"새나루마을9단지세종어울림파밀리에센트럴","addr":"883-11","query":"세종 집현동 새나루마을9단지세종어울림파밀리에센트럴","lat":36.49222615935964,"lng":127.3235372383934,"road":"세종특별자치시 시청대로 642","region":"세종특별자치시 집현동 1192","building":"새나루마을9단지세종어울림파밀리에센트럴아파트","method":"keyword"},"36110|한솔동|첫마을1단지(퍼스트프라임)|939":{"city_code":"36110","dong":"한솔동","name":"첫마을1단지(퍼스트프라임)","addr":"939","query":"세종 한솔동 939","lat":36.4813987647382,"lng":127.258172357564,"road":"세종특별자치시 노을3로 14","region":"세종특별자치시 한솔동 939","building":"첫마을1단지","method":"address"},"36110|한솔동|첫마을2단지(퍼스트프라임)|940":{"city_code":"36110","dong":"한솔동","name":"첫마을2단지(퍼스트프라임)","addr":"940","query":"세종 한솔동 940","lat":36.4814511970931,"lng":127.259840040033,"road":"세종특별자치시 노을3로 19","region":"세종특별자치시 한솔동 940","building":"첫마을2단지","method":"address"},"36110|한솔동|첫마을3단지(퍼스트프라임)|947":{"city_code":"36110","dong":"한솔동","name":"첫마을3단지(퍼스트프라임)","addr":"947","query":"세종 한솔동 947","lat":36.4794351890091,"lng":127.261461160352,"road":"세종특별자치시 나리1로 16","region":"세종특별자치시 한솔동 947","building":"첫마을3단지","method":"address"},"36110|한솔동|첫마을4단지(대우푸르지오)|1226":{"city_code":"36110","dong":"한솔동","name":"첫마을4단지(대우푸르지오)","addr":"1226","query":"세종 한솔동 1226","lat":36.4806173109339,"lng":127.252173694495,"road":"세종특별자치시 누리로 119","region":"세종특별자치시 한솔동 1226","building":"첫마을4단지","method":"address"},"36110|한솔동|첫마을5단지(푸르지오)|971":{"city_code":"36110","dong":"한솔동","name":"첫마을5단지(푸르지오)","addr":"971","query":"세종 한솔동 971","lat":36.4778503421148,"lng":127.251599991693,"road":"세종특별자치시 누리로 54","region":"세종특별자치시 한솔동 971","building":"첫마을5단지","method":"address"},"36110|한솔동|첫마을6단지(힐스테이트)|974":{"city_code":"36110","dong":"한솔동","name":"첫마을6단지(힐스테이트)","addr":"974","query":"세종 한솔동 974","lat":36.4760634765042,"lng":127.253580737971,"road":"세종특별자치시 누리로 28","region":"세종특별자치시 한솔동 974","building":"첫마을6단지","method":"address"},"36110|한솔동|첫마을7단지(래미안)|976":{"city_code":"36110","dong":"한솔동","name":"첫마을7단지(래미안)","addr":"976","query":"세종 한솔동 976","lat":36.4759470995208,"lng":127.255751883397,"road":"세종특별자치시 나리로 57","region":"세종특별자치시 한솔동 976","building":"첫마을7단지","method":"address"},"36110|해밀동|해밀마을1단지|6401-1":{"city_code":"36110","dong":"해밀동","name":"해밀마을1단지","addr":"6401-1","query":"세종 해밀동 해밀마을1단지","lat":36.52617580210078,"lng":127.26568363405813,"road":"세종특별자치시 해밀3로 32","region":"세종특별자치시 해밀동 649","building":"해밀마을1단지세종마스터힐스아파트","method":"keyword"},"36110|해밀동|해밀마을1단지|649":{"city_code":"36110","dong":"해밀동","name":"해밀마을1단지","addr":"649","query":"세종 해밀동 649","lat":36.5271102297506,"lng":127.265592032923,"road":"세종특별자치시 해밀3로 32","region":"세종특별자치시 해밀동 649","building":"해밀마을1단지","method":"address"},"36110|해밀동|해밀마을2단지|6402-1":{"city_code":"36110","dong":"해밀동","name":"해밀마을2단지","addr":"6402-1","query":"세종 해밀동 해밀마을2단지","lat":36.52979950127835,"lng":127.26922450426973,"road":"세종특별자치시 해밀3로 90","region":"세종특별자치시 해밀동 635","building":"해밀마을2단지세종마스터힐스아파트","method":"keyword"},"36110|해밀동|해밀마을2단지|635":{"city_code":"36110","dong":"해밀동","name":"해밀마을2단지","addr":"635","query":"세종 해밀동 635","lat":36.5288277267956,"lng":127.269890533802,"road":"세종특별자치시 해밀3로 90","region":"세종특별자치시 해밀동 635","building":"해밀마을2단지","method":"address"}}