{"45111|경원동3가|동부시장상가|90-13":{"city_code":"45111","dong":"경원동3가","name":"동부시장상가","addr":"90-13","query":"전라북도 경원동3가 90-13","lat":35.8200862071805,"lng":127.151217124641,"road":"전북특별자치도 전주시 완산구 충경로 109","region":"전북특별자치도 전주시 완산구 경원동3가 90-13","building":"동부시장","method":"address"},"45111|교동|효성교동|964":{"city_code":"45111","dong":"교동","name":"효성교동","addr":"964","query":"전라북도 교동 964","lat":35.8158325144957,"lng":127.160879206918,"road":"전북특별자치도 전주시 완산구 간납대1길 56","region":"전북특별자치도 전주시 완산구 교동 964","building":"전주나눔교회","method":"address"},"45111|남노송동|원산파크|64":{"city_code":"45111","dong":"남노송동","name":"원산파크","addr":"64","query":"전라북도 남노송동 64","lat":35.8178658119011,"lng":127.159621505759,"road":"전북특별자치도 전주시 완산구 간납로 50","region":"전북특별자치도 전주시 완산구 남노송동 64","building":"원산파크아파트 상가","method":"address"},"45111|다가동1가|천궁|61":{"city_code":"45111","dong":"다가동1가","name":"천궁","addr":"61","query":"전라북도 다가동1가 61","lat":35.8148579571309,"lng":127.14132417531,"road":"전북특별자치도 전주시 완산구 전라감영로 19-5","region":"전북특별자치도 전주시 완산구 다가동1가 61","building":"천궁아파트","method":"address"},"45111|다가동2가|천변솔스빌A동|71":{"city_code":"45111","dong":"다가동2가","name":"천변솔스빌A동","addr":"71","query":"전라북도 다가동2가 71","lat":35.8133758147789,"lng":127.140802604315,"road":"전북특별자치도 전주시 완산구 전주천동로 186","region":"전북특별자치도 전주시 완산구 다가동2가 71","building":"","method":"address"},"45111|다가동3가|스타타운|124-3":{"city_code":"45111","dong":"다가동3가","name":"스타타운","addr":"124-3","query":"전라북도 다가동3가 124-3","lat":35.8157938182554,"lng":127.141177559371,"road":"전북특별자치도 전주시 완산구 전라감영2길 25-6","region":"전북특별자치도 전주시 완산구 다가동3가 124-3","building":"","method":"address"},"45111|대성동|대성영동|17":{"city_code":"45111","dong":"대성동","name":"대성영동","addr":"17","query":"전라북도 대성동 17","lat":35.7983814521536,"lng":127.178094182531,"road":"전북특별자치도 전주시 완산구 고덕산1길 16","region":"전북특별자치도 전주시 완산구 대성동 17","building":"영동아파트","method":"address"},"45111|대성동|대성참조은|466-1":{"city_code":"45111","dong":"대성동","name":"대성참조은","addr":"466-1","query":"전라북도 대성동 466-1","lat":35.7969141705035,"lng":127.171288386872,"road":"전북특별자치도 전주시 완산구 객원길 64","region":"전북특별자치도 전주시 완산구 대성동 466-1","building":"대성참좋은아파트 상가","method":"address"},"45111|대성동|영동고덕|19":{"city_code":"45111","dong":"대성동","name":"영동고덕","addr":"19","query":"전라북도 대성동 19","lat":35.7980609460351,"lng":127.178955479612,"road":"전북특별자치도 전주시 완산구 고덕산2길 15","region":"전북특별자치도 전주시 완산구 대성동 19","building":"","method":"address"},"45111|동서학동|거산황궁맨션|290-3":{"city_code":"45111","dong":"동서학동","name":"거산황궁맨션","addr":"290-3","query":"전라북도 동서학동 290-3","lat":35.8049821018749,"lng":127.153110264251,"road":"전북특별자치도 전주시 완산구 장승배기로 396","region":"전북특별자치도 전주시 완산구 동서학동 290-3","building":"거산황궁아파트","method":"address"},"45111|동서학동|남고|853-1":{"city_code":"45111","dong":"동서학동","name":"남고","addr":"853-1","query":"전라북도 동서학동 853-1","lat":35.806580153455,"lng":127.158379118364,"road":"전북특별자치도 전주시 완산구 남고산성2길 16","region":"전북특별자치도 전주시 완산구 동서학동 853-1","building":"남고아파트","method":"address"},"45111|동서학동|대산아파트|271-5":{"city_code":"45111","dong":"동서학동","name":"대산아파트","addr":"271-5","query":"전라북도 동서학동 271-5","lat":35.8051720294038,"lng":127.154914798953,"road":"전북특별자치도 전주시 완산구 학봉2길 16","region":"전북특별자치도 전주시 완산구 동서학동 271-5","building":"대산 신천지아파트 경로당","method":"address"},"45111|동서학동|대아산성|839-1":{"city_code":"45111","dong":"동서학동","name":"대아산성","addr":"839-1","query":"전라북도 동서학동 839-1","lat":35.8045053598241,"lng":127.156312064837,"road":"전북특별자치도 전주시 완산구 남고산성1길 35","region":"전북특별자치도 전주시 완산구 동서학동 839-1","building":"대아 산성아파트 상가","method":"address"},"45111|동서학동|진흥하이츠|279-4":{"city_code":"45111","dong":"동서학동","name":"진흥하이츠","addr":"279-4","query":"전라북도 동서학동 279-4","lat":35.8059868956422,"lng":127.154677401252,"road":"전북특별자치도 전주시 완산구 학봉2길 11","region":"전북특별자치도 전주시 완산구 동서학동 279-4","building":"진흥하이츠아파트","method":"address"},"45111|동서학동|푸른숲빌라A동|840-2":{"city_code":"45111","dong":"동서학동","name":"푸른숲빌라A동","addr":"840-2","query":"전라북도 동서학동 840-2","lat":35.8058789924477,"lng":127.157677714996,"road":"전북특별자치도 전주시 완산구 남고산성1길 19","region":"전북특별자치도 전주시 완산구 동서학동 840-2","building":"푸른숲빌라","method":"address"},"45111|동완산동|태화청학|304-3":{"city_code":"45111","dong":"동완산동","name":"태화청학","addr":"304-3","query":"전라북도 동완산동 304-3","lat":35.8102369310523,"lng":127.141622031032,"road":"전북특별자치도 전주시 완산구 완산4길 22","region":"전북특별자치도 전주시 완산구 동완산동 304-3","building":"태화아파트","method":"address"},"45111|삼천동1가|개나리1차|705-1":{"city_code":"45111","dong":"삼천동1가","name":"개나리1차","addr":"705-1","query":"전라북도 삼천동1가 705-1","lat":35.7967662095084,"lng":127.127702370956,"road":"전북특별자치도 전주시 완산구 용리로 162","region":"전북특별자치도 전주시 완산구 삼천동1가 705-1","building":"개나리아파트","method":"address"},"45111|삼천동1가|개나리2차|705-2":{"city_code":"45111","dong":"삼천동1가","name":"개나리2차","addr":"705-2","query":"전라북도 삼천동1가 705-2","lat":35.7974400517697,"lng":127.127732986689,"road":"전북특별자치도 전주시 완산구 용리로 164","region":"전북특별자치도 전주시 완산구 삼천동1가 705-2","building":"개나리아파트","method":"address"},"45111|삼천동1가|광진공작|138-6":{"city_code":"45111","dong":"삼천동1가","name":"광진공작","addr":"138-6","query":"전라북도 삼천동1가 138-6","lat":35.8015644911243,"lng":127.127574082337,"road":"전북특별자치도 전주시 완산구 백제대로 86","region":"전북특별자치도 전주시 완산구 삼천동1가 138-6","building":"광진공작아파트","method":"address"},"45111|삼천동1가|광진궁전맨션|705-6":{"city_code":"45111","dong":"삼천동1가","name":"광진궁전맨션","addr":"705-6","query":"전라북도 삼천동1가 705-6","lat":35.7955511550215,"lng":127.128773484096,"road":"전북특별자치도 전주시 완산구 장승배기로 145","region":"전북특별자치도 전주시 완산구 삼천동1가 705-6","building":"광진궁전아파트","method":"address"},"45111|삼천동1가|광진목화|585":{"city_code":"45111","dong":"삼천동1가","name":"광진목화","addr":"585","query":"전라북도 삼천동1가 585","lat":35.8015908249485,"lng":127.124549422291,"road":"전북특별자치도 전주시 완산구 백제대로 101","region":"전북특별자치도 전주시 완산구 삼천동1가 585","building":"광진목화아파트","method":"address"},"45111|삼천동1가|대왕장미타운|305-10":{"city_code":"45111","dong":"삼천동1가","name":"대왕장미타운","addr":"305-10","query":"전라북도 삼천동1가 305-10","lat":35.7919691838168,"lng":127.115917146113,"road":"전북특별자치도 전주시 완산구 난전들로 257","region":"전북특별자치도 전주시 완산구 삼천동1가 305-10","building":"대왕장미아파트","method":"address"},"45111|삼천동1가|뜨란채4단지|767-1":{"city_code":"45111","dong":"삼천동1가","name":"뜨란채4단지","addr":"767-1","query":"전라북도 삼천동1가 767-1","lat":35.7931680410932,"lng":127.115734813563,"road":"전북특별자치도 전주시 완산구 거마평로 7","region":"전북특별자치도 전주시 완산구 삼천동1가 767-1","building":"삼천주공4단지","method":"address"},"45111|삼천동1가|뜨란채5단지|766-1":{"city_code":"45111","dong":"삼천동1가","name":"뜨란채5단지","addr":"766-1","query":"전라북도 삼천동1가 766-1","lat":35.793215830091,"lng":127.113728213279,"road":"전북특별자치도 전주시 완산구 장승배기로 13","region":"전북특별자치도 전주시 완산구 삼천동1가 766-1","building":"삼천주공5단지","method":"address"},"45111|삼천동1가|삼천남양|290-8":{"city_code":"45111","dong":"삼천동1가","name":"삼천남양","addr":"290-8","query":"전라북도 삼천동1가 290-8","lat":35.79439219386,"lng":127.113501785139,"road":"전북특별자치도 전주시 완산구 삼천천변1길 22","region":"전북특별자치도 전주시 완산구 삼천동1가 290-8","building":"삼천남양아파트","method":"address"},"45111|삼천동1가|삼천동두일하나|306-8":{"city_code":"45111","dong":"삼천동1가","name":"삼천동두일하나","addr":"306-8","query":"전라북도 삼천동1가 306-8","lat":35.7917453195227,"lng":127.118496018615,"road":"전북특별자치도 전주시 완산구 장승배기로 48","region":"전북특별자치도 전주시 완산구 삼천동1가 306-8","building":"삼천동 두일하나아파트 상가","method":"address"},"45111|삼천동1가|삼천삼익|590-1":{"city_code":"45111","dong":"삼천동1가","name":"삼천삼익","addr":"590-1","query":"전라북도 삼천동1가 590-1","lat":35.7978153563639,"lng":127.124710577166,"road":"전북특별자치도 전주시 완산구 용리로 127","region":"전북특별자치도 전주시 완산구 삼천동1가 590-1","building":"","method":"address"},"45111|삼천동1가|삼천주공(2)|585-12":{"city_code":"45111","dong":"삼천동1가","name":"삼천주공(2)","addr":"585-12","query":"전라북도 삼천동1가 삼천주공(2)","lat":35.79912034927381,"lng":127.12474580546193,"road":"전북특별자치도 전주시 완산구 용리로 165","region":"전북특별자치도 전주시 완산구 삼천동1가 772","building":"이안전주삼천아파트","method":"keyword"},"45111|삼천동1가|삼천주공3단지|585-4":{"city_code":"45111","dong":"삼천동1가","name":"삼천주공3단지","addr":"585-4","query":"전라북도 삼천동1가 585-4","lat":35.7982182978851,"lng":127.124810329723,"road":"전북특별자치도 전주시 완산구 용리로 157","region":"전북특별자치도 전주시 완산구 삼천동1가 585-4","building":"삼천주공3단지","method":"address"},"45111|삼천동1가|삼천하이츠|722-2":{"city_code":"45111","dong":"삼천동1가","name":"삼천하이츠","addr":"722-2","query":"전라북도 삼천동1가 722-2","lat":35.8008264883848,"lng":127.112838959391,"road":"전북특별자치도 전주시 완산구 강변로 106","region":"전북특별자치도 전주시 완산구 삼천동1가 722-2","building":"삼천하이츠","method":"address"},"45111|삼천동1가|세경|585-3":{"city_code":"45111","dong":"삼천동1가","name":"세경","addr":"585-3","query":"전라북도 삼천동1가 585-3","lat":35.7993786274532,"lng":127.122578307916,"road":"전북특별자치도 전주시 완산구 성지산로 30","region":"전북특별자치도 전주시 완산구 삼천동1가 585-3","building":"삼천세경아파트","method":"address"},"45111|삼천동1가|세창짜임|585-10":{"city_code":"45111","dong":"삼천동1가","name":"세창짜임","addr":"585-10","query":"전라북도 삼천동1가 585-10","lat":35.7997479458004,"lng":127.12702510691,"road":"전북특별자치도 전주시 완산구 용리로 177","region":"전북특별자치도 전주시 완산구 삼천동1가 585-10","building":"세창짜임아파트 상가","method":"address"},"45111|삼천동1가|신일|705-4":{"city_code":"45111","dong":"삼천동1가","name":"신일","addr":"705-4","query":"전라북도 삼천동1가 705-4","lat":35.7971518510421,"lng":127.129564282182,"road":"전북특별자치도 전주시 완산구 백제대로 31","region":"전북특별자치도 전주시 완산구 삼천동1가 705-4","building":"신일아파트","method":"address"},"45111|삼천동1가|신일강변|723-2":{"city_code":"45111","dong":"삼천동1가","name":"신일강변","addr":"723-2","query":"전라북도 삼천동1가 723-2","lat":35.7997258197577,"lng":127.112599547805,"road":"전북특별자치도 전주시 완산구 강변로 96","region":"전북특별자치도 전주시 완산구 삼천동1가 723-2","building":"신일강변아파트","method":"address"},"45111|삼천동1가|쌍용1단지|585-5":{"city_code":"45111","dong":"삼천동1가","name":"쌍용1단지","addr":"585-5","query":"전라북도 삼천동1가 쌍용1단지","error":"not found"},"45111|삼천동1가|쌍용2단지|585-2":{"city_code":"45111","dong":"삼천동1가","name":"쌍용2단지","addr":"585-2","query":"전라북도 삼천동1가 585-2","lat":35.7997857785979,"lng":127.123848195394,"road":"전북특별자치도 전주시 완산구 성지산로 36","region":"전북특별자치도 전주시 완산구 삼천동1가 585-2","building":"쌍용2단지아파트","method":"address"},"45111|삼천동1가|쌍용3단지|705-3":{"city_code":"45111","dong":"삼천동1가","name":"쌍용3단지","addr":"705-3","query":"전라북도 삼천동1가 705-3","lat":35.7981391259002,"lng":127.128612160594,"road":"전북특별자치도 전주시 완산구 용리로 176","region":"전북특별자치도 전주시 완산구 삼천동1가 705-3","building":"쌍용아파트 상가","method":"address"},"45111|삼천동1가|아너센트럴신원리브웰|585-5":{"city_code":"45111","dong":"삼천동1가","name":"아너센트럴신원리브웰","addr":"585-5","query":"전라북도 삼천동1가 아너센트럴신원리브웰","lat":35.8003972430483,"lng":127.124934768398,"road":"전북특별자치도 전주시 완산구 백제대로 85","region":"전북특별자치도 전주시 완산구 삼천동1가 781","building":"아너센트럴신원리브웰아파트","method":"keyword"},"45111|삼천동1가|아너센트럴신원리브웰|781":{"city_code":"45111","dong":"삼천동1가","name":"아너센트럴신원리브웰","addr":"781","query":"전라북도 삼천동1가 781","lat":35.8007062854112,"lng":127.125368375093,"road":"전북특별자치도 전주시 완산구 백제대로 83","region":"전북특별자치도 전주시 완산구 삼천동1가 781","building":"삼천 아너센트럴신원리브웰 상가2동","method":"address"},"45111|삼천동1가|안행현대|740-3":{"city_code":"45111","dong":"삼천동1가","name":"안행현대","addr":"740-3","query":"전라북도 삼천동1가 740-3","lat":35.801542592093,"lng":127.130179006771,"road":"전북특별자치도 전주시 완산구 안행2길 14","region":"전북특별자치도 전주시 완산구 삼천동1가 740-3","building":"안행현대아파트","method":"address"},"45111|삼천동1가|오성대우맨션|705":{"city_code":"45111","dong":"삼천동1가","name":"오성대우맨션","addr":"705","query":"전라북도 삼천동1가 705","lat":35.7964139515887,"lng":127.126465012259,"road":"전북특별자치도 전주시 완산구 솟대로 20","region":"전북특별자치도 전주시 완산구 삼천동1가 705","building":"오성대우아파트 상가","method":"address"},"45111|삼천동1가|우성|705-5":{"city_code":"45111","dong":"삼천동1가","name":"우성","addr":"705-5","query":"전라북도 삼천동1가 705-5","lat":35.79596040434,"lng":127.130625122621,"road":"전북특별자치도 전주시 완산구 백제대로 13","region":"전북특별자치도 전주시 완산구 삼천동1가 705-5","building":"우성아파트","method":"address"},"45111|삼천동1가|우성그린|705-7":{"city_code":"45111","dong":"삼천동1가","name":"우성그린","addr":"705-7","query":"전라북도 삼천동1가 705-7","lat":35.7951716236424,"lng":127.127087958337,"road":"전북특별자치도 전주시 완산구 솟대로 10","region":"전북특별자치도 전주시 완산구 삼천동1가 705-7","building":"우성아파트","method":"address"},"45111|삼천동1가|우성삼천2차|287-4":{"city_code":"45111","dong":"삼천동1가","name":"우성삼천2차","addr":"287-4","query":"전라북도 삼천동1가 287-4","lat":35.7972483268175,"lng":127.115460623578,"road":"전북특별자치도 전주시 완산구 삼천천변2길 51","region":"전북특별자치도 전주시 완산구 삼천동1가 287-4","building":"우성삼천2차아파트","method":"address"},"45111|삼천동1가|이안전주삼천|772":{"city_code":"45111","dong":"삼천동1가","name":"이안전주삼천","addr":"772","query":"전라북도 삼천동1가 772","lat":35.7989749880099,"lng":127.12568570538,"road":"전북특별자치도 전주시 완산구 용리로 165","region":"전북특별자치도 전주시 완산구 삼천동1가 772","building":"이안전주삼천","method":"address"},"45111|삼천동1가|청솔금호타운|740-1":{"city_code":"45111","dong":"삼천동1가","name":"청솔금호타운","addr":"740-1","query":"전라북도 삼천동1가 740-1","lat":35.8020058628886,"lng":127.131484241271,"road":"전북특별자치도 전주시 완산구 안행5길 11","region":"전북특별자치도 전주시 완산구 삼천동1가 740-1","building":"금호청솔아파트","method":"address"},"45111|삼천동1가|프리미엄APT|287-2":{"city_code":"45111","dong":"삼천동1가","name":"프리미엄APT","addr":"287-2","query":"전라북도 삼천동1가 287-2","lat":35.7973465984241,"lng":127.114293208599,"road":"전북특별자치도 전주시 완산구 삼천천변3길 44-7","region":"전북특별자치도 전주시 완산구 삼천동1가 287-2","building":"프리미엄빌라","method":"address"},"45111|삼천동1가|호반리젠시빌|286-10":{"city_code":"45111","dong":"삼천동1가","name":"호반리젠시빌","addr":"286-10","query":"전라북도 삼천동1가 286-10","lat":35.797268307384,"lng":127.111575879161,"road":"전북특별자치도 전주시 완산구 삼천천변3길 20","region":"전북특별자치도 전주시 완산구 삼천동1가 286-10","building":"호반리젠시빌아파트","method":"address"},"45111|삼천동1가|흥건삼천1차|300-3":{"city_code":"45111","dong":"삼천동1가","name":"흥건삼천1차","addr":"300-3","query":"전라북도 삼천동1가 300-3","lat":35.7944122904322,"lng":127.115772238411,"road":"전북특별자치도 전주시 완산구 거마평로 25","region":"전북특별자치도 전주시 완산구 삼천동1가 300-3","building":"흥건1차아파트 상가","method":"address"},"45111|삼천동1가|흥건삼천2차|289-5":{"city_code":"45111","dong":"삼천동1가","name":"흥건삼천2차","addr":"289-5","query":"전라북도 삼천동1가 289-5","lat":35.7958460264565,"lng":127.115766795738,"road":"전북특별자치도 전주시 완산구 거마평로 33","region":"전북특별자치도 전주시 완산구 삼천동1가 289-5","building":"흥건2차아파트상가","method":"address"},"45111|서노송동|신동아파인빌|740-9":{"city_code":"45111","dong":"서노송동","name":"신동아파인빌","addr":"740-9","query":"전라북도 서노송동 740-9","lat":35.8284903573169,"lng":127.14626641174,"road":"전북특별자치도 전주시 완산구 물왕멀4길 9","region":"전북특별자치도 전주시 완산구 서노송동 740-9","building":"신동아파인빌","method":"address"},"45111|서노송동|풍남맨션|648-2":{"city_code":"45111","dong":"서노송동","name":"풍남맨션","addr":"648-2","query":"전라북도 서노송동 648-2","lat":35.8271419068995,"lng":127.144091851253,"road":"전북특별자치도 전주시 완산구 팔달로 278","region":"전북특별자치도 전주시 완산구 서노송동 648-2","building":"풍남맨션아파트","method":"address"},"45111|서서학동|광진산업|318-10":{"city_code":"45111","dong":"서서학동","name":"광진산업","addr":"318-10","query":"전라북도 서서학동 318-10","lat":35.7984240105638,"lng":127.145905836939,"road":"전북특별자치도 전주시 완산구 덕적골3길 15","region":"전북특별자치도 전주시 완산구 서서학동 318-10","building":"광진산업아파트","method":"address"},"45111|서서학동|대명|358-54":{"city_code":"45111","dong":"서서학동","name":"대명","addr":"358-54","query":"전라북도 서서학동 358-54","lat":35.8014210978089,"lng":127.148460181377,"road":"전북특별자치도 전주시 완산구 장승배기로 338","region":"전북특별자치도 전주시 완산구 서서학동 358-54","building":"대명아파트","method":"address"},"45111|서서학동|대명맨션|358-53":{"city_code":"45111","dong":"서서학동","name":"대명맨션","addr":"358-53","query":"전라북도 서서학동 358-53","lat":35.8018744133408,"lng":127.14789104253,"road":"전북특별자치도 전주시 완산구 장승배기로 336","region":"전북특별자치도 전주시 완산구 서서학동 358-53","building":"대명맨션","method":"address"},"45111|서서학동|대아청산|978-6":{"city_code":"45111","dong":"서서학동","name":"대아청산","addr":"978-6","query":"전라북도 서서학동 978-6","lat":35.7991281124322,"lng":127.148818558412,"road":"전북특별자치도 전주시 완산구 흑석1길 70","region":"전북특별자치도 전주시 완산구 서서학동 978-6","building":"대아청산아파트 상가","method":"address"},"45111|서서학동|삼우|372-50":{"city_code":"45111","dong":"서서학동","name":"삼우","addr":"372-50","query":"전라북도 서서학동 372-50","lat":35.800556864642,"lng":127.144325163484,"road":"전북특별자치도 전주시 완산구 장승배기4길 6","region":"전북특별자치도 전주시 완산구 서서학동 372-50","building":"송하경로당","method":"address"},"45111|서서학동|삼우(105동)|372-54":{"city_code":"45111","dong":"서서학동","name":"삼우(105동)","addr":"372-54","query":"전라북도 서서학동 372-54","lat":35.8010798136314,"lng":127.143843642718,"road":"전북특별자치도 전주시 완산구 장승배기4길 18-2","region":"전북특별자치도 전주시 완산구 서서학동 372-54","building":"","method":"address"},"45111|서서학동|성결|370-38":{"city_code":"45111","dong":"서서학동","name":"성결","addr":"370-38","query":"전라북도 서서학동 370-38","lat":35.802230149461,"lng":127.144399880801,"road":"전북특별자치도 전주시 완산구 장승배기4길 20-7","region":"전북특별자치도 전주시 완산구 서서학동 370-38","building":"성결아파트","method":"address"},"45111|서서학동|송원|982-1":{"city_code":"45111","dong":"서서학동","name":"송원","addr":"982-1","query":"전라북도 서서학동 982-1","lat":35.799990284148,"lng":127.150465132711,"road":"전북특별자치도 전주시 완산구 흑석로 46","region":"전북특별자치도 전주시 완산구 서서학동 982-1","building":"송원아파트","method":"address"},"45111|서서학동|송원(978-1)|978-1":{"city_code":"45111","dong":"서서학동","name":"송원(978-1)","addr":"978-1","query":"전라북도 서서학동 978-1","lat":35.7995314751852,"lng":127.148852942184,"road":"전북특별자치도 전주시 완산구 흑석1길 53","region":"전북특별자치도 전주시 완산구 서서학동 978-1","building":"송원아파트","method":"address"},"45111|서서학동|송원(980-1)|980-1":{"city_code":"45111","dong":"서서학동","name":"송원(980-1)","addr":"980-1","query":"전라북도 서서학동 980-1","lat":35.7999186956065,"lng":127.149765923609,"road":"전북특별자치도 전주시 완산구 흑석로 46","region":"전북특별자치도 전주시 완산구 서서학동 980-1","building":"송원아파트","method":"address"},"45111|서서학동|송원(981-1)|981-1":{"city_code":"45111","dong":"서서학동","name":"송원(981-1)","addr":"981-1","query":"전라북도 서서학동 981-1","lat":35.799255271443,"lng":127.149407344919,"road":"전북특별자치도 전주시 완산구 흑석1길 53","region":"전북특별자치도 전주시 완산구 서서학동 981-1","building":"송원아파트","method":"address"},"45111|서서학동|송원(983-1)|983-1":{"city_code":"45111","dong":"서서학동","name":"송원(983-1)","addr":"983-1","query":"전라북도 서서학동 983-1","lat":35.7992750790898,"lng":127.150074810415,"road":"전북특별자치도 전주시 완산구 흑석로 54","region":"전북특별자치도 전주시 완산구 서서학동 983-1","building":"송원2차아파트","method":"address"},"45111|서서학동|송원아파트|982-1":{"city_code":"45111","dong":"서서학동","name":"송원아파트","addr":"982-1","query":"전라북도 서서학동 982-1","lat":35.799990284148,"lng":127.150465132711,"road":"전북특별자치도 전주시 완산구 흑석로 46","region":"전북특별자치도 전주시 완산구 서서학동 982-1","building":"송원아파트","method":"address"},"45111|서서학동|신세계블루타운|983-2":{"city_code":"45111","dong":"서서학동","name":"신세계블루타운","addr":"983-2","query":"전라북도 서서학동 983-2","lat":35.798953231117,"lng":127.150008159508,"road":"전북특별자치도 전주시 완산구 흑석로 64","region":"전북특별자치도 전주시 완산구 서서학동 983-2","building":"신세계블루타운아파트","method":"address"},"45111|서서학동|신용고궁맨션|971-6":{"city_code":"45111","dong":"서서학동","name":"신용고궁맨션","addr":"971-6","query":"전라북도 서서학동 971-6","lat":35.8014639372228,"lng":127.150897940681,"road":"전북특별자치도 전주시 완산구 흑석로 31","region":"전북특별자치도 전주시 완산구 서서학동 971-6","building":"신용고궁맨션","method":"address"},"45111|서서학동|영창|369-7":{"city_code":"45111","dong":"서서학동","name":"영창","addr":"369-7","query":"전라북도 서서학동 369-7","lat":35.8034541715929,"lng":127.145878525604,"road":"전북특별자치도 전주시 완산구 장승배기8길 17","region":"전북특별자치도 전주시 완산구 서서학동 369-7","building":"영창아파트","method":"address"},"45111|서서학동|영창공원맨션|369-9":{"city_code":"45111","dong":"서서학동","name":"영창공원맨션","addr":"369-9","query":"전라북도 서서학동 369-9","lat":35.8029971777628,"lng":127.146441706109,"road":"전북특별자치도 전주시 완산구 장승배기8길 13","region":"전북특별자치도 전주시 완산구 서서학동 369-9","building":"영창공원맨션","method":"address"},"45111|서서학동|예그린|112-3":{"city_code":"45111","dong":"서서학동","name":"예그린","addr":"112-3","query":"전라북도 서서학동 112-3","lat":35.8046390481068,"lng":127.147661063478,"road":"전북특별자치도 전주시 완산구 팔달로 11","region":"전북특별자치도 전주시 완산구 서서학동 112-3","building":"예그린아파트","method":"address"},"45111|서서학동|우정|987-1":{"city_code":"45111","dong":"서서학동","name":"우정","addr":"987-1","query":"전라북도 서서학동 987-1","lat":35.7981320173815,"lng":127.150283075198,"road":"전북특별자치도 전주시 완산구 흑석로 65","region":"전북특별자치도 전주시 완산구 서서학동 987-1","building":"우정아파트 상가","method":"address"},"45111|서서학동|우정목련|334-9":{"city_code":"45111","dong":"서서학동","name":"우정목련","addr":"334-9","query":"전라북도 서서학동 334-9","lat":35.8002401669947,"lng":127.147145569251,"road":"전북특별자치도 전주시 완산구 석불1길 9","region":"전북특별자치도 전주시 완산구 서서학동 334-9","building":"우정목련아파트","method":"address"},"45111|서서학동|푸른맨션|977-1":{"city_code":"45111","dong":"서서학동","name":"푸른맨션","addr":"977-1","query":"전라북도 서서학동 977-1","lat":35.7998036996636,"lng":127.151058533896,"road":"전북특별자치도 전주시 완산구 흑석로 53","region":"전북특별자치도 전주시 완산구 서서학동 977-1","building":"푸른맨션아파트","method":"address"},"45111|서서학동|효성흑석마을|985-1":{"city_code":"45111","dong":"서서학동","name":"효성흑석마을","addr":"985-1","query":"전라북도 서서학동 985-1","lat":35.7980500424148,"lng":127.149092675166,"road":"전북특별자치도 전주시 완산구 흑석1길 85","region":"전북특별자치도 전주시 완산구 서서학동 985-1","building":"흑석마을아파트","method":"address"},"45111|서신동|J-휴|294-6":{"city_code":"45111","dong":"서신동","name":"J-휴","addr":"294-6","query":"전라북도 서신동 294-6","lat":35.8275475172065,"lng":127.12198625935,"road":"전북특별자치도 전주시 완산구 전룡6길 26","region":"전북특별자치도 전주시 완산구 서신동 294-6","building":"제이씨앤디 제이휴","method":"address"},"45111|서신동|거성유창|995-1":{"city_code":"45111","dong":"서신동","name":"거성유창","addr":"995-1","query":"전라북도 서신동 995-1","lat":35.8265560296885,"lng":127.122175864868,"road":"전북특별자치도 전주시 완산구 백제대로 377","region":"전북특별자치도 전주시 완산구 서신동 995-1","building":"유창아파트 상가","method":"address"},"45111|서신동|광진선수촌|965-2":{"city_code":"45111","dong":"서신동","name":"광진선수촌","addr":"965-2","query":"전라북도 서신동 965-2","lat":35.8347848365907,"lng":127.116966647566,"road":"전북특별자치도 전주시 완산구 서신로 102","region":"전북특별자치도 전주시 완산구 서신동 965-2","building":"광진선수촌아파트","method":"address"},"45111|서신동|남양대명미드웰|764-1":{"city_code":"45111","dong":"서신동","name":"남양대명미드웰","addr":"764-1","query":"전라북도 서신동 764-1","lat":35.8329620126062,"lng":127.114847618231,"road":"전북특별자치도 전주시 완산구 당산로 55","region":"전북특별자치도 전주시 완산구 서신동 764-1","building":"남양대명아파트","method":"address"},"45111|서신동|남양은마|295-3":{"city_code":"45111","dong":"서신동","name":"남양은마","addr":"295-3","query":"전라북도 서신동 295-3","lat":35.8265398817951,"lng":127.120404828563,"road":"전북특별자치도 전주시 완산구 전룡5길 21","region":"전북특별자치도 전주시 완산구 서신동 295-3","building":"은마아파트","method":"address"},"45111|서신동|늘푸른빌|1000-1":{"city_code":"45111","dong":"서신동","name":"늘푸른빌","addr":"1000-1","query":"전라북도 서신동 1000-1","lat":35.8263609331412,"lng":127.123998586997,"road":"전북특별자치도 전주시 완산구 잿뜸1길 23-4","region":"전북특별자치도 전주시 완산구 서신동 1000-1","building":"늘푸른빌라","method":"address"},"45111|서신동|대우DC대창|965-3":{"city_code":"45111","dong":"서신동","name":"대우DC대창","addr":"965-3","query":"전라북도 서신동 965-3","lat":35.8347803406092,"lng":127.118245535877,"road":"전북특별자치도 전주시 완산구 새터로 100","region":"전북특별자치도 전주시 완산구 서신동 965-3","building":"대우대창아파트","method":"address"},"45111|서신동|대우푸르지오|960-2":{"city_code":"45111","dong":"서신동","name":"대우푸르지오","addr":"960-2","query":"전라북도 서신동 960-2","lat":35.8369890727804,"lng":127.114974397383,"road":"전북특별자치도 전주시 완산구 여울로 79","region":"전북특별자치도 전주시 완산구 서신동 960-2","building":"대우1차아파트","method":"address"},"45111|서신동|동아한일|961":{"city_code":"45111","dong":"서신동","name":"동아한일","addr":"961","query":"전라북도 서신동 961","lat":35.8363447484155,"lng":127.117782221846,"road":"전북특별자치도 전주시 완산구 새터로 105","region":"전북특별자치도 전주시 완산구 서신동 961","building":"해뜰어린이집","method":"address"},"45111|서신동|롯데|5-10":{"city_code":"45111","dong":"서신동","name":"롯데","addr":"5-10","query":"전라북도 서신동 5-10","lat":35.828014704295,"lng":127.126971307935,"road":"전북특별자치도 전주시 완산구 전룡로 128-5","region":"전북특별자치도 전주시 완산구 서신동 5-10","building":"롯데아파트","method":"address"},"45111|서신동|비사벌|762-1":{"city_code":"45111","dong":"서신동","name":"비사벌","addr":"762-1","query":"전라북도 서신동 762-1","lat":35.8317215199413,"lng":127.111303798327,"road":"전북특별자치도 전주시 완산구 당산로 34","region":"전북특별자치도 전주시 완산구 서신동 762-1","building":"비사벌아파트","method":"address"},"45111|서신동|서신2차광진산업장미|962-1":{"city_code":"45111","dong":"서신동","name":"서신2차광진산업장미","addr":"962-1","query":"전라북도 서신동 962-1","lat":35.8349778420935,"lng":127.113057077545,"road":"전북특별자치도 전주시 완산구 새터로 52-7","region":"전북특별자치도 전주시 완산구 서신동 962-1","building":"광진장미아파트","method":"address"},"45111|서신동|서신2차동아|960-5":{"city_code":"45111","dong":"서신동","name":"서신2차동아","addr":"960-5","query":"전라북도 서신동 960-5","lat":35.8360965340103,"lng":127.113290540831,"road":"전북특별자치도 전주시 완산구 새터로 53","region":"전북특별자치도 전주시 완산구 서신동 960-5","building":"동아2차아파트 상가","method":"address"},"45111|서신동|서신e편한세상|572":{"city_code":"45111","dong":"서신동","name":"서신e편한세상","addr":"572","query":"전라북도 서신동 572","lat":35.8395955738977,"lng":127.106898772578,"road":"전북특별자치도 전주시 완산구 여울로 161","region":"전북특별자치도 전주시 완산구 서신동 572","building":"서신 이편한세상","method":"address"},"45111|서신동|서신노블레스1단지|898-5":{"city_code":"45111","dong":"서신동","name":"서신노블레스1단지","addr":"898-5","query":"전라북도 서신동 898-5","lat":35.8262426289753,"lng":127.121496995475,"road":"전북특별자치도 전주시 완산구 전룡6길 11","region":"전북특별자치도 전주시 완산구 서신동 898-5","building":"노블레스1단지","method":"address"},"45111|서신동|서신노블레스2단지|898-3":{"city_code":"45111","dong":"서신동","name":"서신노블레스2단지","addr":"898-3","query":"전라북도 서신동 898-3","lat":35.8264905595704,"lng":127.12159188331,"road":"전북특별자치도 전주시 완산구 전룡6길 13","region":"전북특별자치도 전주시 완산구 서신동 898-3","building":"서신노블레스2단지","method":"address"},"45111|서신동|서신동광진|761-1":{"city_code":"45111","dong":"서신동","name":"서신동광진","addr":"761-1","query":"전라북도 서신동 761-1","lat":35.8336992682742,"lng":127.108014681686,"road":"전북특별자치도 전주시 완산구 온고을로 119-2","region":"전북특별자치도 전주시 완산구 서신동 761-1","building":"서신동 광진아파트","method":"address"},"45111|서신동|서신동드리움|214-6":{"city_code":"45111","dong":"서신동","name":"서신동드리움","addr":"214-6","query":"전라북도 서신동 214-6","lat":35.8293468872297,"lng":127.119919901133,"road":"전북특별자치도 전주시 완산구 감나무로 25","region":"전북특별자치도 전주시 완산구 서신동 214-6","building":"드리움 아파트","method":"address"},"45111|서신동|서신동신일|763-1":{"city_code":"45111","dong":"서신동","name":"서신동신일","addr":"763-1","query":"전라북도 서신동 763-1","lat":35.8329682532283,"lng":127.11079177956,"road":"전북특별자치도 전주시 완산구 당산로 17","region":"전북특별자치도 전주시 완산구 서신동 763-1","building":"신일아파트","method":"address"},"45111|서신동|서신동아현대|765-1":{"city_code":"45111","dong":"서신동","name":"서신동아현대","addr":"765-1","query":"전라북도 서신동 765-1","lat":35.8329517860238,"lng":127.117686342,"road":"전북특별자치도 전주시 완산구 당산로 101","region":"전북특별자치도 전주시 완산구 서신동 765-1","building":"전주서신동아아파트","method":"address"},"45111|서신동|서신아이파크이편한세상|1044":{"city_code":"45111","dong":"서신동","name":"서신아이파크이편한세상","addr":"1044","query":"전라북도 서신동 1044","lat":35.8302035950574,"lng":127.125940006385,"road":"전북특별자치도 전주시 완산구 백제대로 408","region":"전북특별자치도 전주시 완산구 서신동 1044","building":"서신 아이파크 e-편한세상 상가","method":"address"},"45111|서신동|서신엘지자이|960-1":{"city_code":"45111","dong":"서신동","name":"서신엘지자이","addr":"960-1","query":"전라북도 서신동 960-1","lat":35.8369675290516,"lng":127.113269864095,"road":"전북특별자치도 전주시 완산구 여울로 109","region":"전북특별자치도 전주시 완산구 서신동 960-1","building":"엘지아파트","method":"address"},"45111|서신동|서신영창|325-1":{"city_code":"45111","dong":"서신동","name":"서신영창","addr":"325-1","query":"전라북도 서신동 325-1","lat":35.8260617604964,"lng":127.120677674764,"road":"전북특별자치도 전주시 완산구 전룡5길 17-5","region":"전북특별자치도 전주시 완산구 서신동 325-1","building":"서신영창아파트 상가","method":"address"},"45111|서신동|선변서신고을|246":{"city_code":"45111","dong":"서신동","name":"선변서신고을","addr":"246","query":"전라북도 서신동 246","lat":35.828554920822,"lng":127.117946676066,"road":"전북특별자치도 전주시 완산구 안터3길 21","region":"전북특별자치도 전주시 완산구 서신동 246","building":"선변서신고을아파트","method":"address"},"45111|서신동|성원|762-2":{"city_code":"45111","dong":"서신동","name":"성원","addr":"762-2","query":"전라북도 서신동 762-2","lat":35.8307717896999,"lng":127.111189031855,"road":"전북특별자치도 전주시 완산구 서신천변11길 20","region":"전북특별자치도 전주시 완산구 서신동 762-2","building":"성원아파트","method":"address"},"45111|서신동|쌍용서신|761-2":{"city_code":"45111","dong":"서신동","name":"쌍용서신","addr":"761-2","query":"전라북도 서신동 761-2","lat":35.8326760723875,"lng":127.108011634801,"road":"전북특별자치도 전주시 완산구 당산로 11","region":"전북특별자치도 전주시 완산구 서신동 761-2","building":"쌍용서신아파트","method":"address"},"45111|서신동|우성|281-6":{"city_code":"45111","dong":"서신동","name":"우성","addr":"281-6","query":"전라북도 서신동 281-6","lat":35.8279079366745,"lng":127.119649141762,"road":null,"region":"전북특별자치도 전주시 완산구 서신동 281-6","building":null,"method":"address"},"45111|서신동|우신1,2,3동|17-2":{"city_code":"45111","dong":"서신동","name":"우신1,2,3동","addr":"17-2","query":"전라북도 서신동 17-2","lat":35.8269192502715,"lng":127.124185709698,"road":"전북특별자치도 전주시 완산구 잿뜸1길 11","region":"전북특별자치도 전주시 완산구 서신동 17-2","building":"우신아파트","method":"address"},"45111|서신동|우신5,6,7동|22-17":{"city_code":"45111","dong":"서신동","name":"우신5,6,7동","addr":"22-17","query":"전라북도 서신동 22-17","lat":35.8276430472577,"lng":127.124015189675,"road":"전북특별자치도 전주시 완산구 잿뜸1길 11","region":"전북특별자치도 전주시 완산구 서신동 22-17","building":"우신아파트","method":"address"},"45111|서신동|우신8,9동|23-40":{"city_code":"45111","dong":"서신동","name":"우신8,9동","addr":"23-40","query":"전라북도 서신동 23-40","lat":35.8279211746535,"lng":127.123315527839,"road":"전북특별자치도 전주시 완산구 잿뜸1길 8","region":"전북특별자치도 전주시 완산구 서신동 23-40","building":"우신아파트","method":"address"},"45111|서신동|제일비사벌새터마을|764-2":{"city_code":"45111","dong":"서신동","name":"제일비사벌새터마을","addr":"764-2","query":"전라북도 서신동 764-2","lat":35.83296822667,"lng":127.113142103754,"road":"전북특별자치도 전주시 완산구 당산로 39","region":"전북특별자치도 전주시 완산구 서신동 764-2","building":"새마을금고","method":"address"},"45111|서신동|중흥S-클래스|962-2":{"city_code":"45111","dong":"서신동","name":"중흥S-클래스","addr":"962-2","query":"전라북도 서신동 962-2","lat":35.8347935970708,"lng":127.114608977647,"road":"전북특별자치도 전주시 완산구 새터로 74","region":"전북특별자치도 전주시 완산구 서신동 962-2","building":"중흥아파트","method":"address"},"45111|서신동|진보설래임|280":{"city_code":"45111","dong":"서신동","name":"진보설래임","addr":"280","query":"전라북도 서신동 280","lat":35.8285266235624,"lng":127.119404825195,"road":"전북특별자치도 전주시 완산구 안터3길 11","region":"전북특별자치도 전주시 완산구 서신동 280","building":"서신동 진보 설래임아파트","method":"address"},"45111|서완산동2가|낙원맨션|80-135":{"city_code":"45111","dong":"서완산동2가","name":"낙원맨션","addr":"80-135","query":"전라북도 서완산동2가 80-135","lat":35.8101960583907,"lng":127.135083295258,"road":"전북특별자치도 전주시 완산구 강당2길 14","region":"전북특별자치도 전주시 완산구 서완산동2가 80-135","building":"대종낙원맨션","method":"address"},"45111|서완산동2가|대풍한마을|341-1":{"city_code":"45111","dong":"서완산동2가","name":"대풍한마을","addr":"341-1","query":"전라북도 서완산동2가 341-1","lat":35.8090517270313,"lng":127.130679750032,"road":"전북특별자치도 전주시 완산구 따박골7길 22","region":"전북특별자치도 전주시 완산구 서완산동2가 341-1","building":"대풍한마을아파트","method":"address"},"45111|서완산동2가|신성파크맨션|78-1":{"city_code":"45111","dong":"서완산동2가","name":"신성파크맨션","addr":"78-1","query":"전라북도 서완산동2가 78-1","lat":35.8097188039609,"lng":127.134633714512,"road":"전북특별자치도 전주시 완산구 강당2길 11","region":"전북특별자치도 전주시 완산구 서완산동2가 78-1","building":"신성파크맨션 상가","method":"address"},"45111|서완산동2가|신성파크맨션아파트|78-1":{"city_code":"45111","dong":"서완산동2가","name":"신성파크맨션아파트","addr":"78-1","query":"전라북도 서완산동2가 78-1","lat":35.8097188039609,"lng":127.134633714512,"road":"전북특별자치도 전주시 완산구 강당2길 11","region":"전북특별자치도 전주시 완산구 서완산동2가 78-1","building":"신성파크맨션 상가","method":"address"},"45111|서완산동2가|신성파크아파트|78-1":{"city_code":"45111","dong":"서완산동2가","name":"신성파크아파트","addr":"78-1","query":"전라북도 서완산동2가 78-1","lat":35.8097188039609,"lng":127.134633714512,"road":"전북특별자치도 전주시 완산구 강당2길 11","region":"전북특별자치도 전주시 완산구 서완산동2가 78-1","building":"신성파크맨션 상가","method":"address"},"45111|서완산동2가|오페라하우스|335":{"city_code":"45111","dong":"서완산동2가","name":"오페라하우스","addr":"335","query":"전라북도 서완산동2가 335","lat":35.8101667971046,"lng":127.132954662317,"road":"전북특별자치도 전주시 완산구 안행로 150","region":"전북특별자치도 전주시 완산구 서완산동2가 335","building":"전주오페라하우스","method":"address"},"45111|서완산동2가|전주서완산골드클래스|376":{"city_code":"45111","dong":"서완산동2가","name":"전주서완산골드클래스","addr":"376","query":"전라북도 서완산동2가 376","lat":35.8086168552848,"lng":127.132257464764,"road":"전북특별자치도 전주시 완산구 안행로 149","region":"전북특별자치도 전주시 완산구 서완산동2가 376","building":"전주 서완산 골드클래스","method":"address"},"45111|전동3가|코오롱상가|136":{"city_code":"45111","dong":"전동3가","name":"코오롱상가","addr":"136","query":"전라북도 전동3가 136","lat":35.8130902367535,"lng":127.14419735786,"road":"전북특별자치도 전주시 완산구 전주천동로 154","region":"전북특별자치도 전주시 완산구 전동3가 136","building":"코오롱 상가 아파트","method":"address"},"45111|중노송동|기린봉|26-1":{"city_code":"45111","dong":"중노송동","name":"기린봉","addr":"26-1","query":"전라북도 중노송동 26-1","lat":35.8203383064857,"lng":127.163062189842,"road":"전북특별자치도 전주시 완산구 견훤로 100","region":"전북특별자치도 전주시 완산구 중노송동 26-1","building":"기린봉아파트","method":"address"},"45111|중노송동|우성해오름|303":{"city_code":"45111","dong":"중노송동","name":"우성해오름","addr":"303","query":"전라북도 중노송동 303","lat":35.825467027373,"lng":127.159694713106,"road":"전북특별자치도 전주시 완산구 견훤로 157","region":"전북특별자치도 전주시 완산구 중노송동 303","building":"","method":"address"},"45111|중노송동|한옥마을서해그랑블|797":{"city_code":"45111","dong":"중노송동","name":"한옥마을서해그랑블","addr":"797","query":"전라북도 중노송동 797","lat":35.827636185062,"lng":127.15211491596,"road":"전북특별자치도 전주시 완산구 물왕멀로 48","region":"전북특별자치도 전주시 완산구 중노송동 797","building":"","method":"address"},"45111|중인동|옥성골든카운티|1610":{"city_code":"45111","dong":"중인동","name":"옥성골든카운티","addr":"1610","query":"전라북도 중인동 1610","lat":35.7682377993219,"lng":127.089364239363,"road":"전북특별자치도 전주시 완산구 중인1길 136-20","region":"전북특별자치도 전주시 완산구 중인동 1610","building":"옥성골든카운티","method":"address"},"45111|중화산동1가|거성근영(1)|223-2":{"city_code":"45111","dong":"중화산동1가","name":"거성근영(1)","addr":"223-2","query":"전라북도 중화산동1가 223-2","lat":35.815108302015,"lng":127.129505590977,"road":"전북특별자치도 전주시 완산구 선너머로 40","region":"전북특별자치도 전주시 완산구 중화산동1가 223-2","building":"거성근영아파트","method":"address"},"45111|중화산동1가|거성근영(2)|223-6":{"city_code":"45111","dong":"중화산동1가","name":"거성근영(2)","addr":"223-6","query":"전라북도 중화산동1가 223-6","lat":35.8147282908246,"lng":127.129291196022,"road":"전북특별자치도 전주시 완산구 선너머로 36-9","region":"전북특별자치도 전주시 완산구 중화산동1가 223-6","building":"거성근영2차아파트","method":"address"},"45111|중화산동1가|남양서원|221-1":{"city_code":"45111","dong":"중화산동1가","name":"남양서원","addr":"221-1","query":"전라북도 중화산동1가 221-1","lat":35.8151582178494,"lng":127.131593226315,"road":"전북특별자치도 전주시 완산구 선너머4길 25","region":"전북특별자치도 전주시 완산구 중화산동1가 221-1","building":"남양서원아파트","method":"address"},"45111|중화산동1가|동신|162-42":{"city_code":"45111","dong":"중화산동1가","name":"동신","addr":"162-42","query":"전라북도 중화산동1가 162-42","lat":35.8132686973922,"lng":127.134467979451,"road":"전북특별자치도 전주시 완산구 강당4길 3","region":"전북특별자치도 전주시 완산구 중화산동1가 162-42","building":"동신1차아파트","method":"address"},"45111|중화산동1가|동신2차|250":{"city_code":"45111","dong":"중화산동1가","name":"동신2차","addr":"250","query":"전라북도 중화산동1가 250","lat":35.8133677114978,"lng":127.129575461081,"road":"전북특별자치도 전주시 완산구 선너머2길 2-11","region":"전북특별자치도 전주시 완산구 중화산동1가 250","building":"동신2차아파트 상가","method":"address"},"45111|중화산동1가|석정수팰리스|221-31":{"city_code":"45111","dong":"중화산동1가","name":"석정수팰리스","addr":"221-31","query":"전라북도 중화산동1가 221-31","lat":35.8149192753356,"lng":127.130618325773,"road":"전북특별자치도 전주시 완산구 선너머3길 26","region":"전북특별자치도 전주시 완산구 중화산동1가 221-31","building":"석정수팰리스아파트","method":"address"},"45111|중화산동1가|엘림샤인빌|236":{"city_code":"45111","dong":"중화산동1가","name":"엘림샤인빌","addr":"236","query":"전라북도 중화산동1가 236","lat":35.814528354827,"lng":127.12982664302,"road":"전북특별자치도 전주시 완산구 선너머3길 23","region":"전북특별자치도 전주시 완산구 중화산동1가 236","building":"샤인빌아파트","method":"address"},"45111|중화산동1가|옥성트레비앙|327-12":{"city_code":"45111","dong":"중화산동1가","name":"옥성트레비앙","addr":"327-12","query":"전라북도 중화산동1가 327-12","lat":35.8125380399312,"lng":127.132033265587,"road":"전북특별자치도 전주시 완산구 서원로 348","region":"전북특별자치도 전주시 완산구 중화산동1가 327-12","building":"옥성트레비앙아파트","method":"address"},"45111|중화산동1가|중화산동네스띠앙|221-2":{"city_code":"45111","dong":"중화산동1가","name":"중화산동네스띠앙","addr":"221-2","query":"전라북도 중화산동1가 221-2","lat":35.8145655507167,"lng":127.130765465309,"road":"전북특별자치도 전주시 완산구 선너머3길 18-13","region":"전북특별자치도 전주시 완산구 중화산동1가 221-2","building":"중화산동 네스띠앙아파트","method":"address"},"45111|중화산동1가|중화산동신일|154":{"city_code":"45111","dong":"중화산동1가","name":"중화산동신일","addr":"154","query":"전라북도 중화산동1가 154","lat":35.8133711350787,"lng":127.136181001422,"road":"전북특별자치도 전주시 완산구 서원로 386","region":"전북특별자치도 전주시 완산구 중화산동1가 154","building":"신일아파트","method":"address"},"45111|중화산동1가|중화산동현대|331":{"city_code":"45111","dong":"중화산동1가","name":"중화산동현대","addr":"331","query":"전라북도 중화산동1가 331","lat":35.8115484744688,"lng":127.132261551216,"road":"전북특별자치도 전주시 완산구 안행로 176","region":"전북특별자치도 전주시 완산구 중화산동1가 331","building":"현대2차아파트","method":"address"},"45111|중화산동1가|현대(A단지)|329":{"city_code":"45111","dong":"중화산동1가","name":"현대(A단지)","addr":"329","query":"전라북도 중화산동1가 329","lat":35.8113313399465,"lng":127.131128615095,"road":"전북특별자치도 전주시 완산구 안행로 173","region":"전북특별자치도 전주시 완산구 중화산동1가 329","building":"현대1차아파트","method":"address"},"45111|중화산동2가|거성그린맨션|545-1":{"city_code":"45111","dong":"중화산동2가","name":"거성그린맨션","addr":"545-1","query":"전라북도 중화산동2가 545-1","lat":35.8100611328444,"lng":127.124051247581,"road":"전북특별자치도 전주시 완산구 백제대로 196","region":"전북특별자치도 전주시 완산구 중화산동2가 545-1","building":"거성그린맨션","method":"address"},"45111|중화산동2가|거성화산|37":{"city_code":"45111","dong":"중화산동2가","name":"거성화산","addr":"37","query":"전라북도 중화산동2가 37","lat":35.8097071859888,"lng":127.130457212126,"road":"전북특별자치도 전주시 완산구 따박골9길 33","region":"전북특별자치도 전주시 완산구 중화산동2가 37","building":"거성화산아파트","method":"address"},"45111|중화산동2가|광진햇빛찬|825":{"city_code":"45111","dong":"중화산동2가","name":"광진햇빛찬","addr":"825","query":"전라북도 중화산동2가 825","lat":35.8177960183792,"lng":127.11442796564,"road":"전북특별자치도 전주시 완산구 강변로 306","region":"전북특별자치도 전주시 완산구 중화산동2가 825","building":"광진햇빛찬아파트","method":"address"},"45111|중화산동2가|광진햇빛찬2차|485-27":{"city_code":"45111","dong":"중화산동2가","name":"광진햇빛찬2차","addr":"485-27","query":"전라북도 중화산동2가 485-27","lat":35.8169216923762,"lng":127.114346929404,"road":"전북특별자치도 전주시 완산구 강변로 304","region":"전북특별자치도 전주시 완산구 중화산동2가 485-27","building":"광진햇빛찬2차","method":"address"},"45111|중화산동2가|동남삼정|27":{"city_code":"45111","dong":"중화산동2가","name":"동남삼정","addr":"27","query":"전라북도 중화산동2가 27","lat":35.8122576367798,"lng":127.128560014592,"road":"전북특별자치도 전주시 완산구 선너머2길 5","region":"전북특별자치도 전주시 완산구 중화산동2가 27","building":"동남삼정아파트","method":"address"},"45111|중화산동2가|동원맨션|485-30":{"city_code":"45111","dong":"중화산동2가","name":"동원맨션","addr":"485-30","query":"전라북도 중화산동2가 485-30","lat":35.8164262234387,"lng":127.114015697118,"road":"전북특별자치도 전주시 완산구 신촌3길 27-14","region":"전북특별자치도 전주시 완산구 중화산동2가 485-30","building":"동원맨션","method":"address"},"45111|중화산동2가|새한그린파크|232":{"city_code":"45111","dong":"중화산동2가","name":"새한그린파크","addr":"232","query":"전라북도 중화산동2가 232","lat":35.8175793515098,"lng":127.125538084366,"road":"전북특별자치도 전주시 완산구 영경1길 20","region":"전북특별자치도 전주시 완산구 중화산동2가 232","building":"새한그린파크아파트 상가","method":"address"},"45111|중화산동2가|송원|154":{"city_code":"45111","dong":"중화산동2가","name":"송원","addr":"154","query":"전라북도 중화산동2가 154","lat":35.8137785738221,"lng":127.127319205608,"road":"전북특별자치도 전주시 완산구 선너머1길 26","region":"전북특별자치도 전주시 완산구 중화산동2가 154","building":"송원연화아파트","method":"address"},"45111|중화산동2가|송원아파트(중화산동신일아파트)|154":{"city_code":"45111","dong":"중화산동2가","name":"송원아파트(중화산동신일아파트)","addr":"154","query":"전라북도 중화산동2가 154","lat":35.8137785738221,"lng":127.127319205608,"road":"전북특별자치도 전주시 완산구 선너머1길 26","region":"전북특별자치도 전주시 완산구 중화산동2가 154","building":"송원연화아파트","method":"address"},"45111|중화산동2가|신동아화산|526-37":{"city_code":"45111","dong":"중화산동2가","name":"신동아화산","addr":"526-37","query":"전라북도 중화산동2가 526-37","lat":35.8147716720568,"lng":127.115073480301,"road":"전북특별자치도 전주시 완산구 신촌2길 28","region":"전북특별자치도 전주시 완산구 중화산동2가 526-37","building":"신동아아파트 상가","method":"address"},"45111|중화산동2가|영무예다음|850":{"city_code":"45111","dong":"중화산동2가","name":"영무예다음","addr":"850","query":"전라북도 중화산동2가 850","lat":35.8098925368204,"lng":127.131650150798,"road":"전북특별자치도 전주시 완산구 안행로 165-5","region":"전북특별자치도 전주시 완산구 중화산동2가 850","building":"중화산동 영무예다음 아파트","method":"address"},"45111|중화산동2가|오성은하|545":{"city_code":"45111","dong":"중화산동2가","name":"오성은하","addr":"545","query":"전라북도 중화산동2가 545","lat":35.8112386700915,"lng":127.124013467598,"road":"전북특별자치도 전주시 완산구 서원로 270","region":"전북특별자치도 전주시 완산구 중화산동2가 545","building":"오성은하아파트","method":"address"},"45111|중화산동2가|우성근영타운|256":{"city_code":"45111","dong":"중화산동2가","name":"우성근영타운","addr":"256","query":"전라북도 중화산동2가 256","lat":35.8185616521893,"lng":127.126038691155,"road":"전북특별자치도 전주시 완산구 영경1길 17","region":"전북특별자치도 전주시 완산구 중화산동2가 256","building":"","method":"address"},"45111|중화산동2가|우성중산타운|406-3":{"city_code":"45111","dong":"중화산동2가","name":"우성중산타운","addr":"406-3","query":"전라북도 중화산동2가 406-3","lat":35.8163818669739,"lng":127.117493690761,"road":"전북특별자치도 전주시 완산구 중화산로 65","region":"전북특별자치도 전주시 완산구 중화산동2가 406-3","building":"우성중산타운","method":"address"},"45111|중화산동2가|전주한신코아1차,2차|482-1":{"city_code":"45111","dong":"중화산동2가","name":"전주한신코아1차,2차","addr":"482-1","query":"전라북도 중화산동2가 482-1","lat":35.814965162547,"lng":127.116394716083,"road":"전북특별자치도 전주시 완산구 신촌2길 20","region":"전북특별자치도 전주시 완산구 중화산동2가 482-1","building":"한신코아아파트","method":"address"},"45111|중화산동2가|중화산동광진|190":{"city_code":"45111","dong":"중화산동2가","name":"중화산동광진","addr":"190","query":"전라북도 중화산동2가 190","lat":35.8157059268136,"lng":127.126373548656,"road":"전북특별자치도 전주시 완산구 선너머로 16","region":"전북특별자치도 전주시 완산구 중화산동2가 190","building":"중화산동 광진아파트","method":"address"},"45111|중화산동2가|중화산동광진2차|194-9":{"city_code":"45111","dong":"중화산동2가","name":"중화산동광진2차","addr":"194-9","query":"전라북도 중화산동2가 194-9","lat":35.8151473261666,"lng":127.127737109013,"road":"전북특별자치도 전주시 완산구 선너머2길 40","region":"전북특별자치도 전주시 완산구 중화산동2가 194-9","building":"광진산업2차아파트","method":"address"},"45111|중화산동2가|중화산동신일아파트|154":{"city_code":"45111","dong":"중화산동2가","name":"중화산동신일아파트","addr":"154","query":"전라북도 중화산동2가 154","lat":35.8137785738221,"lng":127.127319205608,"road":"전북특별자치도 전주시 완산구 선너머1길 26","region":"전북특별자치도 전주시 완산구 중화산동2가 154","building":"송원연화아파트","method":"address"},"45111|중화산동2가|코오롱하늘채|746-1":{"city_code":"45111","dong":"중화산동2가","name":"코오롱하늘채","addr":"746-1","query":"전라북도 중화산동2가 746-1","lat":35.8235729716214,"lng":127.115124693366,"road":"전북특별자치도 전주시 완산구 화산천변로 55","region":"전북특별자치도 전주시 완산구 중화산동2가 746-1","building":"코오롱하늘채아파트","method":"address"},"45111|중화산동2가|풍림아이원|827":{"city_code":"45111","dong":"중화산동2가","name":"풍림아이원","addr":"827","query":"전라북도 중화산동2가 827","lat":35.8130224434623,"lng":127.126439005233,"road":"전북특별자치도 전주시 완산구 서원로 289","region":"전북특별자치도 전주시 완산구 중화산동2가 827","building":"중화산풍림아이원아파트","method":"address"},"45111|중화산동2가|현대에코르|745-1":{"city_code":"45111","dong":"중화산동2가","name":"현대에코르","addr":"745-1","query":"전라북도 중화산동2가 745-1","lat":35.8233899624929,"lng":127.116953800907,"road":"전북특별자치도 전주시 완산구 화산천변로 50","region":"전북특별자치도 전주시 완산구 중화산동2가 745-1","building":"현대에코르아파트","method":"address"},"45111|중화산동2가|효성신촌마을|485-56":{"city_code":"45111","dong":"중화산동2가","name":"효성신촌마을","addr":"485-56","query":"전라북도 중화산동2가 485-56","lat":35.8157987091077,"lng":127.115021074454,"road":"전북특별자치도 전주시 완산구 신촌3길 27-43","region":"전북특별자치도 전주시 완산구 중화산동2가 485-56","building":"효성신촌마을 아파트","method":"address"},"45111|태평동|대양아리스타|304":{"city_code":"45111","dong":"태평동","name":"대양아리스타","addr":"304","query":"전라북도 태평동 304","lat":35.8233706445343,"lng":127.142684483526,"road":"전북특별자치도 전주시 완산구 태평4길 11","region":"전북특별자치도 전주시 완산구 태평동 304","building":"","method":"address"},"45111|태평동|성원로얄맨션|245":{"city_code":"45111","dong":"태평동","name":"성원로얄맨션","addr":"245","query":"전라북도 태평동 245","lat":35.8262876607862,"lng":127.137739343941,"road":"전북특별자치도 전주시 완산구 공북1길 7","region":"전북특별자치도 전주시 완산구 태평동 245","building":"성원로얄맨션","method":"address"},"45111|태평동|전주태평SKVIEW|291":{"city_code":"45111","dong":"태평동","name":"전주태평SKVIEW","addr":"291","query":"전라북도 태평동 291","lat":35.8245821822735,"lng":127.139403340091,"road":"전북특별자치도 전주시 완산구 태평2길 21","region":"전북특별자치도 전주시 완산구 태평동 291","building":"전주 태평 SK VIEW","method":"address"},"45111|태평동|중앙상가|36-1":{"city_code":"45111","dong":"태평동","name":"중앙상가","addr":"36-1","query":"전라북도 태평동 36-1","lat":35.8248016244477,"lng":127.14226175892,"road":"전북특별자치도 전주시 완산구 태평3길 70","region":"전북특별자치도 전주시 완산구 태평동 36-1","building":"중앙아파트","method":"address"},"45111|태평동|태평아이파크|123-19":{"city_code":"45111","dong":"태평동","name":"태평아이파크","addr":"123-19","query":"전라북도 태평동 태평아이파크","lat":35.82409298644763,"lng":127.13593427327751,"road":"전북특별자치도 전주시 완산구 태진로 35","region":"전북특별자치도 전주시 완산구 태평동 305","building":"전주태평IPARK아파트","method":"keyword"},"45111|태평동|태평아이파크|305":{"city_code":"45111","dong":"태평동","name":"태평아이파크","addr":"305","query":"전라북도 태평동 305","lat":35.8241624530753,"lng":127.135872641126,"road":"전북특별자치도 전주시 완산구 태진로 35","region":"전북특별자치도 전주시 완산구 태평동 305","building":"태평아이파크","method":"address"},"45111|평화동1가|거산평화|570-4":{"city_code":"45111","dong":"평화동1가","name":"거산평화","addr":"570-4","query":"전라북도 평화동1가 570-4","lat":35.7959718222591,"lng":127.139243385729,"road":"전북특별자치도 전주시 완산구 덕적골1길 19","region":"전북특별자치도 전주시 완산구 평화동1가 570-4","building":"거산평화아파트","method":"address"},"45111|평화동1가|극동|570-15":{"city_code":"45111","dong":"평화동1가","name":"극동","addr":"570-15","query":"전라북도 평화동1가 570-15","lat":35.7964122574553,"lng":127.138081810448,"road":"전북특별자치도 전주시 완산구 덕적골1길 10","region":"전북특별자치도 전주시 완산구 평화동1가 570-15","building":"극동평화아파트","method":"address"},"45111|평화동1가|두레|431":{"city_code":"45111","dong":"평화동1가","name":"두레","addr":"431","query":"전라북도 평화동1가 431","lat":35.7977719609397,"lng":127.143195155285,"road":"전북특별자치도 전주시 완산구 덕적골3길 36-10","region":"전북특별자치도 전주시 완산구 평화동1가 431","building":"두레아파트","method":"address"},"45111|평화동1가|서봉빌라|589-38":{"city_code":"45111","dong":"평화동1가","name":"서봉빌라","addr":"589-38","query":"전라북도 평화동1가 589-38","lat":35.7986312281411,"lng":127.136767508664,"road":"전북특별자치도 전주시 완산구 꽃밭정로 37-7","region":"전북특별자치도 전주시 완산구 평화동1가 589-38","building":"서봉빌라","method":"address"},"45111|평화동1가|신정|471-1":{"city_code":"45111","dong":"평화동1가","name":"신정","addr":"471-1","query":"전라북도 평화동1가 471-1","lat":35.7954528694561,"lng":127.139170021359,"road":"전북특별자치도 전주시 완산구 덕적골1길 31-3","region":"전북특별자치도 전주시 완산구 평화동1가 471-1","building":"신정아파트","method":"address"},"45111|평화동1가|일성|522":{"city_code":"45111","dong":"평화동1가","name":"일성","addr":"522","query":"전라북도 평화동1가 522","lat":35.7938886665022,"lng":127.138362628231,"road":"전북특별자치도 전주시 완산구 평화19길 20","region":"전북특별자치도 전주시 완산구 평화동1가 522","building":"일성아파트","method":"address"},"45111|평화동1가|전주평화근로복지,주공임대아파트(평화주공1단지,평화주공3단지)|445-1":{"city_code":"45111","dong":"평화동1가","name":"전주평화근로복지,주공임대아파트(평화주공1단지,평화주공3단지)","addr":"445-1","query":"전라북도 평화동1가 445-1","lat":35.7970462128551,"lng":127.139714427456,"road":"전북특별자치도 전주시 완산구 덕적골2길 10","region":"전북특별자치도 전주시 완산구 평화동1가 445-1","building":"평화주공3단지아파트","method":"address"},"45111|평화동1가|코오롱|696":{"city_code":"45111","dong":"평화동1가","name":"코오롱","addr":"696","query":"전라북도 평화동1가 696","lat":35.7932593462806,"lng":127.135084381652,"road":"전북특별자치도 전주시 완산구 평화로 181","region":"전북특별자치도 전주시 완산구 평화동1가 696","building":"코오롱아파트","method":"address"},"45111|평화동1가|평화동오네뜨|766":{"city_code":"45111","dong":"평화동1가","name":"평화동오네뜨","addr":"766","query":"전라북도 평화동1가 766","lat":35.7933114086309,"lng":127.139142171799,"road":"전북특별자치도 전주시 완산구 덕적골1길 50","region":"전북특별자치도 전주시 완산구 평화동1가 766","building":"평화동오네뜨아파트","method":"address"},"45111|평화동1가|평화주공1,2|445-6":{"city_code":"45111","dong":"평화동1가","name":"평화주공1,2","addr":"445-6","query":"전라북도 평화동1가 445-6","lat":35.7967423241721,"lng":127.142160059929,"road":"전북특별자치도 전주시 완산구 덕적골2길 11","region":"전북특별자치도 전주시 완산구 평화동1가 445-6","building":"평화주공2단지아파트","method":"address"},"45111|평화동1가|한성|467":{"city_code":"45111","dong":"평화동1가","name":"한성","addr":"467","query":"전라북도 평화동1가 467","lat":35.7946712716503,"lng":127.14042909961,"road":"전북특별자치도 전주시 완산구 덕적골1길 31-8","region":"전북특별자치도 전주시 완산구 평화동1가 467","building":"한성아파트","method":"address"},"45111|평화동1가|효성양지마을|412":{"city_code":"45111","dong":"평화동1가","name":"효성양지마을","addr":"412","query":"전라북도 평화동1가 412","lat":35.8003742349711,"lng":127.142616356473,"road":"전북특별자치도 전주시 완산구 장승배기3길 8","region":"전북특별자치도 전주시 완산구 평화동1가 412","building":"효성양지아파트","method":"address"},"45111|평화동1가|효성평화|593":{"city_code":"45111","dong":"평화동1가","name":"효성평화","addr":"593","query":"전라북도 평화동1가 593","lat":35.7980696340932,"lng":127.133737995224,"road":"전북특별자치도 전주시 완산구 꽃밭정2길 16","region":"전북특별자치도 전주시 완산구 평화동1가 593","building":"사랑교회","method":"address"},"45111|평화동2가|그린타운(1)|897-1":{"city_code":"45111","dong":"평화동2가","name":"그린타운(1)","addr":"897-1","query":"전라북도 평화동2가 897-1","lat":35.7840494156179,"lng":127.13117316516,"road":"전북특별자치도 전주시 완산구 구이로 2094","region":"전북특별자치도 전주시 완산구 평화동2가 897-1","building":"평화주공그린타운","method":"address"},"45111|평화동2가|그린타운(2)|896-1":{"city_code":"45111","dong":"평화동2가","name":"그린타운(2)","addr":"896-1","query":"전라북도 평화동2가 896-1","lat":35.7851625483775,"lng":127.135018583382,"road":"전북특별자치도 전주시 완산구 평화로 100","region":"전북특별자치도 전주시 완산구 평화동2가 896-1","building":"평화주공 그린타운","method":"address"},"45111|평화동2가|동도미소드림|457-4":{"city_code":"45111","dong":"평화동2가","name":"동도미소드림","addr":"457-4","query":"전라북도 평화동2가 457-4","lat":35.7858039308043,"lng":127.1277201188,"road":"전북특별자치도 전주시 완산구 모악로 4651","region":"전북특별자치도 전주시 완산구 평화동2가 457-4","building":"동도미소드림아파트","method":"address"},"45111|평화동2가|동신|567":{"city_code":"45111","dong":"평화동2가","name":"동신","addr":"567","query":"전라북도 평화동2가 567","lat":35.7916505064759,"lng":127.121832923631,"road":"전북특별자치도 전주시 완산구 양지2길 10","region":"전북특별자치도 전주시 완산구 평화동2가 567","building":"동신아파트","method":"address"},"45111|평화동2가|동아현대|843-1":{"city_code":"45111","dong":"평화동2가","name":"동아현대","addr":"843-1","query":"전라북도 평화동2가 843-1","lat":35.7931650514741,"lng":127.129367873503,"road":"전북특별자치도 전주시 완산구 맏내3길 22","region":"전북특별자치도 전주시 완산구 평화동2가 843-1","building":"동아현대아파트","method":"address"},"45111|평화동2가|두산경복궁|180":{"city_code":"45111","dong":"평화동2가","name":"두산경복궁","addr":"180","query":"전라북도 평화동2가 180","lat":35.7874087174534,"lng":127.136741311019,"road":"전북특별자치도 전주시 완산구 평화로 120","region":"전북특별자치도 전주시 완산구 평화동2가 180","building":"평화동두산경복궁아파트","method":"address"},"45111|평화동2가|두산푸른솔|712-1":{"city_code":"45111","dong":"평화동2가","name":"두산푸른솔","addr":"712-1","query":"전라북도 평화동2가 712-1","lat":35.7909336148111,"lng":127.118704987982,"road":"전북특별자치도 전주시 완산구 양지1길 16-3","region":"전북특별자치도 전주시 완산구 평화동2가 712-1","building":"두산푸른솔아파트","method":"address"},"45111|평화동2가|미송평화하이존|310-1":{"city_code":"45111","dong":"평화동2가","name":"미송평화하이존","addr":"310-1","query":"전라북도 평화동2가 310-1","lat":35.7875474637221,"lng":127.129205459344,"road":"전북특별자치도 전주시 완산구 모악로 4681","region":"전북특별자치도 전주시 완산구 평화동2가 310-1","building":"미송평화하이존","method":"address"},"45111|평화동2가|삼성강남맨션|259-5":{"city_code":"45111","dong":"평화동2가","name":"삼성강남맨션","addr":"259-5","query":"전라북도 평화동2가 259-5","lat":35.7896366622151,"lng":127.129896542236,"road":"전북특별자치도 전주시 완산구 모악로 4703","region":"전북특별자치도 전주시 완산구 평화동2가 259-5","building":"삼성강남아파트","method":"address"},"45111|평화동2가|선변평화고을|857-1":{"city_code":"45111","dong":"평화동2가","name":"선변평화고을","addr":"857-1","query":"전라북도 평화동2가 857-1","lat":35.7918875998599,"lng":127.134138255456,"road":"전북특별자치도 전주시 완산구 평화14길 15-14","region":"전북특별자치도 전주시 완산구 평화동2가 857-1","building":"선변평화고을아파트","method":"address"},"45111|평화동2가|송정써미트|943":{"city_code":"45111","dong":"평화동2가","name":"송정써미트","addr":"943","query":"전라북도 평화동2가 943","lat":35.7860660845525,"lng":127.137626445942,"road":"전북특별자치도 전주시 완산구 평화7길 22","region":"전북특별자치도 전주시 완산구 평화동2가 943","building":"","method":"address"},"45111|평화동2가|아크로폴리스|95-17":{"city_code":"45111","dong":"평화동2가","name":"아크로폴리스","addr":"95-17","query":"전라북도 평화동2가 95-17","lat":35.7814270908586,"lng":127.134520074964,"road":"전북특별자치도 전주시 완산구 평화2길 16","region":"전북특별자치도 전주시 완산구 평화동2가 95-17","building":"아크로폴리스빌라","method":"address"},"45111|평화동2가|양우내안애아파트|954":{"city_code":"45111","dong":"평화동2가","name":"양우내안애아파트","addr":"954","query":"전라북도 평화동2가 954","lat":35.7817364937244,"lng":127.133551251149,"road":"전북특별자치도 전주시 완산구 평화2길 6","region":"전북특별자치도 전주시 완산구 평화동2가 954","building":"양우내안애아파트","method":"address"},"45111|평화동2가|영무예다음|952":{"city_code":"45111","dong":"평화동2가","name":"영무예다음","addr":"952","query":"전라북도 평화동2가 952","lat":35.7823215110426,"lng":127.128837089944,"road":"전북특별자치도 전주시 완산구 구이로 2065","region":"전북특별자치도 전주시 완산구 평화동2가 952","building":"영무예다음아파트","method":"address"},"45111|평화동2가|우미|312-6":{"city_code":"45111","dong":"평화동2가","name":"우미","addr":"312-6","query":"전라북도 평화동2가 312-6","lat":35.7882986161947,"lng":127.129001927796,"road":"전북특별자치도 전주시 완산구 모악로 4683","region":"전북특별자치도 전주시 완산구 평화동2가 312-6","building":"우미아파트","method":"address"},"45111|평화동2가|우성신성타운|259-12":{"city_code":"45111","dong":"평화동2가","name":"우성신성타운","addr":"259-12","query":"전라북도 평화동2가 259-12","lat":35.7903343572404,"lng":127.130372114941,"road":"전북특별자치도 전주시 완산구 모악로 4715","region":"전북특별자치도 전주시 완산구 평화동2가 259-12","building":"우성신성타운","method":"address"},"45111|평화동2가|전주평화주공5단지|292":{"city_code":"45111","dong":"평화동2가","name":"전주평화주공5단지","addr":"292","query":"전라북도 평화동2가 292","lat":35.7900642330201,"lng":127.132529587581,"road":"전북특별자치도 전주시 완산구 모악로 4724","region":"전북특별자치도 전주시 완산구 평화동2가 292","building":"전주평화주공5단지아파트","method":"address"},"45111|평화동2가|케이제이모악|713-1":{"city_code":"45111","dong":"평화동2가","name":"케이제이모악","addr":"713-1","query":"전라북도 평화동2가 713-1","lat":35.7900300801943,"lng":127.117252351438,"road":"전북특별자치도 전주시 완산구 양지3길 7","region":"전북특별자치도 전주시 완산구 평화동2가 713-1","building":"케이제이모악아파트","method":"address"},"45111|평화동2가|케이제이모악1|713-16":{"city_code":"45111","dong":"평화동2가","name":"케이제이모악1","addr":"713-16","query":"전라북도 평화동2가 713-16","lat":35.7899134933391,"lng":127.117951941276,"road":"전북특별자치도 전주시 완산구 양지3길 9","region":"전북특별자치도 전주시 완산구 평화동2가 713-16","building":"케이제이모악아파트","method":"address"},"45111|평화동2가|평화동2차골드클래스아파트|964":{"city_code":"45111","dong":"평화동2가","name":"평화동2차골드클래스아파트","addr":"964","query":"전라북도 평화동2가 964","lat":35.7841900081983,"lng":127.125174089161,"road":"전북특별자치도 전주시 완산구 맏내로 37","region":"전북특별자치도 전주시 완산구 평화동2가 964","building":"평화2차 골드클래스","method":"address"},"45111|평화동2가|평화동3차골드클래스아파트|966":{"city_code":"45111","dong":"평화동2가","name":"평화동3차골드클래스아파트","addr":"966","query":"전라북도 평화동2가 966","lat":35.7840520475243,"lng":127.12635849037,"road":"전북특별자치도 전주시 완산구 맏내로 38","region":"전북특별자치도 전주시 완산구 평화동2가 966","building":"평화3차 골드클래스 아파트","method":"address"},"45111|평화동2가|평화동골드클래스아파트|955":{"city_code":"45111","dong":"평화동2가","name":"평화동골드클래스아파트","addr":"955","query":"전라북도 평화동2가 955","lat":35.783830232348,"lng":127.129254637135,"road":"전북특별자치도 전주시 완산구 구이로 2077","region":"전북특별자치도 전주시 완산구 평화동2가 955","building":"평화동골드클래스","method":"address"},"45111|평화동2가|평화동동신(606-1)|606-1":{"city_code":"45111","dong":"평화동2가","name":"평화동동신(606-1)","addr":"606-1","query":"전라북도 평화동2가 606-1","lat":35.7911534973139,"lng":127.119821675789,"road":"전북특별자치도 전주시 완산구 양지2길 52-13","region":"전북특별자치도 전주시 완산구 평화동2가 606-1","building":"동신2차아파트 상가","method":"address"},"45111|평화동2가|평화동엠코타운|953":{"city_code":"45111","dong":"평화동2가","name":"평화동엠코타운","addr":"953","query":"전라북도 평화동2가 953","lat":35.7896320920841,"lng":127.119530241076,"road":"전북특별자치도 전주시 완산구 양지3길 15","region":"전북특별자치도 전주시 완산구 평화동2가 953","building":"엠코타운 아파트(상가)","method":"address"},"45111|평화동2가|현대|336-6":{"city_code":"45111","dong":"평화동2가","name":"현대","addr":"336-6","query":"전라북도 평화동2가 336-6","lat":35.7876145586643,"lng":127.133621478947,"road":"전북특별자치도 전주시 완산구 소대배기로 21","region":"전북특별자치도 전주시 완산구 평화동2가 336-6","building":"현대아파트","method":"address"},"45111|평화동2가|호반리젠시빌|889-7":{"city_code":"45111","dong":"평화동2가","name":"호반리젠시빌","addr":"889-7","query":"전라북도 평화동2가 889-7","lat":35.7854530244663,"lng":127.132426586349,"road":"전북특별자치도 전주시 완산구 평화로 101","region":"전북특별자치도 전주시 완산구 평화동2가 889-7","building":"호반리젠시빌아파트","method":"address"},"45111|효자동1가|거성|311-1":{"city_code":"45111","dong":"효자동1가","name":"거성","addr":"311-1","query":"전라북도 효자동1가 311-1","lat":35.8080547585852,"lng":127.12192236613,"road":"전북특별자치도 전주시 완산구 백제대로 165-10","region":"전북특별자치도 전주시 완산구 효자동1가 311-1","building":"거성아파트","method":"address"},"45111|효자동1가|거성국민|311-10":{"city_code":"45111","dong":"효자동1가","name":"거성국민","addr":"311-10","query":"전라북도 효자동1가 311-10","lat":35.8080739773352,"lng":127.122609813299,"road":"전북특별자치도 전주시 완산구 백제대로 165-8","region":"전북특별자치도 전주시 완산구 효자동1가 311-10","building":"거성국민아파트","method":"address"},"45111|효자동1가|거성소라|639":{"city_code":"45111","dong":"효자동1가","name":"거성소라","addr":"639","query":"전라북도 효자동1가 639","lat":35.8069121578229,"lng":127.12384332582,"road":"전북특별자치도 전주시 완산구 백제대로 160","region":"전북특별자치도 전주시 완산구 효자동1가 639","building":"거성소라아파트","method":"address"},"45111|효자동1가|광진|213-2":{"city_code":"45111","dong":"효자동1가","name":"광진","addr":"213-2","query":"전라북도 효자동1가 213-2","lat":35.8038082660121,"lng":127.12570006776,"road":"전북특별자치도 전주시 완산구 효동2길 28","region":"전북특별자치도 전주시 완산구 효자동1가 213-2","building":"광진맨션아파트 상가","method":"address"},"45111|효자동1가|광진진주|636-1":{"city_code":"45111","dong":"효자동1가","name":"광진진주","addr":"636-1","query":"전라북도 효자동1가 636-1","lat":35.8089354280625,"lng":127.121252662126,"road":"전북특별자치도 전주시 완산구 신봉로 60","region":"전북특별자치도 전주시 완산구 효자동1가 636-1","building":"영광교회","method":"address"},"45111|효자동1가|금호|98":{"city_code":"45111","dong":"효자동1가","name":"금호","addr":"98","query":"전라북도 효자동1가 98","lat":35.8031575415692,"lng":127.130366844717,"road":"전북특별자치도 전주시 완산구 효동3길 29","region":"전북특별자치도 전주시 완산구 효자동1가 98","building":"금호아파트","method":"address"},"45111|효자동1가|남양무지개|535-3":{"city_code":"45111","dong":"효자동1가","name":"남양무지개","addr":"535-3","query":"전라북도 효자동1가 535-3","lat":35.8121402350371,"lng":127.11310502666,"road":"전북특별자치도 전주시 완산구 거마평로 225-8","region":"전북특별자치도 전주시 완산구 효자동1가 535-3","building":"남양무지개아파트","method":"address"},"45111|효자동1가|남양송정|280-2":{"city_code":"45111","dong":"효자동1가","name":"남양송정","addr":"280-2","query":"전라북도 효자동1가 280-2","lat":35.8056602252436,"lng":127.118649338799,"road":"전북특별자치도 전주시 완산구 용머리로 78","region":"전북특별자치도 전주시 완산구 효자동1가 280-2","building":"남양송정아파트","method":"address"},"45111|효자동1가|남양아이좋은집|363-1":{"city_code":"45111","dong":"효자동1가","name":"남양아이좋은집","addr":"363-1","query":"전라북도 효자동1가 363-1","lat":35.8116136022353,"lng":127.112940633289,"road":"전북특별자치도 전주시 완산구 강변로 242","region":"전북특별자치도 전주시 완산구 효자동1가 363-1","building":"남양아이좋은집","method":"address"},"45111|효자동1가|남양황실|640":{"city_code":"45111","dong":"효자동1가","name":"남양황실","addr":"640","query":"전라북도 효자동1가 640","lat":35.8085255630718,"lng":127.123876367928,"road":"전북특별자치도 전주시 완산구 따박골로 10","region":"전북특별자치도 전주시 완산구 효자동1가 640","building":"남양황실아파트","method":"address"},"45111|효자동1가|남양황제맨션|637":{"city_code":"45111","dong":"효자동1가","name":"남양황제맨션","addr":"637","query":"전라북도 효자동1가 637","lat":35.807206029237,"lng":127.122376576483,"road":"전북특별자치도 전주시 완산구 백제대로 159","region":"전북특별자치도 전주시 완산구 효자동1가 637","building":"남양황제아파트","method":"address"},"45111|효자동1가|남양효자맨션|282-20":{"city_code":"45111","dong":"효자동1가","name":"남양효자맨션","addr":"282-20","query":"전라북도 효자동1가 282-20","lat":35.8057189961996,"lng":127.117631661852,"road":"전북특별자치도 전주시 완산구 용머리로 68","region":"전북특별자치도 전주시 완산구 효자동1가 282-20","building":"남양효자맨션아파트","method":"address"},"45111|효자동1가|대림|205-74":{"city_code":"45111","dong":"효자동1가","name":"대림","addr":"205-74","query":"전라북도 효자동1가 205-74","lat":35.8030028709952,"lng":127.12845393749,"road":"전북특별자치도 전주시 완산구 안행2길 26","region":"전북특별자치도 전주시 완산구 효자동1가 205-74","building":"대림아파트","method":"address"},"45111|효자동1가|대림마이빌|106-23":{"city_code":"45111","dong":"효자동1가","name":"대림마이빌","addr":"106-23","query":"전라북도 효자동1가 106-23","lat":35.8046046900159,"lng":127.12828038235,"road":"전북특별자치도 전주시 완산구 효동3길 18-59","region":"전북특별자치도 전주시 완산구 효자동1가 106-23","building":"효자대림마이빌아파트","method":"address"},"45111|효자동1가|대명까치|48-2":{"city_code":"45111","dong":"효자동1가","name":"대명까치","addr":"48-2","query":"전라북도 효자동1가 48-2","lat":35.8069439513379,"lng":127.13730564046,"road":"전북특별자치도 전주시 완산구 유기전2길 24","region":"전북특별자치도 전주시 완산구 효자동1가 48-2","building":"대명까치맨션","method":"address"},"45111|효자동1가|대명까치맨션(101)|45":{"city_code":"45111","dong":"효자동1가","name":"대명까치맨션(101)","addr":"45","query":"전라북도 효자동1가 45","lat":35.8070847347392,"lng":127.138243892537,"road":"전북특별자치도 전주시 완산구 유기전2길 23","region":"전북특별자치도 전주시 완산구 효자동1가 45","building":"대명까치맨션","method":"address"},"45111|효자동1가|대명까치맨션(102)|48-2":{"city_code":"45111","dong":"효자동1가","name":"대명까치맨션(102)","addr":"48-2","query":"전라북도 효자동1가 48-2","lat":35.8069439513379,"lng":127.13730564046,"road":"전북특별자치도 전주시 완산구 유기전2길 24","region":"전북특별자치도 전주시 완산구 효자동1가 48-2","building":"대명까치맨션","method":"address"},"45111|효자동1가|대우청솔|296-154":{"city_code":"45111","dong":"효자동1가","name":"대우청솔","addr":"296-154","query":"전라북도 효자동1가 296-154","lat":35.8075659846272,"lng":127.120061188257,"road":"전북특별자치도 전주시 완산구 오두정길 10","region":"전북특별자치도 전주시 완산구 효자동1가 296-154","building":"대우청솔아파트","method":"address"},"45111|효자동1가|비사벌|635":{"city_code":"45111","dong":"효자동1가","name":"비사벌","addr":"635","query":"전라북도 효자동1가 635","lat":35.811484889177,"lng":127.122259106356,"road":"전북특별자치도 전주시 완산구 서원로 256","region":"전북특별자치도 전주시 완산구 효자동1가 635","building":"","method":"address"},"45111|효자동1가|삼성효자맨션|451":{"city_code":"45111","dong":"효자동1가","name":"삼성효자맨션","addr":"451","query":"전라북도 효자동1가 451","lat":35.8048621559177,"lng":127.115410237773,"road":"전북특별자치도 전주시 완산구 거마평로 139","region":"전북특별자치도 전주시 완산구 효자동1가 451","building":"삼성효자타운","method":"address"},"45111|효자동1가|삼호|364-3":{"city_code":"45111","dong":"효자동1가","name":"삼호","addr":"364-3","query":"전라북도 효자동1가 364-3","lat":35.8094579404052,"lng":127.113444772118,"road":"전북특별자치도 전주시 완산구 강변로 220-16","region":"전북특별자치도 전주시 완산구 효자동1가 364-3","building":"삼호아파트","method":"address"},"45111|효자동1가|상산타운|652":{"city_code":"45111","dong":"효자동1가","name":"상산타운","addr":"652","query":"전라북도 효자동1가 652","lat":35.8034873753733,"lng":127.115122477599,"road":"전북특별자치도 전주시 완산구 거마평로 113","region":"전북특별자치도 전주시 완산구 효자동1가 652","building":"상산타운","method":"address"},"45111|효자동1가|상아|276-19":{"city_code":"45111","dong":"효자동1가","name":"상아","addr":"276-19","query":"전라북도 효자동1가 276-19","lat":35.8054246026162,"lng":127.119682459579,"road":"전북특별자치도 전주시 완산구 성지산3길 37","region":"전북특별자치도 전주시 완산구 효자동1가 276-19","building":"유성상아아파트","method":"address"},"45111|효자동1가|서부거성|205-13":{"city_code":"45111","dong":"효자동1가","name":"서부거성","addr":"205-13","query":"전라북도 효자동1가 205-13","lat":35.8040447450739,"lng":127.127083393507,"road":"전북특별자치도 전주시 완산구 효동2길 21-10","region":"전북특별자치도 전주시 완산구 효자동1가 205-13","building":"예길선교교회","method":"address"},"45111|효자동1가|선변2차안행고을|684-1":{"city_code":"45111","dong":"효자동1가","name":"선변2차안행고을","addr":"684-1","query":"전라북도 효자동1가 684-1","lat":35.8026600298736,"lng":127.132768677467,"road":"전북특별자치도 전주시 완산구 안행9길 27","region":"전북특별자치도 전주시 완산구 효자동1가 684-1","building":"선변안행고을아파트","method":"address"},"45111|효자동1가|선변안행고을|685-1":{"city_code":"45111","dong":"효자동1가","name":"선변안행고을","addr":"685-1","query":"전라북도 효자동1가 685-1","lat":35.8027571331553,"lng":127.133142451619,"road":"전북특별자치도 전주시 완산구 안행9길 23","region":"전북특별자치도 전주시 완산구 효자동1가 685-1","building":"선변안행고을아파트 상가","method":"address"},"45111|효자동1가|성원골드맨션|636-2":{"city_code":"45111","dong":"효자동1가","name":"성원골드맨션","addr":"636-2","query":"전라북도 효자동1가 636-2","lat":35.8088923435432,"lng":127.122324395208,"road":"전북특별자치도 전주시 완산구 신봉로 72","region":"전북특별자치도 전주시 완산구 효자동1가 636-2","building":"성원골드맨션아파트 상가","method":"address"},"45111|효자동1가|성원맨션|415-2":{"city_code":"45111","dong":"효자동1가","name":"성원맨션","addr":"415-2","query":"전라북도 효자동1가 415-2","lat":35.8082491356501,"lng":127.113860173721,"road":"전북특별자치도 전주시 완산구 거마평로 189-27","region":"전북특별자치도 전주시 완산구 효자동1가 415-2","building":"효자성원맨션 상가","method":"address"},"45111|효자동1가|신원리브웰|810":{"city_code":"45111","dong":"효자동1가","name":"신원리브웰","addr":"810","query":"전라북도 효자동1가 810","lat":35.8070136587802,"lng":127.120813264769,"road":"전북특별자치도 전주시 완산구 용머리로 101","region":"전북특별자치도 전주시 완산구 효자동1가 810","building":"신원리브웰","method":"address"},"45111|효자동1가|신일|635-2":{"city_code":"45111","dong":"효자동1가","name":"신일","addr":"635-2","query":"전라북도 효자동1가 635-2","lat":35.8102925916658,"lng":127.121298761846,"road":"전북특별자치도 전주시 완산구 신봉로 49","region":"전북특별자치도 전주시 완산구 효자동1가 635-2","building":"신일아파트 상가","method":"address"},"45111|효자동1가|쌍용모악파크빌라|654-2":{"city_code":"45111","dong":"효자동1가","name":"쌍용모악파크빌라","addr":"654-2","query":"전라북도 효자동1가 654-2","lat":35.800827318241,"lng":127.115758202075,"road":"전북특별자치도 전주시 완산구 거마평로 93","region":"전북특별자치도 전주시 완산구 효자동1가 654-2","building":"쌍용모악파크빌라","method":"address"},"45111|효자동1가|유진청하맨션A|403":{"city_code":"45111","dong":"효자동1가","name":"유진청하맨션A","addr":"403","query":"전라북도 효자동1가 403","lat":35.8089881968317,"lng":127.113546448946,"road":"전북특별자치도 전주시 완산구 거마평로 189-8","region":"전북특별자치도 전주시 완산구 효자동1가 403","building":"유진청하맨션","method":"address"},"45111|효자동1가|유진청하맨션B|403-3":{"city_code":"45111","dong":"효자동1가","name":"유진청하맨션B","addr":"403-3","query":"전라북도 효자동1가 403-3","lat":35.8090250139671,"lng":127.114543396373,"road":"전북특별자치도 전주시 완산구 거마평로 189-4","region":"전북특별자치도 전주시 완산구 효자동1가 403-3","building":"유진청하맨션 상가","method":"address"},"45111|효자동1가|제일|636":{"city_code":"45111","dong":"효자동1가","name":"제일","addr":"636","query":"전라북도 효자동1가 636","lat":35.8092519756961,"lng":127.120421325598,"road":"전북특별자치도 전주시 완산구 신봉로 48","region":"전북특별자치도 전주시 완산구 효자동1가 636","building":"제일아파트 상가","method":"address"},"45111|효자동1가|제일효자타운|654":{"city_code":"45111","dong":"효자동1가","name":"제일효자타운","addr":"654","query":"전라북도 효자동1가 654","lat":35.8015935187136,"lng":127.114968509912,"road":"전북특별자치도 전주시 완산구 거마평로 109","region":"전북특별자치도 전주시 완산구 효자동1가 654","building":"제일효자타운","method":"address"},"45111|효자동1가|주공3|133":{"city_code":"45111","dong":"효자동1가","name":"주공3","addr":"133","query":"전라북도 효자동1가 133","lat":35.8050749941956,"lng":127.13249510639,"road":"전북특별자치도 전주시 완산구 용머리로 192","region":"전북특별자치도 전주시 완산구 효자동1가 133","building":"효자주공아파트3단지","method":"address"},"45111|효자동1가|케이제이라미안|408-1":{"city_code":"45111","dong":"효자동1가","name":"케이제이라미안","addr":"408-1","query":"전라북도 효자동1가 408-1","lat":35.8076897076192,"lng":127.110984471009,"road":"전북특별자치도 전주시 완산구 강변로 210","region":"전북특별자치도 전주시 완산구 효자동1가 408-1","building":"광진라미안아파트","method":"address"},"45111|효자동1가|한강|660-1":{"city_code":"45111","dong":"효자동1가","name":"한강","addr":"660-1","query":"전라북도 효자동1가 660-1","lat":35.8018064377346,"lng":127.113311753153,"road":"전북특별자치도 전주시 완산구 강변로 120","region":"전북특별자치도 전주시 완산구 효자동1가 660-1","building":"한강아파트","method":"address"},"45111|효자동1가|한성|303":{"city_code":"45111","dong":"효자동1가","name":"한성","addr":"303","query":"전라북도 효자동1가 303","lat":35.8080022214654,"lng":127.121292291718,"road":"전북특별자치도 전주시 완산구 백제대로 165-16","region":"전북특별자치도 전주시 완산구 효자동1가 303","building":"한성아파트","method":"address"},"45111|효자동1가|한양운남|635-1":{"city_code":"45111","dong":"효자동1가","name":"한양운남","addr":"635-1","query":"전라북도 효자동1가 635-1","lat":35.8101603585534,"lng":127.122383653737,"road":"전북특별자치도 전주시 완산구 신봉로 67","region":"전북특별자치도 전주시 완산구 효자동1가 635-1","building":"은총교회","method":"address"},"45111|효자동1가|현대|418":{"city_code":"45111","dong":"효자동1가","name":"현대","addr":"418","query":"전라북도 효자동1가 418","lat":35.8038051401235,"lng":127.112478073393,"road":"전북특별자치도 전주시 완산구 용머리로 20","region":"전북특별자치도 전주시 완산구 효자동1가 418","building":"효자현대아파트","method":"address"},"45111|효자동1가|효자2차롯데|416":{"city_code":"45111","dong":"효자동1가","name":"효자2차롯데","addr":"416","query":"전라북도 효자동1가 416","lat":35.806258176145,"lng":127.112788445404,"road":"전북특별자치도 전주시 완산구 용머리로 27","region":"전북특별자치도 전주시 완산구 효자동1가 416","building":"효자롯데2차아파트","method":"address"},"45111|효자동1가|효자동미송|431":{"city_code":"45111","dong":"효자동1가","name":"효자동미송","addr":"431","query":"전라북도 효자동1가 431","lat":35.8085182755393,"lng":127.114689270005,"road":"전북특별자치도 전주시 완산구 거마평로 189-11","region":"전북특별자치도 전주시 완산구 효자동1가 431","building":"미송하이존아파트","method":"address"},"45111|효자동1가|효자동미송아파트|431":{"city_code":"45111","dong":"효자동1가","name":"효자동미송아파트","addr":"431","query":"전라북도 효자동1가 431","lat":35.8085182755393,"lng":127.114689270005,"road":"전북특별자치도 전주시 완산구 거마평로 189-11","region":"전북특별자치도 전주시 완산구 효자동1가 431","building":"미송하이존아파트","method":"address"},"45111|효자동1가|효자동한신휴플러스|799":{"city_code":"45111","dong":"효자동1가","name":"효자동한신휴플러스","addr":"799","query":"전라북도 효자동1가 799","lat":35.8070722204398,"lng":127.127296330927,"road":"전북특별자치도 전주시 완산구 따박골4길 10","region":"전북특별자치도 전주시 완산구 효자동1가 799","building":"효자동 한신휴플러스","method":"address"},"45111|효자동1가|효자롯데|414":{"city_code":"45111","dong":"효자동1가","name":"효자롯데","addr":"414","query":"전라북도 효자동1가 414","lat":35.8075586168213,"lng":127.112393524896,"road":"전북특별자치도 전주시 완산구 용머리로 29","region":"전북특별자치도 전주시 완산구 효자동1가 414","building":"효자롯데아파트","method":"address"},"45111|효자동1가|효자뷰티빌|373":{"city_code":"45111","dong":"효자동1가","name":"효자뷰티빌","addr":"373","query":"전라북도 효자동1가 373","lat":35.810987033116,"lng":127.114003717045,"road":"전북특별자치도 전주시 완산구 거마평로 217","region":"전북특별자치도 전주시 완산구 효자동1가 373","building":"효자뷰티빌아파트","method":"address"},"45111|효자동1가|힐스테이트어울림효자|166-1":{"city_code":"45111","dong":"효자동1가","name":"힐스테이트어울림효자","addr":"166-1","query":"전라북도 효자동1가 166-1","lat":35.8071657872068,"lng":127.124266255956,"road":null,"region":"전북특별자치도 전주시 완산구 효자동1가 166-1","building":null,"method":"address"},"45111|효자동2가|골든팰리스휴먼시아|1192-1":{"city_code":"45111","dong":"효자동2가","name":"골든팰리스휴먼시아","addr":"1192-1","query":"전라북도 효자동2가 1192-1","lat":35.8086024968815,"lng":127.099243794959,"road":"전북특별자치도 전주시 완산구 호암로 40","region":"전북특별자치도 전주시 완산구 효자동2가 1192-1","building":"골든팰리스휴먼시아아파트","method":"address"},"45111|효자동2가|남양무궁화|221-1":{"city_code":"45111","dong":"효자동2가","name":"남양무궁화","addr":"221-1","query":"전라북도 효자동2가 221-1","lat":35.8037042041076,"lng":127.109345942207,"road":null,"region":"전북특별자치도 전주시 완산구 효자동2가 221-1","building":null,"method":"address"},"45111|효자동2가|더샵2차|122":{"city_code":"45111","dong":"효자동2가","name":"더샵2차","addr":"122","query":"전라북도 효자동2가 122","lat":35.8090240569279,"lng":127.108182186745,"road":"전북특별자치도 전주시 완산구 봉곡로 140","region":"전북특별자치도 전주시 완산구 효자동2가 122","building":"더샵효자2차아파트","method":"address"},"45111|효자동2가|더샵효자아파트|100-1":{"city_code":"45111","dong":"효자동2가","name":"더샵효자아파트","addr":"100-1","query":"전라북도 효자동2가 100-1","lat":35.8108023053856,"lng":127.108816053243,"road":"전북특별자치도 전주시 완산구 봉곡로 147","region":"전북특별자치도 전주시 완산구 효자동2가 100-1","building":"포스코더샵아파트 (상가동)","method":"address"},"45111|효자동2가|데시앙아이린|1193-1":{"city_code":"45111","dong":"효자동2가","name":"데시앙아이린","addr":"1193-1","query":"전라북도 효자동2가 1193-1","lat":35.8064623754194,"lng":127.097015837417,"road":"전북특별자치도 전주시 완산구 소태정로 1","region":"전북특별자치도 전주시 완산구 효자동2가 1193-1","building":"데시앙아이린아파트","method":"address"},"45111|효자동2가|서희스타힐스|1157-1":{"city_code":"45111","dong":"효자동2가","name":"서희스타힐스","addr":"1157-1","query":"전라북도 효자동2가 1157-1","lat":35.8142115192521,"lng":127.10689394959,"road":"전북특별자치도 전주시 완산구 홍산1길 21","region":"전북특별자치도 전주시 완산구 효자동2가 1157-1","building":"서희스타힐스","method":"address"},"45111|효자동2가|세븐팰리스 데시앙|1315-1":{"city_code":"45111","dong":"효자동2가","name":"세븐팰리스 데시앙","addr":"1315-1","query":"전라북도 효자동2가 1315-1","lat":35.8104958145679,"lng":127.10252943722,"road":"전북특별자치도 전주시 완산구 우전로 180","region":"전북특별자치도 전주시 완산구 효자동2가 1315-1","building":"세븐팰리스 데시앙","method":"address"},"45111|효자동2가|아르팰리스휴먼시아|1314-1":{"city_code":"45111","dong":"효자동2가","name":"아르팰리스휴먼시아","addr":"1314-1","query":"전라북도 효자동2가 1314-1","lat":35.8107211509972,"lng":127.0986262627,"road":"전북특별자치도 전주시 완산구 호암로 41","region":"전북특별자치도 전주시 완산구 효자동2가 1314-1","building":"아르팰리스휴먼시아","method":"address"},"45111|효자동2가|엘드효자2차수목토|110":{"city_code":"45111","dong":"효자동2가","name":"엘드효자2차수목토","addr":"110","query":"전라북도 효자동2가 110","lat":35.8099143002574,"lng":127.109798360024,"road":"전북특별자치도 전주시 완산구 봉곡로 149","region":"전북특별자치도 전주시 완산구 효자동2가 110","building":"엘드효자2차수목토아파트","method":"address"},"45111|효자동2가|엘에이치세븐팰리스|1315-1":{"city_code":"45111","dong":"효자동2가","name":"엘에이치세븐팰리스","addr":"1315-1","query":"전라북도 효자동2가 1315-1","lat":35.8104958145679,"lng":127.10252943722,"road":"전북특별자치도 전주시 완산구 우전로 180","region":"전북특별자치도 전주시 완산구 효자동2가 1315-1","building":"세븐팰리스 데시앙","method":"address"},"45111|효자동2가|우전아파트|379-2":{"city_code":"45111","dong":"효자동2가","name":"우전아파트","addr":"379-2","query":"전라북도 효자동2가 379-2","lat":35.804242288123,"lng":127.104757254244,"road":"전북특별자치도 전주시 완산구 쑥고개로 363-19","region":"전북특별자치도 전주시 완산구 효자동2가 379-2","building":"","method":"address"},"45111|효자동2가|융성|227":{"city_code":"45111","dong":"효자동2가","name":"융성","addr":"227","query":"전라북도 효자동2가 227","lat":35.8031818215731,"lng":127.109654451319,"road":null,"region":"전북특별자치도 전주시 완산구 효자동2가 227","building":null,"method":"address"},"45111|효자동2가|전주효자SKLeadersVIEW|1157-4":{"city_code":"45111","dong":"효자동2가","name":"전주효자SKLeadersVIEW","addr":"1157-4","query":"전라북도 효자동2가 1157-4","lat":35.814216276887,"lng":127.108324776104,"road":"전북특별자치도 전주시 완산구 홍산1길 7","region":"전북특별자치도 전주시 완산구 효자동2가 1157-4","building":"전주 효자 SK Leaders VIEW","method":"address"},"45111|효자동2가|전주효천대방노블랜드에코파크|1383":{"city_code":"45111","dong":"효자동2가","name":"전주효천대방노블랜드에코파크","addr":"1383","query":"전라북도 효자동2가 1383","lat":35.7975010087104,"lng":127.104250913591,"road":"전북특별자치도 전주시 완산구 홍산로 11","region":"전북특별자치도 전주시 완산구 효자동2가 1383","building":"","method":"address"},"45111|효자동2가|전주효천우미린더퍼스트|1363":{"city_code":"45111","dong":"효자동2가","name":"전주효천우미린더퍼스트","addr":"1363","query":"전라북도 효자동2가 1363","lat":35.7995787667308,"lng":127.102274677008,"road":"전북특별자치도 전주시 완산구 효천중앙로 11","region":"전북특별자치도 전주시 완산구 효자동2가 1363","building":"전주효천우미린더퍼스트","method":"address"},"45111|효자동2가|전주효천우미린더프레스티지|1364":{"city_code":"45111","dong":"효자동2가","name":"전주효천우미린더프레스티지","addr":"1364","query":"전라북도 효자동2가 1364","lat":35.8008851627132,"lng":127.104562670332,"road":"전북특별자치도 전주시 완산구 홍산로 75","region":"전북특별자치도 전주시 완산구 효자동2가 1364","building":"","method":"address"},"45111|효자동2가|풍림아이원|184":{"city_code":"45111","dong":"효자동2가","name":"풍림아이원","addr":"184","query":"전라북도 효자동2가 184","lat":35.8064438372748,"lng":127.106053632765,"road":"전북특별자치도 전주시 완산구 우전1길 40","region":"전북특별자치도 전주시 완산구 효자동2가 184","building":"풍림아이원아파트","method":"address"},"45111|효자동2가|효자동1차엘드수목토|70":{"city_code":"45111","dong":"효자동2가","name":"효자동1차엘드수목토","addr":"70","query":"전라북도 효자동2가 70","lat":35.8124187466109,"lng":127.109380460481,"road":"전북특별자치도 전주시 완산구 세내로 241","region":"전북특별자치도 전주시 완산구 효자동2가 70","building":"효자1차엘드수목토아파트","method":"address"},"45111|효자동2가|효자세느빌|135-6":{"city_code":"45111","dong":"효자동2가","name":"효자세느빌","addr":"135-6","query":"전라북도 효자동2가 135-6","lat":35.808047596639,"lng":127.108518762634,"road":"전북특별자치도 전주시 완산구 세내로 193","region":"전북특별자치도 전주시 완산구 효자동2가 135-6","building":"세느빌아파트","method":"address"},"45111|효자동2가|효자이지움|1354":{"city_code":"45111","dong":"효자동2가","name":"효자이지움","addr":"1354","query":"전라북도 효자동2가 1354","lat":35.8071778983383,"lng":127.108096702617,"road":"전북특별자치도 전주시 완산구 세내로 185","region":"전북특별자치도 전주시 완산구 효자동2가 1354","building":"효자이지움","method":"address"},"45111|효자동2가|휴먼시아아이린|1193-1":{"city_code":"45111","dong":"효자동2가","name":"휴먼시아아이린","addr":"1193-1","query":"전라북도 효자동2가 1193-1","lat":35.8064623754194,"lng":127.097015837417,"road":"전북특별자치도 전주시 완산구 소태정로 1","region":"전북특별자치도 전주시 완산구 효자동2가 1193-1","building":"데시앙아이린아파트","method":"address"},"45111|효자동3가|서곡대림|1473-5":{"city_code":"45111","dong":"효자동3가","name":"서곡대림","addr":"1473-5","query":"전라북도 효자동3가 1473-5","lat":35.8327534635108,"lng":127.097279365471,"road":"전북특별자치도 전주시 완산구 서곡로 11","region":"전북특별자치도 전주시 완산구 효자동3가 1473-5","building":"서곡대림아파트","method":"address"},"45111|효자동3가|서곡두산|1483-2":{"city_code":"45111","dong":"효자동3가","name":"서곡두산","addr":"1483-2","query":"전라북도 효자동3가 1483-2","lat":35.8309327838209,"lng":127.098113392973,"road":"전북특별자치도 전주시 완산구 서곡로 20-1","region":"전북특별자치도 전주시 완산구 효자동3가 1483-2","building":"서곡두산아파트","method":"address"},"45111|효자동3가|서곡엘지|1473-1":{"city_code":"45111","dong":"효자동3가","name":"서곡엘지","addr":"1473-1","query":"전라북도 효자동3가 1473-1","lat":35.8338285447161,"lng":127.097871364204,"road":"전북특별자치도 전주시 완산구 세내로 557","region":"전북특별자치도 전주시 완산구 효자동3가 1473-1","building":"서곡엘지아파트 상가","method":"address"},"45111|효자동3가|서곡주공|1482-1":{"city_code":"45111","dong":"효자동3가","name":"서곡주공","addr":"1482-1","query":"전라북도 효자동3가 1482-1","lat":35.8313521701192,"lng":127.096179988578,"road":"전북특별자치도 전주시 완산구 서곡로 8","region":"전북특별자치도 전주시 완산구 효자동3가 1482-1","building":"서곡주공아파트","method":"address"},"45111|효자동3가|서곡현대|1473-2":{"city_code":"45111","dong":"효자동3가","name":"서곡현대","addr":"1473-2","query":"전라북도 효자동3가 1473-2","lat":35.8332730203442,"lng":127.098958192698,"road":"전북특별자치도 전주시 완산구 세내로 545","region":"전북특별자치도 전주시 완산구 효자동3가 1473-2","building":"서곡현대아파트","method":"address"},"45111|효자동3가|서부신시가지골든시티|1528-1":{"city_code":"45111","dong":"효자동3가","name":"서부신시가지골든시티","addr":"1528-1","query":"전라북도 효자동3가 1528-1","lat":35.8182312605941,"lng":127.109368182883,"road":"전북특별자치도 전주시 완산구 홍산4길 6","region":"전북특별자치도 전주시 완산구 효자동3가 1528-1","building":"골든시티","method":"address"},"45111|효자동3가|서부신시가지코아루해피트리|1540-1":{"city_code":"45111","dong":"효자동3가","name":"서부신시가지코아루해피트리","addr":"1540-1","query":"전라북도 효자동3가 1540-1","lat":35.8172089350331,"lng":127.111553756979,"road":"전북특별자치도 전주시 완산구 세내로 303","region":"전북특별자치도 전주시 완산구 효자동3가 1540-1","building":"코아루해피트리아파트","method":"address"},"45111|효자동3가|성우아르데코|1542-2":{"city_code":"45111","dong":"효자동3가","name":"성우아르데코","addr":"1542-2","query":"전라북도 효자동3가 1542-2","lat":35.8152795676729,"lng":127.111400571595,"road":"전북특별자치도 전주시 완산구 세내로 281","region":"전북특별자치도 전주시 완산구 효자동3가 1542-2","building":"성우아르데코","method":"address"},"45111|효자동3가|신원아침도시펜트176|1540-2":{"city_code":"45111","dong":"효자동3가","name":"신원아침도시펜트176","addr":"1540-2","query":"전라북도 효자동3가 1540-2","lat":35.8168185304258,"lng":127.11153052678,"road":"전북특별자치도 전주시 완산구 세내로 299","region":"전북특별자치도 전주시 완산구 효자동3가 1540-2","building":"신원아침도시펜트176","method":"address"},"45111|효자동3가|우미|1523-3":{"city_code":"45111","dong":"효자동3가","name":"우미","addr":"1523-3","query":"전라북도 효자동3가 1523-3","lat":35.8262547541716,"lng":127.110030465456,"road":"전북특별자치도 전주시 완산구 유연로 217-6","region":"전북특별자치도 전주시 완산구 효자동3가 1523-3","building":"우미린","method":"address"},"45111|효자동3가|청솔|1483-1":{"city_code":"45111","dong":"효자동3가","name":"청솔","addr":"1483-1","query":"전라북도 효자동3가 1483-1","lat":35.8318223277243,"lng":127.099536438259,"road":"전북특별자치도 전주시 완산구 서곡로 34","region":"전북특별자치도 전주시 완산구 효자동3가 1483-1","building":"서곡청솔아파트","method":"address"},"45111|효자동3가|코아루성우아르데코|1531-1":{"city_code":"45111","dong":"효자동3가","name":"코아루성우아르데코","addr":"1531-1","query":"전라북도 효자동3가 1531-1","lat":35.8172123028433,"lng":127.106448161164,"road":"전북특별자치도 전주시 완산구 홍산로 262","region":"전북특별자치도 전주시 완산구 효자동3가 1531-1","building":"코아루성우아르데코","method":"address"},"45111|효자동3가|코오롱스카이타워|1526-2":{"city_code":"45111","dong":"효자동3가","name":"코오롱스카이타워","addr":"1526-2","query":"전라북도 효자동3가 1526-2","lat":35.818021117642,"lng":127.111589860352,"road":"전북특별자치도 전주시 완산구 홍산북로 83","region":"전북특별자치도 전주시 완산구 효자동3가 1526-2","building":"코오롱스카이타워","method":"address"},"45111|효자동3가|현대아이파크|1524-1":{"city_code":"45111","dong":"효자동3가","name":"현대아이파크","addr":"1524-1","query":"전라북도 효자동3가 1524-1","lat":35.8277489961951,"lng":127.107592272857,"road":"전북특별자치도 전주시 완산구 유연로 217-29","region":"전북특별자치도 전주시 완산구 효자동3가 1524-1","building":"열린새마을금고","method":"address"},"45111|효자동3가|호반베르디움|1524-2":{"city_code":"45111","dong":"효자동3가","name":"호반베르디움","addr":"1524-2","query":"전라북도 효자동3가 1524-2","lat":35.8262284706092,"lng":127.107705203683,"road":"전북특별자치도 전주시 완산구 유연로 217","region":"전북특별자치도 전주시 완산구 효자동3가 1524-2","building":"호반베르디움아파트","method":"address"},"45111|효자동3가|힐스테이트효자동|1540-3":{"city_code":"45111","dong":"효자동3가","name":"힐스테이트효자동","addr":"1540-3","query":"전라북도 효자동3가 1540-3","lat":35.8162149012912,"lng":127.111492392452,"road":"전북특별자치도 전주시 완산구 세내로 291","region":"전북특별자치도 전주시 완산구 효자동3가 1540-3","building":"힐스테이트 효자동","method":"address"},"45113|고랑동|고랑동노블레스더센텀|1224":{"city_code":"45113","dong":"고랑동","name":"고랑동노블레스더센텀","addr":"1224","query":"전라북도 고랑동 1224","lat":35.8748750993825,"lng":127.08398741318,"road":"전북특별자치도 전주시 덕진구 여산로 253","region":"전북특별자치도 전주시 덕진구 고랑동 1224","building":"노블레스더센텀","method":"address"},"45113|고랑동|명성|820-9":{"city_code":"45113","dong":"고랑동","name":"명성","addr":"820-9","query":"전라북도 고랑동 820-9","lat":35.8763917150971,"lng":127.077849876021,"road":"전북특별자치도 전주시 덕진구 쪽구름5길 5","region":"전북특별자치도 전주시 덕진구 고랑동 820-9","building":"명성아파트","method":"address"},"45113|금암동|(동남)우정|632-152":{"city_code":"45113","dong":"금암동","name":"(동남)우정","addr":"632-152","query":"전라북도 금암동 632-152","lat":35.8444924535155,"lng":127.140140515729,"road":"전북특별자치도 전주시 덕진구 건지2길 13-16","region":"전북특별자치도 전주시 덕진구 금암동 632-152","building":"우정아파트","method":"address"},"45113|금암동|(동남)우정맨션|628-1":{"city_code":"45113","dong":"금암동","name":"(동남)우정맨션","addr":"628-1","query":"전라북도 금암동 628-1","lat":35.8432167992521,"lng":127.135598074951,"road":"전북특별자치도 전주시 덕진구 삼송3길 21","region":"전북특별자치도 전주시 덕진구 금암동 628-1","building":"우정맨숀아파트","method":"address"},"45113|금암동|거성타워|523-9":{"city_code":"45113","dong":"금암동","name":"거성타워","addr":"523-9","query":"전라북도 금암동 523-9","lat":35.8356528745248,"lng":127.139408979406,"road":"전북특별자치도 전주시 덕진구 매봉16길 37","region":"전북특별자치도 전주시 덕진구 금암동 523-9","building":"거성타워아파트","method":"address"},"45113|금암동|골든팰리스|455-13":{"city_code":"45113","dong":"금암동","name":"골든팰리스","addr":"455-13","query":"전라북도 금암동 455-13","lat":35.833097618173,"lng":127.136115423678,"road":"전북특별자치도 전주시 덕진구 팔달로 375-13","region":"전북특별자치도 전주시 덕진구 금암동 455-13","building":"","method":"address"},"45113|금암동|공영|1601-11":{"city_code":"45113","dong":"금암동","name":"공영","addr":"1601-11","query":"전라북도 금암동 1601-11","lat":35.8416947215414,"lng":127.143770051004,"road":"전북특별자치도 전주시 덕진구 매봉7길 27","region":"전북특별자치도 전주시 덕진구 금암동 1601-11","building":"공영아파트","method":"address"},"45113|금암동|금암동거성|526-15":{"city_code":"45113","dong":"금암동","name":"금암동거성","addr":"526-15","query":"전라북도 금암동 526-15","lat":35.8375866309012,"lng":127.138535865481,"road":"전북특별자치도 전주시 덕진구 거북바우2길 11","region":"전북특별자치도 전주시 덕진구 금암동 526-15","building":"","method":"address"},"45113|금암동|금암동도래미|145-37":{"city_code":"45113","dong":"금암동","name":"금암동도래미","addr":"145-37","query":"전라북도 금암동 145-37","lat":35.8357377096935,"lng":127.140315266763,"road":"전북특별자치도 전주시 덕진구 거북바우로 10","region":"전북특별자치도 전주시 덕진구 금암동 145-37","building":"도래미아파트","method":"address"},"45113|금암동|금암상가|765-1":{"city_code":"45113","dong":"금암동","name":"금암상가","addr":"765-1","query":"전라북도 금암동 765-1","lat":35.8349360942699,"lng":127.130509124891,"road":"전북특별자치도 전주시 덕진구 용산1길 12","region":"전북특별자치도 전주시 덕진구 금암동 765-1","building":"금암상가맨션아파트","method":"address"},"45113|금암동|금암중앙하이츠|1564":{"city_code":"45113","dong":"금암동","name":"금암중앙하이츠","addr":"1564","query":"전라북도 금암동 1564","lat":35.8377595501053,"lng":127.139808799563,"road":"전북특별자치도 전주시 덕진구 거북바우3길 13","region":"전북특별자치도 전주시 덕진구 금암동 1564","building":"금암중앙하이츠아파트","method":"address"},"45113|금암동|동남국민|1601-10":{"city_code":"45113","dong":"금암동","name":"동남국민","addr":"1601-10","query":"전라북도 금암동 1601-10","lat":35.8418782928574,"lng":127.143631578582,"road":"전북특별자치도 전주시 덕진구 매봉5길 26","region":"전북특별자치도 전주시 덕진구 금암동 1601-10","building":"동남국민아파트","method":"address"},"45113|금암동|동남장미|1599-6":{"city_code":"45113","dong":"금암동","name":"동남장미","addr":"1599-6","query":"전라북도 금암동 1599-6","lat":35.8421838184005,"lng":127.143103145857,"road":"전북특별자치도 전주시 덕진구 매봉5길 21","region":"전북특별자치도 전주시 덕진구 금암동 1599-6","building":"동남장미아파트 관리사무소 및 판매장","method":"address"},"45113|금암동|두산그랜드타운|1584":{"city_code":"45113","dong":"금암동","name":"두산그랜드타운","addr":"1584","query":"전라북도 금암동 1584","lat":35.8417377415775,"lng":127.141619450137,"road":"전북특별자치도 전주시 덕진구 매봉로 40","region":"전북특별자치도 전주시 덕진구 금암동 1584","building":"두산그랜드타운","method":"address"},"45113|금암동|목련|1577-1":{"city_code":"45113","dong":"금암동","name":"목련","addr":"1577-1","query":"전라북도 금암동 1577-1","lat":35.8389057015354,"lng":127.140716100091,"road":"전북특별자치도 전주시 덕진구 매봉14길 11","region":"전북특별자치도 전주시 덕진구 금암동 1577-1","building":"목련A","method":"address"},"45113|금암동|미성|710-9":{"city_code":"45113","dong":"금암동","name":"미성","addr":"710-9","query":"전라북도 금암동 710-9","lat":35.8388712928063,"lng":127.13146690408,"road":"전북특별자치도 전주시 덕진구 기린대로 410-3","region":"전북특별자치도 전주시 덕진구 금암동 710-9","building":"","method":"address"},"45113|금암동|세원|708-3":{"city_code":"45113","dong":"금암동","name":"세원","addr":"708-3","query":"전라북도 금암동 708-3","lat":35.8410016178591,"lng":127.128613241571,"road":"전북특별자치도 전주시 덕진구 기린대로 442","region":"전북특별자치도 전주시 덕진구 금암동 708-3","building":"금암세원아파트","method":"address"},"45113|금암동|세일주택|1594-1":{"city_code":"45113","dong":"금암동","name":"세일주택","addr":"1594-1","query":"전라북도 금암동 1594-1","lat":35.8445190897651,"lng":127.141636017123,"road":"전북특별자치도 전주시 덕진구 건지2길 14","region":"전북특별자치도 전주시 덕진구 금암동 1594-1","building":"세일주택아파트","method":"address"},"45113|금암동|영동빌라|1574-9":{"city_code":"45113","dong":"금암동","name":"영동빌라","addr":"1574-9","query":"전라북도 금암동 1574-9","lat":35.8389791851168,"lng":127.142828869072,"road":"전북특별자치도 전주시 덕진구 거북바우로 57","region":"전북특별자치도 전주시 덕진구 금암동 1574-9","building":"영동빌라","method":"address"},"45113|금암동|영창맨션|715-6":{"city_code":"45113","dong":"금암동","name":"영창맨션","addr":"715-6","query":"전라북도 금암동 715-6","lat":35.8381334252335,"lng":127.129816280274,"road":"전북특별자치도 전주시 덕진구 떡전4길 17","region":"전북특별자치도 전주시 덕진구 금암동 715-6","building":"영창맨션","method":"address"},"45113|금암동|융성|1593-3":{"city_code":"45113","dong":"금암동","name":"융성","addr":"1593-3","query":"전라북도 금암동 1593-3","lat":35.8442252939667,"lng":127.1423109374,"road":"전북특별자치도 전주시 덕진구 건지로 7","region":"전북특별자치도 전주시 덕진구 금암동 1593-3","building":"융성아파트","method":"address"},"45113|금암동|정화|632-63":{"city_code":"45113","dong":"금암동","name":"정화","addr":"632-63","query":"전라북도 금암동 632-63","lat":35.8442277181203,"lng":127.139241452264,"road":"전북특별자치도 전주시 덕진구 조경단로 110","region":"전북특별자치도 전주시 덕진구 금암동 632-63","building":"정화아파트","method":"address"},"45113|금암동|천년이지움|1640":{"city_code":"45113","dong":"금암동","name":"천년이지움","addr":"1640","query":"전라북도 금암동 1640","lat":35.8355336836862,"lng":127.137806568131,"road":"전북특별자치도 전주시 덕진구 거북바우1길 16-6","region":"전북특별자치도 전주시 덕진구 금암동 1640","building":"천년이지움아파트","method":"address"},"45113|금암동|천일|1577-21":{"city_code":"45113","dong":"금암동","name":"천일","addr":"1577-21","query":"전라북도 금암동 1577-21","lat":35.8387268005518,"lng":127.140871185005,"road":"전북특별자치도 전주시 덕진구 매봉로 7-24","region":"전북특별자치도 전주시 덕진구 금암동 1577-21","building":"천일아파트","method":"address"},"45113|금암동|청목시티빌|470-1":{"city_code":"45113","dong":"금암동","name":"청목시티빌","addr":"470-1","query":"전라북도 금암동 470-1","lat":35.8378388756038,"lng":127.132721343752,"road":"전북특별자치도 전주시 덕진구 기린대로 400-6","region":"전북특별자치도 전주시 덕진구 금암동 470-1","building":"","method":"address"},"45113|금암동|한양|1594-2":{"city_code":"45113","dong":"금암동","name":"한양","addr":"1594-2","query":"전라북도 금암동 1594-2","lat":35.844638866284,"lng":127.142246810352,"road":"전북특별자치도 전주시 덕진구 건지로 9","region":"전북특별자치도 전주시 덕진구 금암동 1594-2","building":"한양아파트","method":"address"},"45113|금암동|한양(국민)|1602-11":{"city_code":"45113","dong":"금암동","name":"한양(국민)","addr":"1602-11","query":"전라북도 금암동 1602-11","lat":35.8415330505449,"lng":127.14443444228,"road":"전북특별자치도 전주시 덕진구 매봉9길 29","region":"전북특별자치도 전주시 덕진구 금암동 1602-11","building":"한양아파트","method":"address"},"45113|금암동|휴엔하임주상복합아파트|1639-1":{"city_code":"45113","dong":"금암동","name":"휴엔하임주상복합아파트","addr":"1639-1","query":"전라북도 금암동 1639-1","lat":35.8336709814345,"lng":127.134126534781,"road":"전북특별자치도 전주시 덕진구 태진로 125-30","region":"전북특별자치도 전주시 덕진구 금암동 1639-1","building":"휴엔하임주상복합아파트","method":"address"},"45113|덕진동1가|거성|1314-154":{"city_code":"45113","dong":"덕진동1가","name":"거성","addr":"1314-154","query":"전라북도 덕진동1가 1314-154","lat":35.8450588856459,"lng":127.124166383366,"road":"전북특별자치도 전주시 덕진구 덕진광장로 13","region":"전북특별자치도 전주시 덕진구 덕진동1가 1314-154","building":"거성아파트","method":"address"},"45113|덕진동1가|거성경기장|1437-1":{"city_code":"45113","dong":"덕진동1가","name":"거성경기장","addr":"1437-1","query":"전라북도 덕진동1가 1437-1","lat":35.8372761152165,"lng":127.121754328965,"road":"전북특별자치도 전주시 덕진구 들사평로 6","region":"전북특별자치도 전주시 덕진구 덕진동1가 1437-1","building":"거성경기장아파트","method":"address"},"45113|덕진동1가|거성대학촌|1263-1":{"city_code":"45113","dong":"덕진동1가","name":"거성대학촌","addr":"1263-1","query":"전라북도 덕진동1가 1263-1","lat":35.8429156754921,"lng":127.127288602445,"road":"전북특별자치도 전주시 덕진구 명륜4길 16","region":"전북특별자치도 전주시 덕진구 덕진동1가 1263-1","building":"거성대학촌아파트","method":"address"},"45113|덕진동1가|백조|1407-4":{"city_code":"45113","dong":"덕진동1가","name":"백조","addr":"1407-4","query":"전라북도 덕진동1가 1407-4","lat":35.8400383892122,"lng":127.120851365616,"road":"전북특별자치도 전주시 덕진구 들사평2길 8","region":"전북특별자치도 전주시 덕진구 덕진동1가 1407-4","building":"백조아파트","method":"address"},"45113|덕진동1가|세원|1314-133":{"city_code":"45113","dong":"덕진동1가","name":"세원","addr":"1314-133","query":"전라북도 덕진동1가 1314-133","lat":35.8455703969154,"lng":127.123243993516,"road":"전북특별자치도 전주시 덕진구 덕진연못1길 11","region":"전북특별자치도 전주시 덕진구 덕진동1가 1314-133","building":"세원아파트","method":"address"},"45113|덕진동1가|오성(다)|1271-3":{"city_code":"45113","dong":"덕진동1가","name":"오성(다)","addr":"1271-3","query":"전라북도 덕진동1가 1271-3","lat":35.8413986538441,"lng":127.123250047778,"road":"전북특별자치도 전주시 덕진구 들사평4길 14","region":"전북특별자치도 전주시 덕진구 덕진동1가 1271-3","building":"오성아파트","method":"address"},"45113|덕진동2가|덕진엘르디움|726":{"city_code":"45113","dong":"덕진동2가","name":"덕진엘르디움","addr":"726","query":"전라북도 덕진동2가 726","lat":35.8520841278114,"lng":127.118775030972,"road":"전북특별자치도 전주시 덕진구 호반6길 26-5","region":"전북특별자치도 전주시 덕진구 덕진동2가 726","building":"엘르디움","method":"address"},"45113|덕진동2가|명성강변|450-2":{"city_code":"45113","dong":"덕진동2가","name":"명성강변","addr":"450-2","query":"전라북도 덕진동2가 450-2","lat":35.8392040102756,"lng":127.115437268453,"road":"전북특별자치도 전주시 덕진구 가리내로 204","region":"전북특별자치도 전주시 덕진구 덕진동2가 450-2","building":"명성강변아파트","method":"address"},"45113|덕진동2가|영무예다음|696":{"city_code":"45113","dong":"덕진동2가","name":"영무예다음","addr":"696","query":"전라북도 덕진동2가 696","lat":35.8402673718518,"lng":127.111558470826,"road":"전북특별자치도 전주시 덕진구 가련산로 24","region":"전북특별자치도 전주시 덕진구 덕진동2가 696","building":"영무예다음아파트","method":"address"},"45113|덕진동2가|유토피아아파트|20":{"city_code":"45113","dong":"덕진동2가","name":"유토피아아파트","addr":"20","query":"전라북도 덕진동2가 20","lat":35.8525129438117,"lng":127.116008856482,"road":"전북특별자치도 전주시 덕진구 호반8길 13-4","region":"전북특별자치도 전주시 덕진구 덕진동2가 20","building":"오성유토피아아파트","method":"address"},"45113|덕진동2가|전주덕진휴먼빌아파트|727":{"city_code":"45113","dong":"덕진동2가","name":"전주덕진휴먼빌아파트","addr":"727","query":"전라북도 덕진동2가 727","lat":35.8438579942238,"lng":127.11260588087,"road":"전북특별자치도 전주시 덕진구 하가로 10","region":"전북특별자치도 전주시 덕진구 덕진동2가 727","building":"휴먼빌","method":"address"},"45113|덕진동2가|전주하가휴먼빌|697":{"city_code":"45113","dong":"덕진동2가","name":"전주하가휴먼빌","addr":"697","query":"전라북도 덕진동2가 697","lat":35.839431662021,"lng":127.112881762067,"road":"전북특별자치도 전주시 덕진구 가리내로 216","region":"전북특별자치도 전주시 덕진구 덕진동2가 697","building":"하가휴먼빌아파트","method":"address"},"45113|덕진동2가|하가더루벤스|683":{"city_code":"45113","dong":"덕진동2가","name":"하가더루벤스","addr":"683","query":"전라북도 덕진동2가 683","lat":35.8455491235751,"lng":127.10817852334,"road":"전북특별자치도 전주시 덕진구 추탄로 61","region":"전북특별자치도 전주시 덕진구 덕진동2가 683","building":"하가 더 루벤스 아파트","method":"address"},"45113|덕진동2가|하가지구제일오투그란데|684":{"city_code":"45113","dong":"덕진동2가","name":"하가지구제일오투그란데","addr":"684","query":"전라북도 덕진동2가 684","lat":35.8438759567469,"lng":127.108260708953,"road":"전북특별자치도 전주시 덕진구 경동로 19","region":"전북특별자치도 전주시 덕진구 덕진동2가 684","building":"제일오투그란데아파트","method":"address"},"45113|만성동|골드클래스|1367-1":{"city_code":"45113","dong":"만성동","name":"골드클래스","addr":"1367-1","query":"전라북도 만성동 1367-1","lat":35.8474260291552,"lng":127.078271870339,"road":"전북특별자치도 전주시 덕진구 만성로 181","region":"전북특별자치도 전주시 덕진구 만성동 1367-1","building":"골드클래스","method":"address"},"45113|만성동|엘에이치퍼스트리움|1290-2":{"city_code":"45113","dong":"만성동","name":"엘에이치퍼스트리움","addr":"1290-2","query":"전라북도 만성동 1290-2","lat":35.8378020898137,"lng":127.075810894511,"road":"전북특별자치도 전주시 덕진구 만성동로 12","region":"전북특별자치도 전주시 덕진구 만성동 1290-2","building":"만성퍼스트리움 상가","method":"address"},"45113|만성동|전주만성시티프라디움|1289-4":{"city_code":"45113","dong":"만성동","name":"전주만성시티프라디움","addr":"1289-4","query":"전라북도 만성동 1289-4","lat":35.8393605985345,"lng":127.075868605478,"road":"전북특별자치도 전주시 덕진구 만성동로 11","region":"전북특별자치도 전주시 덕진구 만성동 1289-4","building":"시티프라디움 상가","method":"address"},"45113|만성동|제일풍경채|1290-1":{"city_code":"45113","dong":"만성동","name":"제일풍경채","addr":"1290-1","query":"전라북도 만성동 1290-1","lat":35.8390639778889,"lng":127.078006423477,"road":"전북특별자치도 전주시 덕진구 만성동로 36","region":"전북특별자치도 전주시 덕진구 만성동 1290-1","building":"제일풍경채상가","method":"address"},"45113|만성동|중흥에스클래스더퍼스트|1371-3":{"city_code":"45113","dong":"만성동","name":"중흥에스클래스더퍼스트","addr":"1371-3","query":"전라북도 만성동 1371-3","lat":35.8442901203901,"lng":127.078939472992,"road":"전북특별자치도 전주시 덕진구 만성로 150","region":"전북특별자치도 전주시 덕진구 만성동 1371-3","building":"중흥에스클래스더퍼스트","method":"address"},"45113|반월동|남양반월타운|382":{"city_code":"45113","dong":"반월동","name":"남양반월타운","addr":"382","query":"전라북도 반월동 382","lat":35.8730143815246,"lng":127.071132440969,"road":"전북특별자치도 전주시 덕진구 쪽구름로 123","region":"전북특별자치도 전주시 덕진구 반월동 382","building":"남양아파트","method":"address"},"45113|반월동|대창하이빌타운|422-1":{"city_code":"45113","dong":"반월동","name":"대창하이빌타운","addr":"422-1","query":"전라북도 반월동 422-1","lat":35.875224224011,"lng":127.071180814383,"road":"전북특별자치도 전주시 덕진구 반월4길 15","region":"전북특별자치도 전주시 덕진구 반월동 422-1","building":"대창아파트","method":"address"},"45113|반월동|반월동광신프로그레스|1242":{"city_code":"45113","dong":"반월동","name":"반월동광신프로그레스","addr":"1242","query":"전라북도 반월동 1242","lat":35.8746556428732,"lng":127.068513046246,"road":"전북특별자치도 전주시 덕진구 반월로 26","region":"전북특별자치도 전주시 덕진구 반월동 1242","building":"반월동 광신프로그레스","method":"address"},"45113|반월동|반월동세움펠리피아2차아파트|1241":{"city_code":"45113","dong":"반월동","name":"반월동세움펠리피아2차아파트","addr":"1241","query":"전라북도 반월동 1241","lat":35.8766102822218,"lng":127.075139577461,"road":"전북특별자치도 전주시 덕진구 혁신로 727","region":"전북특별자치도 전주시 덕진구 반월동 1241","building":"세움펠리피아 2차","method":"address"},"45113|반월동|반월동한강|386-7":{"city_code":"45113","dong":"반월동","name":"반월동한강","addr":"386-7","query":"전라북도 반월동 386-7","lat":35.8736773913817,"lng":127.070898058098,"road":"전북특별자치도 전주시 덕진구 쪽구름로 127","region":"전북특별자치도 전주시 덕진구 반월동 386-7","building":"반월동한강아파트 상가","method":"address"},"45113|반월동|삼오|374-4":{"city_code":"45113","dong":"반월동","name":"삼오","addr":"374-4","query":"전라북도 반월동 374-4","lat":35.8729883349943,"lng":127.06881202692,"road":"전북특별자치도 전주시 덕진구 반월5길 8","region":"전북특별자치도 전주시 덕진구 반월동 374-4","building":"삼오아파트","method":"address"},"45113|반월동|세움펠리피아|1231":{"city_code":"45113","dong":"반월동","name":"세움펠리피아","addr":"1231","query":"전라북도 반월동 1231","lat":35.8737495797748,"lng":127.075343282784,"road":"전북특별자치도 전주시 덕진구 쪽구름2길 9","region":"전북특별자치도 전주시 덕진구 반월동 1231","building":"세움펠리피아","method":"address"},"45113|반월동|영무예다음|217-4":{"city_code":"45113","dong":"반월동","name":"영무예다음","addr":"217-4","query":"전라북도 반월동 217-4","lat":35.8753185955169,"lng":127.072668738596,"road":"전북특별자치도 전주시 덕진구 반월2길 13","region":"전북특별자치도 전주시 덕진구 반월동 217-4","building":"영무예다음아파트","method":"address"},"45113|반월동|월드컵이지움|1230":{"city_code":"45113","dong":"반월동","name":"월드컵이지움","addr":"1230","query":"전라북도 반월동 1230","lat":35.8748257116735,"lng":127.069450450657,"road":"전북특별자치도 전주시 덕진구 반월로 32","region":"전북특별자치도 전주시 덕진구 반월동 1230","building":"월드컵이지움","method":"address"},"45113|반월동|전주반월동남해오네뜨하이뷰|1232":{"city_code":"45113","dong":"반월동","name":"전주반월동남해오네뜨하이뷰","addr":"1232","query":"전라북도 반월동 1232","lat":35.8731470969879,"lng":127.072851900032,"road":"전북특별자치도 전주시 덕진구 쪽구름로 111","region":"전북특별자치도 전주시 덕진구 반월동 1232","building":"전주 반월동 남해오네뜨 하이뷰","method":"address"},"45113|송천동1가|광진한솔|108":{"city_code":"45113","dong":"송천동1가","name":"광진한솔","addr":"108","query":"전라북도 송천동1가 108","lat":35.861468150577,"lng":127.124493892787,"road":"전북특별자치도 전주시 덕진구 솔내8길 23-6","region":"전북특별자치도 전주시 덕진구 송천동1가 108","building":"주안교회","method":"address"},"45113|송천동1가|금정|170":{"city_code":"45113","dong":"송천동1가","name":"금정","addr":"170","query":"전라북도 송천동1가 170","lat":35.858003000172,"lng":127.125195697748,"road":"전북특별자치도 전주시 덕진구 솔내2길 80","region":"전북특별자치도 전주시 덕진구 송천동1가 170","building":"금정아파트","method":"address"},"45113|송천동1가|동북|123-8":{"city_code":"45113","dong":"송천동1가","name":"동북","addr":"123-8","query":"전라북도 송천동1가 123-8","lat":35.8580211762187,"lng":127.124007241527,"road":"전북특별자치도 전주시 덕진구 솔내2길 71","region":"전북특별자치도 전주시 덕진구 송천동1가 123-8","building":"동북아파트","method":"address"},"45113|송천동1가|라이프1,2동|417":{"city_code":"45113","dong":"송천동1가","name":"라이프1,2동","addr":"417","query":"전라북도 송천동1가 417","lat":35.8591528761953,"lng":127.118748707585,"road":"전북특별자치도 전주시 덕진구 송천2길 17","region":"전북특별자치도 전주시 덕진구 송천동1가 417","building":"주소망교회","method":"address"},"45113|송천동1가|라이프3동|417-8":{"city_code":"45113","dong":"송천동1가","name":"라이프3동","addr":"417-8","query":"전라북도 송천동1가 417-8","lat":35.8591413077461,"lng":127.119780090504,"road":"전북특별자치도 전주시 덕진구 송천2길 25","region":"전북특별자치도 전주시 덕진구 송천동1가 417-8","building":"라이프아파트","method":"address"},"45113|송천동1가|벽산e-리버파크|873":{"city_code":"45113","dong":"송천동1가","name":"벽산e-리버파크","addr":"873","query":"전라북도 송천동1가 873","lat":35.8593600002879,"lng":127.116057692304,"road":"전북특별자치도 전주시 덕진구 송천3길 55","region":"전북특별자치도 전주시 덕진구 송천동1가 873","building":"벽산 e리버파크","method":"address"},"45113|송천동1가|비사벌(464)|464":{"city_code":"45113","dong":"송천동1가","name":"비사벌(464)","addr":"464","query":"전라북도 송천동1가 464","lat":35.8603706286322,"lng":127.119769982765,"road":"전북특별자치도 전주시 덕진구 송천2길 18","region":"전북특별자치도 전주시 덕진구 송천동1가 464","building":"비사벌아파트","method":"address"},"45113|송천동1가|비사벌(472-31)|472-31":{"city_code":"45113","dong":"송천동1가","name":"비사벌(472-31)","addr":"472-31","query":"전라북도 송천동1가 472-31","lat":35.8593741991399,"lng":127.120043716601,"road":"전북특별자치도 전주시 덕진구 송천2길 9","region":"전북특별자치도 전주시 덕진구 송천동1가 472-31","building":"비사벌아파트","method":"address"},"45113|송천동1가|비사벌(호반촌)|270-16":{"city_code":"45113","dong":"송천동1가","name":"비사벌(호반촌)","addr":"270-16","query":"전라북도 송천동1가 270-16","lat":35.8520197716966,"lng":127.120591236972,"road":"전북특별자치도 전주시 덕진구 송천중앙로 54","region":"전북특별자치도 전주시 덕진구 송천동1가 270-16","building":"호반촌비사벌아파트","method":"address"},"45113|송천동1가|삼성|596-10":{"city_code":"45113","dong":"송천동1가","name":"삼성","addr":"596-10","query":"전라북도 송천동1가 596-10","lat":35.8621635713483,"lng":127.116016495948,"road":"전북특별자치도 전주시 덕진구 송천로 109","region":"전북특별자치도 전주시 덕진구 송천동1가 596-10","building":"삼성아파트","method":"address"},"45113|송천동1가|서호|171-5":{"city_code":"45113","dong":"송천동1가","name":"서호","addr":"171-5","query":"전라북도 송천동1가 171-5","lat":35.8576652486069,"lng":127.123854017135,"road":"전북특별자치도 전주시 덕진구 솔내2길 63","region":"전북특별자치도 전주시 덕진구 송천동1가 171-5","building":"서호아파트","method":"address"},"45113|송천동1가|서호(1차)|337":{"city_code":"45113","dong":"송천동1가","name":"서호(1차)","addr":"337","query":"전라북도 송천동1가 337","lat":35.8555509226823,"lng":127.117740544932,"road":"전북특별자치도 전주시 덕진구 송천로 27","region":"전북특별자치도 전주시 덕진구 송천동1가 337","building":"전북은행송천동지점","method":"address"},"45113|송천동1가|서호2차|329":{"city_code":"45113","dong":"송천동1가","name":"서호2차","addr":"329","query":"전라북도 송천동1가 329","lat":35.8570138569925,"lng":127.117722669586,"road":"전북특별자치도 전주시 덕진구 송천로 39","region":"전북특별자치도 전주시 덕진구 송천동1가 329","building":"","method":"address"},"45113|송천동1가|성원무지개|543-2":{"city_code":"45113","dong":"송천동1가","name":"성원무지개","addr":"543-2","query":"전라북도 송천동1가 543-2","lat":35.8641899530891,"lng":127.119688813773,"road":"전북특별자치도 전주시 덕진구 용소로 103","region":"전북특별자치도 전주시 덕진구 송천동1가 543-2","building":"성원무지개아파트","method":"address"},"45113|송천동1가|송천4차현대|138-5":{"city_code":"45113","dong":"송천동1가","name":"송천4차현대","addr":"138-5","query":"전라북도 송천동1가 138-5","lat":35.8603820846526,"lng":127.127723175408,"road":"전북특별자치도 전주시 덕진구 솔내로 120","region":"전북특별자치도 전주시 덕진구 송천동1가 138-5","building":"송천4차현대아파트","method":"address"},"45113|송천동1가|송천KCC스위첸|879":{"city_code":"45113","dong":"송천동1가","name":"송천KCC스위첸","addr":"879","query":"전라북도 송천동1가 879","lat":35.8643525748861,"lng":127.129893235909,"road":"전북특별자치도 전주시 덕진구 오송1길 37-17","region":"전북특별자치도 전주시 덕진구 송천동1가 879","building":"송천 KCC스위첸","method":"address"},"45113|송천동1가|송천광신프로그레스|880":{"city_code":"45113","dong":"송천동1가","name":"송천광신프로그레스","addr":"880","query":"전라북도 송천동1가 880","lat":35.8626747795618,"lng":127.120216209169,"road":"전북특별자치도 전주시 덕진구 용소로 112","region":"전북특별자치도 전주시 덕진구 송천동1가 880","building":"송천광신프로그레스","method":"address"},"45113|송천동1가|송천동센트럴파크1단지|292-7":{"city_code":"45113","dong":"송천동1가","name":"송천동센트럴파크1단지","addr":"292-7","query":"전라북도 송천동1가 292-7","lat":35.8532873301682,"lng":127.118930483477,"road":"전북특별자치도 전주시 덕진구 송천로 1","region":"전북특별자치도 전주시 덕진구 송천동1가 292-7","building":"송천동센트럴파크아파트","method":"address"},"45113|송천동1가|송천동센트럴파크2단지|308-1":{"city_code":"45113","dong":"송천동1가","name":"송천동센트럴파크2단지","addr":"308-1","query":"전라북도 송천동1가 308-1","lat":35.8539337882801,"lng":127.11729256421,"road":"전북특별자치도 전주시 덕진구 호반로 11","region":"전북특별자치도 전주시 덕진구 송천동1가 308-1","building":"송천동센트럴파크2단지아파트","method":"address"},"45113|송천동1가|송천동우림|117":{"city_code":"45113","dong":"송천동1가","name":"송천동우림","addr":"117","query":"전라북도 송천동1가 117","lat":35.8617283854298,"lng":127.125578545046,"road":"전북특별자치도 전주시 덕진구 솔내9길 5","region":"전북특별자치도 전주시 덕진구 송천동1가 117","building":"우림아파트","method":"address"},"45113|송천동1가|송천신일|101-3":{"city_code":"45113","dong":"송천동1가","name":"송천신일","addr":"101-3","query":"전라북도 송천동1가 101-3","lat":35.8624647874745,"lng":127.12798183097,"road":"전북특별자치도 전주시 덕진구 솔내로 140","region":"전북특별자치도 전주시 덕진구 송천동1가 101-3","building":"","method":"address"},"45113|송천동1가|송천아이파크5단지|870":{"city_code":"45113","dong":"송천동1가","name":"송천아이파크5단지","addr":"870","query":"전라북도 송천동1가 870","lat":35.8617232290673,"lng":127.129919503562,"road":"전북특별자치도 전주시 덕진구 오송로 45","region":"전북특별자치도 전주시 덕진구 송천동1가 870","building":"송천아이파크","method":"address"},