{"51110|근화동|신성미소지움|279-8":{"city_code":"51110","dong":"근화동","name":"신성미소지움","addr":"279-8","lat":37.8721005061488,"lng":127.717855229114,"road":"강원특별자치도 춘천시 근화길15번길 26","region":"강원특별자치도 춘천시 근화동 279-8","building":"신성근화미소지움아파트","query":"강원특별자치도 춘천시 근화동 279-8","method":"address"},"51110|근화동|청와|742-1":{"city_code":"51110","dong":"근화동","name":"청와","addr":"742-1","lat":37.8803479764025,"lng":127.713604240739,"road":"강원특별자치도 춘천시 중앙로190번길 79","region":"강원특별자치도 춘천시 근화동 742-1","building":"청와아파트","query":"강원특별자치도 춘천시 근화동 742-1","method":"address"},"51110|근화동|춘천파밀리에리버파크|815":{"city_code":"51110","dong":"근화동","name":"춘천파밀리에리버파크","addr":"815","lat":37.8746597826856,"lng":127.713438433781,"road":"강원특별자치도 춘천시 중앙로194번길 11","region":"강원특별자치도 춘천시 근화동 815","building":"춘천 파밀리에 리버파크","query":"강원특별자치도 춘천시 근화동 815","method":"address"},"51110|근화동|호반|789-1":{"city_code":"51110","dong":"근화동","name":"호반","addr":"789-1","lat":37.8902274344978,"lng":127.719384582668,"road":"강원특별자치도 춘천시 당간지주길 27","region":"강원특별자치도 춘천시 근화동 789-1","building":"호반아파트","query":"강원특별자치도 춘천시 근화동 789-1","method":"address"},"51110|남산면 창촌리|근로자임대|34-2":{"city_code":"51110","dong":"남산면 창촌리","name":"근로자임대","addr":"34-2","lat":37.789014077273,"lng":127.650254562548,"road":"","region":"강원특별자치도 춘천시 남산면 창촌리 34-2","building":"","query":"강원특별자치도 춘천시 남산면 창촌리 34-2","method":"address"},"51110|동내면 거두리|부영1차|939-1":{"city_code":"51110","dong":"동내면 거두리","name":"부영1차","addr":"939-1","lat":37.8552650110958,"lng":127.753196652907,"road":"강원특별자치도 춘천시 동내면 춘천순환로94번길 10","region":"강원특별자치도 춘천시 동내면 거두리 939-1","building":"부영아파트","query":"강원특별자치도 춘천시 동내면 거두리 939-1","method":"address"},"51110|동내면 거두리|부영2차|939-3":{"city_code":"51110","dong":"동내면 거두리","name":"부영2차","addr":"939-3","lat":37.854626112194,"lng":127.754315965786,"road":"강원특별자치도 춘천시 동내면 춘천순환로94번길 12","region":"강원특별자치도 춘천시 동내면 거두리 939-3","building":"부영아파트","query":"강원특별자치도 춘천시 동내면 거두리 939-3","method":"address"},"51110|동내면 거두리|부영3차|939-2":{"city_code":"51110","dong":"동내면 거두리","name":"부영3차","addr":"939-2","lat":37.8542288195232,"lng":127.753426542732,"road":"강원특별자치도 춘천시 동내면 거두택지길 25","region":"강원특별자치도 춘천시 동내면 거두리 939-2","building":"부영아파트","query":"강원특별자치도 춘천시 동내면 거두리 939-2","method":"address"},"51110|동내면 거두리|초록지붕|936":{"city_code":"51110","dong":"동내면 거두리","name":"초록지붕","addr":"936","lat":37.8535189737671,"lng":127.752172510702,"road":"강원특별자치도 춘천시 동내면 거두택지길 7","region":"강원특별자치도 춘천시 동내면 거두리 936","building":"초록지붕아파트","query":"강원특별자치도 춘천시 동내면 거두리 936","method":"address"},"51110|동내면 거두리|현대성우오스타|1038":{"city_code":"51110","dong":"동내면 거두리","name":"현대성우오스타","addr":"1038","lat":37.857075790499,"lng":127.755110321403,"road":"강원특별자치도 춘천시 동내면 춘천순환로 93","region":"강원특별자치도 춘천시 동내면 거두리 1038","building":"현대성우오스타","query":"강원특별자치도 춘천시 동내면 거두리 1038","method":"address"},"51110|동내면 거두리|호반베르디움|1065":{"city_code":"51110","dong":"동내면 거두리","name":"호반베르디움","addr":"1065","lat":37.8582504654732,"lng":127.759642142403,"road":"강원특별자치도 춘천시 동내면 외솔길19번길 80-7","region":"강원특별자치도 춘천시 동내면 거두리 1065","building":"호반베르디움아파트","query":"강원특별자치도 춘천시 동내면 거두리 1065","method":"address"},"51110|동내면 거두리|호반베르디움에코|1138":{"city_code":"51110","dong":"동내면 거두리","name":"호반베르디움에코","addr":"1138","lat":37.8549802308831,"lng":127.760400904549,"road":"강원특별자치도 춘천시 동내면 거두택지길 80","region":"강원특별자치도 춘천시 동내면 거두리 1138","building":"호반베르디움에코","query":"강원특별자치도 춘천시 동내면 거두리 1138","method":"address"},"51110|동내면 신촌리|산수빌|401":{"city_code":"51110","dong":"동내면 신촌리","name":"산수빌","addr":"401","lat":37.8479869026857,"lng":127.764897143619,"road":"강원특별자치도 춘천시 동내면 향군길 23","region":"강원특별자치도 춘천시 동내면 신촌리 401","building":"산수빌아파트","query":"강원특별자치도 춘천시 동내면 신촌리 401","method":"address"},"51110|동내면 학곡리|신아3차|255-34":{"city_code":"51110","dong":"동내면 학곡리","name":"신아3차","addr":"255-34","lat":37.8331634390892,"lng":127.759012581355,"road":"강원특별자치도 춘천시 동내면 학곡서1길 19","region":"강원특별자치도 춘천시 동내면 학곡리 255-34","building":"신아아파트","query":"강원특별자치도 춘천시 동내면 학곡리 255-34","method":"address"},"51110|동내면 학곡리|학곡지구모아엘가그랑데|860":{"city_code":"51110","dong":"동내면 학곡리","name":"학곡지구모아엘가그랑데","addr":"860","lat":37.8401631835234,"lng":127.755267765906,"road":"강원특별자치도 춘천시 동내면 학곡지구길 52","region":"강원특별자치도 춘천시 동내면 학곡리 860","building":"학곡지구 모아엘가 그랑데","query":"강원특별자치도 춘천시 동내면 학곡리 860","method":"address"},"51110|동면 만천리|대동다:숲아파트|973":{"city_code":"51110","dong":"동면 만천리","name":"대동다:숲아파트","addr":"973","lat":37.8831379962253,"lng":127.755375005316,"road":"강원특별자치도 춘천시 동면 후석로326번길 63","region":"강원특별자치도 춘천시 동면 만천리 973","building":"대동다숲아파트","query":"강원특별자치도 춘천시 동면 만천리 973","method":"address"},"51110|동면 만천리|춘천KCC스위첸|984":{"city_code":"51110","dong":"동면 만천리","name":"춘천KCC스위첸","addr":"984","lat":37.8783849026839,"lng":127.765427819752,"road":"강원특별자치도 춘천시 동면 만천로 69","region":"강원특별자치도 춘천시 동면 만천리 984","building":"KCC스위첸아파트","query":"강원특별자치도 춘천시 동면 만천리 984","method":"address"},"51110|동면 만천리|한일유앤아이|971":{"city_code":"51110","dong":"동면 만천리","name":"한일유앤아이","addr":"971","lat":37.8805905307367,"lng":127.762057018483,"road":"강원특별자치도 춘천시 동면 만천로 107","region":"강원특별자치도 춘천시 동면 만천리 971","building":"한일유앤아이아파트","query":"강원특별자치도 춘천시 동면 만천리 971","method":"address"},"51110|동면 장학리|두산위브|981":{"city_code":"51110","dong":"동면 장학리","name":"두산위브","addr":"981","lat":37.8887122240069,"lng":127.755696483935,"road":"강원특별자치도 춘천시 동면 삭주로 231","region":"강원특별자치도 춘천시 동면 장학리 981","building":"춘천두산위브아파트","query":"강원특별자치도 춘천시 동면 장학리 981","method":"address"},"51110|동면 장학리|장학엘에이치해온채|988":{"city_code":"51110","dong":"동면 장학리","name":"장학엘에이치해온채","addr":"988","lat":37.8975314891535,"lng":127.751883123016,"road":"강원특별자치도 춘천시 동면 소양강로 102","region":"강원특별자치도 춘천시 동면 장학리 988","building":"장학엘에이치해온채","query":"강원특별자치도 춘천시 동면 장학리 988","method":"address"},"51110|동면 장학리|춘천장학사랑으로부영|993":{"city_code":"51110","dong":"동면 장학리","name":"춘천장학사랑으로부영","addr":"993","lat":37.8961327387142,"lng":127.753653835423,"road":"강원특별자치도 춘천시 동면 소양강로 104","region":"강원특별자치도 춘천시 동면 장학리 993","building":"춘천장학사랑으로부영아파트","query":"강원특별자치도 춘천시 동면 장학리 993","method":"address"},"51110|동면 장학리|춘천장학아이파크|985":{"city_code":"51110","dong":"동면 장학리","name":"춘천장학아이파크","addr":"985","lat":37.8909035865157,"lng":127.755816877751,"road":"강원특별자치도 춘천시 동면 만천로 242","region":"강원특별자치도 춘천시 동면 장학리 985","building":"춘천장학아이파크","query":"강원특별자치도 춘천시 동면 장학리 985","method":"address"},"51110|동면 지내리|그린하이츠|971":{"city_code":"51110","dong":"동면 지내리","name":"그린하이츠","addr":"971","lat":37.9123647261653,"lng":127.780221851717,"road":"강원특별자치도 춘천시 동면 가산로 95-55","region":"강원특별자치도 춘천시 동면 지내리 971","building":"그린하이츠아파트","query":"강원특별자치도 춘천시 동면 지내리 971","method":"address"},"51110|봉의동|현대빌라|48":{"city_code":"51110","dong":"봉의동","name":"현대빌라","addr":"48","lat":37.8871022104705,"lng":127.728582572421,"road":"강원특별자치도 춘천시 모수물길 32","region":"강원특별자치도 춘천시 봉의동 48","building":"봉의현대빌라","query":"강원특별자치도 춘천시 봉의동 48","method":"address"},"51110|사농동|롯데캐슬1단지|809":{"city_code":"51110","dong":"사농동","name":"롯데캐슬1단지","addr":"809","lat":37.9086171011933,"lng":127.729363125702,"road":"강원특별자치도 춘천시 마장길 58","region":"강원특별자치도 춘천시 사농동 809","building":"춘천 롯데캐슬 더 퍼스트 1단지","query":"강원특별자치도 춘천시 사농동 809","method":"address"},"51110|사농동|롯데캐슬2단지|810":{"city_code":"51110","dong":"사농동","name":"롯데캐슬2단지","addr":"810","lat":37.9086322803495,"lng":127.731055051433,"road":"강원특별자치도 춘천시 마장길 60","region":"강원특별자치도 춘천시 사농동 810","building":"춘천 롯데캐슬 더 퍼스트 2단지","query":"강원특별자치도 춘천시 사농동 810","method":"address"},"51110|사농동|춘천뉴시티코아루|820":{"city_code":"51110","dong":"사농동","name":"춘천뉴시티코아루","addr":"820","lat":37.9116889101931,"lng":127.725644282048,"road":"강원특별자치도 춘천시 영서로 2922","region":"강원특별자치도 춘천시 사농동 820","building":"춘천 뉴시티 코아루","query":"강원특별자치도 춘천시 사농동 820","method":"address"},"51110|사농동|현대|158":{"city_code":"51110","dong":"사농동","name":"현대","addr":"158","lat":37.9117469300271,"lng":127.723756846332,"road":"강원특별자치도 춘천시 영서로 2920","region":"강원특별자치도 춘천시 사농동 158","building":"현대아파트","query":"강원특별자치도 춘천시 사농동 158","method":"address"},"51110|삼천동|춘천파크자이|796":{"city_code":"51110","dong":"삼천동","name":"춘천파크자이","addr":"796","lat":37.8670329781172,"lng":127.708269682682,"road":"강원특별자치도 춘천시 스포츠타운길 458","region":"강원특별자치도 춘천시 삼천동 796","building":"춘천파크자이","query":"강원특별자치도 춘천시 삼천동 796","method":"address"},"51110|석사동|그랜드|722-2":{"city_code":"51110","dong":"석사동","name":"그랜드","addr":"722-2","lat":37.8665374607146,"lng":127.757214407114,"road":"강원특별자치도 춘천시 우석로101번길 20","region":"강원특별자치도 춘천시 석사동 722-2","building":"그랜드아파트","query":"강원특별자치도 춘천시 석사동 722-2","method":"address"},"51110|석사동|두산|727-4":{"city_code":"51110","dong":"석사동","name":"두산","addr":"727-4","lat":37.8681347876032,"lng":127.755198055618,"road":"강원특별자치도 춘천시 후석로186번길 25","region":"강원특별자치도 춘천시 석사동 727-4","building":"두산아파트","query":"강원특별자치도 춘천시 석사동 727-4","method":"address"},"51110|석사동|봄내|682":{"city_code":"51110","dong":"석사동","name":"봄내","addr":"682","lat":37.8571625737762,"lng":127.744951490707,"road":"강원특별자치도 춘천시 석사길 10","region":"강원특별자치도 춘천시 석사동 682","building":"봄내아파트","query":"강원특별자치도 춘천시 석사동 682","method":"address"},"51110|석사동|삼익1|283-15":{"city_code":"51110","dong":"석사동","name":"삼익1","addr":"283-15","lat":37.8544613403712,"lng":127.748781358539,"road":"강원특별자치도 춘천시 춘천순환로 42","region":"강원특별자치도 춘천시 석사동 283-15","building":"삼익세라믹아파트","query":"강원특별자치도 춘천시 석사동 283-15","method":"address"},"51110|석사동|삼익2|114-5":{"city_code":"51110","dong":"석사동","name":"삼익2","addr":"114-5","lat":37.8528916058266,"lng":127.750160557715,"road":"강원특별자치도 춘천시 공지로 69-9","region":"강원특별자치도 춘천시 석사동 114-5","building":"삼익세라믹아파트","query":"강원특별자치도 춘천시 석사동 114-5","method":"address"},"51110|석사동|석사극동|115-10":{"city_code":"51110","dong":"석사동","name":"석사극동","addr":"115-10","lat":37.8511968201408,"lng":127.751918493268,"road":"강원특별자치도 춘천시 공지로 43","region":"강원특별자치도 춘천시 석사동 115-10","building":"극동아파트","query":"강원특별자치도 춘천시 석사동 115-10","method":"address"},"51110|석사동|석사근로복지|694-1":{"city_code":"51110","dong":"석사동","name":"석사근로복지","addr":"694-1","lat":37.8620254920021,"lng":127.738307264364,"road":"강원특별자치도 춘천시 효석로67번길 23","region":"강원특별자치도 춘천시 석사동 694-1","building":"석사근로복지아파트","query":"강원특별자치도 춘천시 석사동 694-1","method":"address"},"51110|석사동|석사대우|721-2":{"city_code":"51110","dong":"석사동","name":"석사대우","addr":"721-2","lat":37.869044226675,"lng":127.757057541689,"road":"강원특별자치도 춘천시 우석로101번길 86","region":"강원특별자치도 춘천시 석사동 721-2","building":"석사대우아파트","query":"강원특별자치도 춘천시 석사동 721-2","method":"address"},"51110|석사동|석사동현진에버빌1차|893":{"city_code":"51110","dong":"석사동","name":"석사동현진에버빌1차","addr":"893","lat":37.8512453455307,"lng":127.747210962954,"road":"강원특별자치도 춘천시 지석로 115","region":"강원특별자치도 춘천시 석사동 893","building":"현진에버빌1차 상가","query":"강원특별자치도 춘천시 석사동 893","method":"address"},"51110|석사동|석사부영|727-2":{"city_code":"51110","dong":"석사동","name":"석사부영","addr":"727-2","lat":37.8694853277369,"lng":127.755219000762,"road":"강원특별자치도 춘천시 우석로101번길 83","region":"강원특별자치도 춘천시 석사동 727-2","building":"석사3지구 부영아파트","query":"강원특별자치도 춘천시 석사동 727-2","method":"address"},"51110|석사동|석사빌라|114-33":{"city_code":"51110","dong":"석사동","name":"석사빌라","addr":"114-33","lat":37.8519577711462,"lng":127.750460262463,"road":"강원특별자치도 춘천시 춘천순환로38번길 43","region":"강원특별자치도 춘천시 석사동 114-33","building":"석사빌라","query":"강원특별자치도 춘천시 석사동 114-33","method":"address"},"51110|석사동|세경5차|694":{"city_code":"51110","dong":"석사동","name":"세경5차","addr":"694","lat":37.8627873393578,"lng":127.737254609708,"road":"강원특별자치도 춘천시 남춘천새길 42","region":"강원특별자치도 춘천시 석사동 694","building":"세경5차아파트","query":"강원특별자치도 춘천시 석사동 694","method":"address"},"51110|석사동|신도브래뉴|971":{"city_code":"51110","dong":"석사동","name":"신도브래뉴","addr":"971","lat":37.8537255527959,"lng":127.749715188695,"road":"강원특별자치도 춘천시 공지로 69-10","region":"강원특별자치도 춘천시 석사동 971","building":"석사신도브래뉴","query":"강원특별자치도 춘천시 석사동 971","method":"address"},"51110|석사동|신우|682-1":{"city_code":"51110","dong":"석사동","name":"신우","addr":"682-1","lat":37.8566040621605,"lng":127.746519983564,"road":"강원특별자치도 춘천시 공지로 111","region":"강원특별자치도 춘천시 석사동 682-1","building":"석사신우아파트","query":"강원특별자치도 춘천시 석사동 682-1","method":"address"},"51110|석사동|진흥|727-5":{"city_code":"51110","dong":"석사동","name":"진흥","addr":"727-5","lat":37.8681847205379,"lng":127.753690348705,"road":"강원특별자치도 춘천시 후석로186번길 9","region":"강원특별자치도 춘천시 석사동 727-5","building":"진흥아파트","query":"강원특별자치도 춘천시 석사동 727-5","method":"address"},"51110|석사동|청구|727-6":{"city_code":"51110","dong":"석사동","name":"청구","addr":"727-6","lat":37.8693643251788,"lng":127.753715889361,"road":"강원특별자치도 춘천시 서부대성로 332","region":"강원특별자치도 춘천시 석사동 727-6","building":"청구아파트","query":"강원특별자치도 춘천시 석사동 727-6","method":"address"},"51110|석사동|퇴계3주공|820":{"city_code":"51110","dong":"석사동","name":"퇴계3주공","addr":"820","lat":37.8549696114168,"lng":127.743012641928,"road":"강원특별자치도 춘천시 퇴계로 220-19","region":"강원특별자치도 춘천시 석사동 820","building":"퇴계(3)주공아파트","query":"강원특별자치도 춘천시 석사동 820","method":"address"},"51110|석사동|퇴계주공4|822":{"city_code":"51110","dong":"석사동","name":"퇴계주공4","addr":"822","lat":37.8546896731626,"lng":127.744598676896,"road":"강원특별자치도 춘천시 퇴계로 242","region":"강원특별자치도 춘천시 석사동 822","building":"퇴계(4)주공아파트","query":"강원특별자치도 춘천시 석사동 822","method":"address"},"51110|석사동|현대|813":{"city_code":"51110","dong":"석사동","name":"현대","addr":"813","lat":37.8555248620739,"lng":127.740838372188,"road":"강원특별자치도 춘천시 퇴계로 220-16","region":"강원특별자치도 춘천시 석사동 813","building":"현대아파트","query":"강원특별자치도 춘천시 석사동 813","method":"address"},"51110|석사동|현진에버빌2차|873":{"city_code":"51110","dong":"석사동","name":"현진에버빌2차","addr":"873","lat":37.8524491774144,"lng":127.742581595633,"road":"강원특별자치도 춘천시 지석로 63","region":"강원특별자치도 춘천시 석사동 873","building":"현진에버빌2차","query":"강원특별자치도 춘천시 석사동 873","method":"address"},"51110|석사동|휴먼타운|866":{"city_code":"51110","dong":"석사동","name":"휴먼타운","addr":"866","lat":37.8535349907425,"lng":127.739889572653,"road":"강원특별자치도 춘천시 지석로 29","region":"강원특별자치도 춘천시 석사동 866","building":"휴먼타운아파트","query":"강원특별자치도 춘천시 석사동 866","method":"address"},"51110|소양로2가|e편한세상춘천|183":{"city_code":"51110","dong":"소양로2가","name":"e편한세상춘천","addr":"183","lat":37.8854869794222,"lng":127.726709787011,"road":"강원특별자치도 춘천시 서부대성로 33","region":"강원특별자치도 춘천시 소양로2가 183","building":"e편한세상 춘천","query":"강원특별자치도 춘천시 소양로2가 183","method":"address"},"51110|소양로2가|서부시장신동아|172-1":{"city_code":"51110","dong":"소양로2가","name":"서부시장신동아","addr":"172-1","lat":37.8848065241049,"lng":127.724661072961,"road":"강원특별자치도 춘천시 서부대성로 12","region":"강원특별자치도 춘천시 소양로2가 172-1","building":"신동아아파트","query":"강원특별자치도 춘천시 소양로2가 172-1","method":"address"},"51110|소양로2가|소양로현대|1":{"city_code":"51110","dong":"소양로2가","name":"소양로현대","addr":"1","lat":37.8890893649316,"lng":127.72715853413,"road":"강원특별자치도 춘천시 모수물길 54","region":"강원특별자치도 춘천시 소양로2가 1","building":"","query":"강원특별자치도 춘천시 소양로2가 1","method":"address"},"51110|신북읍 천전리|소양강양우내안애|1352":{"city_code":"51110","dong":"신북읍 천전리","name":"소양강양우내안애","addr":"1352","lat":37.9321552528276,"lng":127.790775704113,"road":"강원특별자치도 춘천시 신북읍 신샘밭로 733","region":"강원특별자치도 춘천시 신북읍 천전리 1352","building":"소양강 양우 내안애 아파트","query":"강원특별자치도 춘천시 신북읍 천전리 1352","method":"address"},"51110|신북읍 천전리|춘천해강|1351":{"city_code":"51110","dong":"신북읍 천전리","name":"춘천해강","addr":"1351","lat":37.9325264517697,"lng":127.788450042325,"road":"강원특별자치도 춘천시 신북읍 상천2길 52","region":"강원특별자치도 춘천시 신북읍 천전리 1351","building":"해강아파트","query":"강원특별자치도 춘천시 신북읍 천전리 1351","method":"address"},"51110|약사동|모아엘가센텀뷰아파트|170":{"city_code":"51110","dong":"약사동","name":"모아엘가센텀뷰아파트","addr":"170","lat":37.8729064161063,"lng":127.724220456147,"road":"강원특별자치도 춘천시 공지로 400","region":"강원특별자치도 춘천시 약사동 170","building":"모아엘가 센텀뷰","query":"강원특별자치도 춘천시 약사동 170","method":"address"},"51110|약사동|춘천롯데캐슬위너클래스|175":{"city_code":"51110","dong":"약사동","name":"춘천롯데캐슬위너클래스","addr":"175","lat":37.8719399502732,"lng":127.722011572049,"road":"강원특별자치도 춘천시 방송길 41","region":"강원특별자치도 춘천시 약사동 175","building":"춘천 롯데캐슬 위너클래스","query":"강원특별자치도 춘천시 약사동 175","method":"address"},"51110|온의동|금호3|571":{"city_code":"51110","dong":"온의동","name":"금호3","addr":"571","lat":37.8666549715522,"lng":127.716381259489,"road":"강원특별자치도 춘천시 영서로 2319","region":"강원특별자치도 춘천시 온의동 571","building":"금호3차아파트","query":"강원특별자치도 춘천시 온의동 571","method":"address"},"51110|온의동|럭키|510":{"city_code":"51110","dong":"온의동","name":"럭키","addr":"510","lat":37.8658974308863,"lng":127.717156820762,"road":"강원특별자치도 춘천시 영서로 2317","region":"강원특별자치도 춘천시 온의동 510","building":"럭키아파트","query":"강원특별자치도 춘천시 온의동 510","method":"address"},"51110|온의동|마젤란|573":{"city_code":"51110","dong":"온의동","name":"마젤란","addr":"573","lat":37.8676045335464,"lng":127.715851425801,"road":"강원특별자치도 춘천시 영서로 2329","region":"강원특별자치도 춘천시 온의동 573","building":"온의 마젤란21 아파트","query":"강원특별자치도 춘천시 온의동 573","method":"address"},"51110|온의동|보배|509":{"city_code":"51110","dong":"온의동","name":"보배","addr":"509","lat":37.8695523989026,"lng":127.713423844251,"road":"강원특별자치도 춘천시 스포츠타운길 529-15","region":"강원특별자치도 춘천시 온의동 509","building":"보배아파트","query":"강원특별자치도 춘천시 온의동 509","method":"address"},"51110|온의동|온의금호1차|65-10":{"city_code":"51110","dong":"온의동","name":"온의금호1차","addr":"65-10","lat":37.8702181561325,"lng":127.714469033503,"road":"강원특별자치도 춘천시 스포츠타운길 535","region":"강원특별자치도 춘천시 온의동 65-10","building":"금호1차아파트","query":"강원특별자치도 춘천시 온의동 65-10","method":"address"},"51110|온의동|온의롯데캐슬스카이클래스|590":{"city_code":"51110","dong":"온의동","name":"온의롯데캐슬스카이클래스","addr":"590","lat":37.86966547583,"lng":127.718784216986,"road":"강원특별자치도 춘천시 방송길 70","region":"강원특별자치도 춘천시 온의동 590","building":"온의 롯데캐슬 스카이클래스","query":"강원특별자치도 춘천시 온의동 590","method":"address"},"51110|온의동|춘천센트럴타워푸르지오|601":{"city_code":"51110","dong":"온의동","name":"춘천센트럴타워푸르지오","addr":"601","lat":37.8689805809481,"lng":127.720686411625,"road":"강원특별자치도 춘천시 방송길 77","region":"강원특별자치도 춘천시 온의동 601","building":"춘천 센트럴타워 푸르지오","query":"강원특별자치도 춘천시 온의동 601","method":"address"},"51110|온의동|춘천센트럴파크푸르지오|591":{"city_code":"51110","dong":"온의동","name":"춘천센트럴파크푸르지오","addr":"591","lat":37.8684220927328,"lng":127.711100091332,"road":"강원특별자치도 춘천시 스포츠타운길 501","region":"강원특별자치도 춘천시 온의동 591","building":"춘천센트럴파크푸르지오","query":"강원특별자치도 춘천시 온의동 591","method":"address"},"51110|온의동|한주|572":{"city_code":"51110","dong":"온의동","name":"한주","addr":"572","lat":37.8674767373312,"lng":127.714894875197,"road":"강원특별자치도 춘천시 스포츠타운길 528-12","region":"강원특별자치도 춘천시 온의동 572","building":"온의한주아파트","query":"강원특별자치도 춘천시 온의동 572","method":"address"},"51110|요선동|춘천요선동한신'휴'플러스아파트|200":{"city_code":"51110","dong":"요선동","name":"춘천요선동한신'휴'플러스아파트","addr":"200","lat":37.8832332799623,"lng":127.726699233464,"road":"강원특별자치도 춘천시 서부대성로 34","region":"강원특별자치도 춘천시 요선동 200","building":"한신휴플러스아파트","query":"강원특별자치도 춘천시 요선동 200","method":"address"},"51110|우두동|강변코아루|1082":{"city_code":"51110","dong":"우두동","name":"강변코아루","addr":"1082","lat":37.8971771142071,"lng":127.736975041574,"road":"강원특별자치도 춘천시 새청말길 26","region":"강원특별자치도 춘천시 우두동 1082","building":"강변코아루아파트","query":"강원특별자치도 춘천시 우두동 1082","method":"address"},"51110|우두동|동부|1068-1":{"city_code":"51110","dong":"우두동","name":"동부","addr":"1068-1","lat":37.8983693243008,"lng":127.732440758073,"road":"강원특별자치도 춘천시 충열로 32","region":"강원특별자치도 춘천시 우두동 1068-1","building":"동부아파트","query":"강원특별자치도 춘천시 우두동 1068-1","method":"address"},"51110|우두동|롯데인벤스|1080":{"city_code":"51110","dong":"우두동","name":"롯데인벤스","addr":"1080","lat":37.9006665574456,"lng":127.731230019504,"road":"강원특별자치도 춘천시 충열로 29","region":"강원특별자치도 춘천시 우두동 1080","building":"롯데인벤스아파트","query":"강원특별자치도 춘천시 우두동 1080","method":"address"},"51110|우두동|삼성|1068":{"city_code":"51110","dong":"우두동","name":"삼성","addr":"1068","lat":37.8988366161266,"lng":127.730704380303,"road":"강원특별자치도 춘천시 충열로 30","region":"강원특별자치도 춘천시 우두동 1068","building":"삼성아파트","query":"강원특별자치도 춘천시 우두동 1068","method":"address"},"51110|우두동|춘천우두이지더원시그니처|1089":{"city_code":"51110","dong":"우두동","name":"춘천우두이지더원시그니처","addr":"1089","lat":37.9086908984717,"lng":127.736248765691,"road":"강원특별자치도 춘천시 우두1길 100","region":"강원특별자치도 춘천시 우두동 1089","building":"","query":"강원특별자치도 춘천시 우두동 1089","method":"address"},"51110|우두동|춘천파크에뷰|1085":{"city_code":"51110","dong":"우두동","name":"춘천파크에뷰","addr":"1085","lat":37.9118073078828,"lng":127.735251160409,"road":"강원특별자치도 춘천시 우두1길 129","region":"강원특별자치도 춘천시 우두동 1085","building":"춘천파크에뷰","query":"강원특별자치도 춘천시 우두동 1085","method":"address"},"51110|운교동|동부시장현대|183":{"city_code":"51110","dong":"운교동","name":"동부시장현대","addr":"183","lat":37.8772959151213,"lng":127.73411415234,"road":"강원특별자치도 춘천시 동부시장길 8","region":"강원특별자치도 춘천시 운교동 183","building":"동부시장현대아파트","query":"강원특별자치도 춘천시 운교동 183","method":"address"},"51110|조양동|미도파|34":{"city_code":"51110","dong":"조양동","name":"미도파","addr":"34","lat":37.8786027147368,"lng":127.728501338018,"road":"강원특별자치도 춘천시 금강로 68-3","region":"강원특별자치도 춘천시 조양동 34","building":"","query":"강원특별자치도 춘천시 조양동 34","method":"address"},"51110|죽림동|경남아너스빌|188":{"city_code":"51110","dong":"죽림동","name":"경남아너스빌","addr":"188","lat":37.8771098535971,"lng":127.727236813231,"road":"강원특별자치도 춘천시 약사고개길 19","region":"강원특별자치도 춘천시 죽림동 188","building":"호수마을아파트","query":"강원특별자치도 춘천시 죽림동 188","method":"address"},"51110|죽림동|브라운街흥화Vill|189":{"city_code":"51110","dong":"죽림동","name":"브라운街흥화Vill","addr":"189","lat":37.8781200447026,"lng":127.727736064913,"road":"강원특별자치도 춘천시 중앙로67번길 18","region":"강원특별자치도 춘천시 죽림동 189","building":"브라운가","query":"강원특별자치도 춘천시 죽림동 189","method":"address"},"51110|칠전동|대우|529-1":{"city_code":"51110","dong":"칠전동","name":"대우","addr":"529-1","lat":37.8430983216996,"lng":127.710255526404,"road":"강원특별자치도 춘천시 옛경춘로 492","region":"강원특별자치도 춘천시 칠전동 529-1","building":"칠전대우1차아파트","query":"강원특별자치도 춘천시 칠전동 529-1","method":"address"},"51110|칠전동|춘천칠전사랑으로부영|529-2":{"city_code":"51110","dong":"칠전동","name":"춘천칠전사랑으로부영","addr":"529-2","lat":37.8435881743434,"lng":127.711730565842,"road":"강원특별자치도 춘천시 칠전서길 45","region":"강원특별자치도 춘천시 칠전동 529-2","building":"칠전 사랑으로부영아파트","query":"강원특별자치도 춘천시 칠전동 529-2","method":"address"},"51110|칠전동|칠전2차대우|585-1":{"city_code":"51110","dong":"칠전동","name":"칠전2차대우","addr":"585-1","lat":37.8407649043254,"lng":127.71171661219,"road":"강원특별자치도 춘천시 칠전서길 15-2","region":"강원특별자치도 춘천시 칠전동 585-1","building":"칠전대우2차아파트","query":"강원특별자치도 춘천시 칠전동 585-1","method":"address"},"51110|퇴계동|그린타운삼익코오롱|916-3":{"city_code":"51110","dong":"퇴계동","name":"그린타운삼익코오롱","addr":"916-3","lat":37.8574287689898,"lng":127.727725984203,"road":"강원특별자치도 춘천시 춘주로 174","region":"강원특별자치도 춘천시 퇴계동 916-3","building":"그린타운아파트","query":"강원특별자치도 춘천시 퇴계동 916-3","method":"address"},"51110|퇴계동|금호2차|945":{"city_code":"51110","dong":"퇴계동","name":"금호2차","addr":"945","lat":37.8491000178708,"lng":127.736950256125,"road":"강원특별자치도 춘천시 안마산로 214","region":"강원특별자치도 춘천시 퇴계동 945","building":"퇴계금호타운아파트","query":"강원특별자치도 춘천시 퇴계동 945","method":"address"},"51110|퇴계동|뜨란채|1031":{"city_code":"51110","dong":"퇴계동","name":"뜨란채","addr":"1031","lat":37.8496100964464,"lng":127.746267782339,"road":"강원특별자치도 춘천시 승지골길16번길 47","region":"강원특별자치도 춘천시 퇴계동 1031","building":"뜨란채아파트","query":"강원특별자치도 춘천시 퇴계동 1031","method":"address"},"51110|퇴계동|쌍용스윗닷홈|1040":{"city_code":"51110","dong":"퇴계동","name":"쌍용스윗닷홈","addr":"1040","lat":37.8576456791937,"lng":127.72943508957,"road":"강원특별자치도 춘천시 춘주로 176-22","region":"강원특별자치도 춘천시 퇴계동 1040","building":"퇴계동 쌍용스윗닷홈","query":"강원특별자치도 춘천시 퇴계동 1040","method":"address"},"51110|퇴계동|유승한내들|1041":{"city_code":"51110","dong":"퇴계동","name":"유승한내들","addr":"1041","lat":37.8611230205762,"lng":127.73129243733,"road":"강원특별자치도 춘천시 퇴계로 108","region":"강원특별자치도 춘천시 퇴계동 1041","building":"유승한내들아파트","query":"강원특별자치도 춘천시 퇴계동 1041","method":"address"},"51110|퇴계동|이편한세상춘천한숲시티|1240":{"city_code":"51110","dong":"퇴계동","name":"이편한세상춘천한숲시티","addr":"1240","lat":37.8541904339708,"lng":127.730304824355,"road":"강원특별자치도 춘천시 안마산로 113","region":"강원특별자치도 춘천시 퇴계동 1240","building":"e편한세상 춘천 한숲시티","query":"강원특별자치도 춘천시 퇴계동 1240","method":"address"},"51110|퇴계동|일성2|1139":{"city_code":"51110","dong":"퇴계동","name":"일성2","addr":"1139","lat":37.8666549988818,"lng":127.726317277568,"road":"강원특별자치도 춘천시 우묵길78번길 25","region":"강원특별자치도 춘천시 퇴계동 1139","building":"일성아파트","query":"강원특별자치도 춘천시 퇴계동 1139","method":"address"},"51110|퇴계동|중앙하이츠빌1단지|1043":{"city_code":"51110","dong":"퇴계동","name":"중앙하이츠빌1단지","addr":"1043","lat":37.8550456511654,"lng":127.736285864012,"road":"강원특별자치도 춘천시 영서로2141번길 33","region":"강원특별자치도 춘천시 퇴계동 1043","building":"중앙하이츠빌1단지아파트","query":"강원특별자치도 춘천시 퇴계동 1043","method":"address"},"51110|퇴계동|중앙하이츠빌2단지|1048":{"city_code":"51110","dong":"퇴계동","name":"중앙하이츠빌2단지","addr":"1048","lat":37.8562333512067,"lng":127.735968834612,"road":"강원특별자치도 춘천시 영서로2141번길 25","region":"강원특별자치도 춘천시 퇴계동 1048","building":"중앙하이츠빌2단지아파트","query":"강원특별자치도 춘천시 퇴계동 1048","method":"address"},"51110|퇴계동|중앙하이츠빌3단지|1133":{"city_code":"51110","dong":"퇴계동","name":"중앙하이츠빌3단지","addr":"1133","lat":37.8526760976404,"lng":127.736589760532,"road":"강원특별자치도 춘천시 지석로 10","region":"강원특별자치도 춘천시 퇴계동 1133","building":"중앙하이츠빌3단지아파트","query":"강원특별자치도 춘천시 퇴계동 1133","method":"address"},"51110|퇴계동|춘천퇴계 세영리첼아파트|1235":{"city_code":"51110","dong":"퇴계동","name":"춘천퇴계 세영리첼아파트","addr":"1235","lat":37.8528162183474,"lng":127.735547972187,"road":"강원특별자치도 춘천시 김유정로 1864","region":"강원특별자치도 춘천시 퇴계동 1235","building":"","query":"강원특별자치도 춘천시 퇴계동 1235","method":"address"},"51110|퇴계동|퇴계2주공|983":{"city_code":"51110","dong":"퇴계동","name":"퇴계2주공","addr":"983","lat":37.8579137128314,"lng":127.736439274689,"road":"강원특별자치도 춘천시 퇴계로 168","region":"강원특별자치도 춘천시 퇴계동 983","building":"퇴계(2)주공아파트","query":"강원특별자치도 춘천시 퇴계동 983","method":"address"},"51110|퇴계동|퇴계우성|430":{"city_code":"51110","dong":"퇴계동","name":"퇴계우성","addr":"430","lat":37.8588839311386,"lng":127.729913303417,"road":"강원특별자치도 춘천시 국사봉길 7","region":"강원특별자치도 춘천시 퇴계동 430","building":"우성아파트","query":"강원특별자치도 춘천시 퇴계동 430","method":"address"},"51110|퇴계동|퇴계이안|1052":{"city_code":"51110","dong":"퇴계동","name":"퇴계이안","addr":"1052","lat":37.8578543828461,"lng":127.731431612263,"road":"강원특별자치도 춘천시 영서로 2169","region":"강원특별자치도 춘천시 퇴계동 1052","building":"퇴계이안아파트","query":"강원특별자치도 춘천시 퇴계동 1052","method":"address"},"51110|퇴계동|퇴계주공1차|967":{"city_code":"51110","dong":"퇴계동","name":"퇴계주공1차","addr":"967","lat":37.8592887456994,"lng":127.736952945784,"road":"강원특별자치도 춘천시 퇴계로 167","region":"강원특별자치도 춘천시 퇴계동 967","building":"퇴계(1)주공아파트","query":"강원특별자치도 춘천시 퇴계동 967","method":"address"},"51110|퇴계동|퇴계주공6차|1015":{"city_code":"51110","dong":"퇴계동","name":"퇴계주공6차","addr":"1015","lat":37.8503584273356,"lng":127.741974003834,"road":"강원특별자치도 춘천시 지석로 62","region":"강원특별자치도 춘천시 퇴계동 1015","building":"퇴계(6)주공아파트","query":"강원특별자치도 춘천시 퇴계동 1015","method":"address"},"51110|퇴계동|퇴계현대1차|916-2":{"city_code":"51110","dong":"퇴계동","name":"퇴계현대1차","addr":"916-2","lat":37.857081437123,"lng":127.725817437565,"road":"강원특별자치도 춘천시 춘주로 162","region":"강원특별자치도 춘천시 퇴계동 916-2","building":"퇴계현대1차아파트","query":"강원특별자치도 춘천시 퇴계동 916-2","method":"address"},"51110|퇴계동|퇴계현대2차|916":{"city_code":"51110","dong":"퇴계동","name":"퇴계현대2차","addr":"916","lat":37.8576854371131,"lng":127.723722084639,"road":"강원특별자치도 춘천시 행촌로 14","region":"강원특별자치도 춘천시 퇴계동 916","building":"현대2차아파트","query":"강원특별자치도 춘천시 퇴계동 916","method":"address"},"51110|퇴계동|한성|917":{"city_code":"51110","dong":"퇴계동","name":"한성","addr":"917","lat":37.8586561997408,"lng":127.722356502422,"road":"강원특별자치도 춘천시 행촌로 11","region":"강원특별자치도 춘천시 퇴계동 917","building":"한성한진아파트","query":"강원특별자치도 춘천시 퇴계동 917","method":"address"},"51110|퇴계동|한주|944":{"city_code":"51110","dong":"퇴계동","name":"한주","addr":"944","lat":37.8506675685015,"lng":127.73825659088,"road":"강원특별자치도 춘천시 안마산로 217","region":"강원특별자치도 춘천시 퇴계동 944","building":"한주아파트","query":"강원특별자치도 춘천시 퇴계동 944","method":"address"},"51110|퇴계동|한진,한성|917":{"city_code":"51110","dong":"퇴계동","name":"한진,한성","addr":"917","lat":37.8586561997408,"lng":127.722356502422,"road":"강원특별자치도 춘천시 행촌로 11","region":"강원특별자치도 춘천시 퇴계동 917","building":"한성한진아파트","query":"강원특별자치도 춘천시 퇴계동 917","method":"address"},"51110|퇴계동|현진|916-1":{"city_code":"51110","dong":"퇴계동","name":"현진","addr":"916-1","lat":37.8580641959063,"lng":127.724775635904,"road":"강원특별자치도 춘천시 춘주로 150","region":"강원특별자치도 춘천시 퇴계동 916-1","building":"현진아파트","query":"강원특별자치도 춘천시 퇴계동 916-1","method":"address"},"51110|퇴계동|휴먼시아남춘천1단지|1097":{"city_code":"51110","dong":"퇴계동","name":"휴먼시아남춘천1단지","addr":"1097","lat":37.8618881415177,"lng":127.733645145502,"road":"강원특별자치도 춘천시 남춘천새길 11","region":"강원특별자치도 춘천시 퇴계동 1097","building":"휴먼시아 남춘천1단지아파트","query":"강원특별자치도 춘천시 퇴계동 1097","method":"address"},"51110|퇴계동|휴먼시아남춘천2단지|1131":{"city_code":"51110","dong":"퇴계동","name":"휴먼시아남춘천2단지","addr":"1131","lat":37.8597038620945,"lng":127.733509972277,"road":"강원특별자치도 춘천시 퇴계로 128","region":"강원특별자치도 춘천시 퇴계동 1131","building":"휴먼시아 남춘천2단지아파트","query":"강원특별자치도 춘천시 퇴계동 1131","method":"address"},"51110|효자동|공무원|684-15":{"city_code":"51110","dong":"효자동","name":"공무원","addr":"684-15","lat":37.8702478323152,"lng":127.726111494224,"road":"강원특별자치도 춘천시 공지로 361","region":"강원특별자치도 춘천시 효자동 684-15","building":"공무원아파트","query":"강원특별자치도 춘천시 효자동 684-15","method":"address"},"51110|효자동|낙원|63-12":{"city_code":"51110","dong":"효자동","name":"낙원","addr":"63-12","lat":37.8740039362934,"lng":127.731346107643,"road":"강원특별자치도 춘천시 춘천로138번길 16","region":"강원특별자치도 춘천시 효자동 63-12","building":"낙원아파트","query":"강원특별자치도 춘천시 효자동 63-12","method":"address"},"51110|효자동|내안愛양우|701":{"city_code":"51110","dong":"효자동","name":"내안愛양우","addr":"701","lat":37.8674063658962,"lng":127.730599921347,"road":"강원특별자치도 춘천시 공지로 311","region":"강원특별자치도 춘천시 효자동 701","building":"내안에양우아파트","query":"강원특별자치도 춘천시 효자동 701","method":"address"},"51110|효자동|동보|821":{"city_code":"51110","dong":"효자동","name":"동보","addr":"821","lat":37.8631930298676,"lng":127.740799786713,"road":"강원특별자치도 춘천시 공지로200번길 13","region":"강원특별자치도 춘천시 효자동 821","building":"동보아파트","query":"강원특별자치도 춘천시 효자동 821","method":"address"},"51110|효자동|신동아|818":{"city_code":"51110","dong":"효자동","name":"신동아","addr":"818","lat":37.8708117384809,"lng":127.731479799963,"road":"강원특별자치도 춘천시 효자로 85","region":"강원특별자치도 춘천시 효자동 818","building":"신동아아파트","query":"강원특별자치도 춘천시 효자동 818","method":"address"},"51110|효자동|신아|820":{"city_code":"51110","dong":"효자동","name":"신아","addr":"820","lat":37.8699864066077,"lng":127.737413739578,"road":"강원특별자치도 춘천시 백령로75번길 7","region":"강원특별자치도 춘천시 효자동 820","building":"신아아파트","query":"강원특별자치도 춘천시 효자동 820","method":"address"},"51110|효자동|윤일|367-28":{"city_code":"51110","dong":"효자동","name":"윤일","addr":"367-28","lat":37.8643851449058,"lng":127.733619443559,"road":"강원특별자치도 춘천시 효석로9번길 4","region":"강원특별자치도 춘천시 효자동 367-28","building":"윤일아파트","query":"강원특별자치도 춘천시 효자동 367-28","method":"address"},"51110|효자동|하우스디시그니처98|831":{"city_code":"51110","dong":"효자동","name":"하우스디시그니처98","addr":"831","lat":37.8642306648334,"lng":127.734322830937,"road":"강원특별자치도 춘천시 효석로25번길 5","region":"강원특별자치도 춘천시 효자동 831","building":"하우스디 시그니처98","query":"강원특별자치도 춘천시 효자동 831","method":"address"},"51110|효자동|현진에버빌3차|822":{"city_code":"51110","dong":"효자동","name":"현진에버빌3차","addr":"822","lat":37.8737493140765,"lng":127.730115420926,"road":"강원특별자치도 춘천시 춘천로 120","region":"강원특별자치도 춘천시 효자동 822","building":"현진에버빌3차아파트","query":"강원특별자치도 춘천시 효자동 822","method":"address"},"51110|효자동|효자동일성|819":{"city_code":"51110","dong":"효자동","name":"효자동일성","addr":"819","lat":37.876015262433,"lng":127.741886221073,"road":"강원특별자치도 춘천시 두하길 22","region":"강원특별자치도 춘천시 효자동 819","building":"일성아파트","query":"강원특별자치도 춘천시 효자동 819","method":"address"},"51110|효자동|효자코아루웰라움|823":{"city_code":"51110","dong":"효자동","name":"효자코아루웰라움","addr":"823","lat":37.8640969183712,"lng":127.741532276082,"road":"강원특별자치도 춘천시 공지로218번길 26","region":"강원특별자치도 춘천시 효자동 823","building":"효자코아루웰라움","query":"강원특별자치도 춘천시 효자동 823","method":"address"},"51110|후평동|4단지(연립)|808-1":{"city_code":"51110","dong":"후평동","name":"4단지(연립)","addr":"808-1","lat":37.8774108338665,"lng":127.755902210756,"road":"강원특별자치도 춘천시 대양당길 4","region":"강원특별자치도 춘천시 후평동 808-1","building":"후평4단지아파트","query":"강원특별자치도 춘천시 후평동 808-1","method":"address"},"51110|후평동|가산|74-29":{"city_code":"51110","dong":"후평동","name":"가산","addr":"74-29","lat":37.8800303830517,"lng":127.752441263874,"road":"강원특별자치도 춘천시 보안길 54-14","region":"강원특별자치도 춘천시 후평동 74-29","building":"가산아파트","query":"강원특별자치도 춘천시 후평동 74-29","method":"address"},"51110|후평동|개나리|93-53":{"city_code":"51110","dong":"후평동","name":"개나리","addr":"93-53","lat":37.8825228761592,"lng":127.752612803061,"road":"강원특별자치도 춘천시 수풍골길13번길 27","region":"강원특별자치도 춘천시 후평동 93-53","building":"개나리아파트","query":"강원특별자치도 춘천시 후평동 93-53","method":"address"},"51110|후평동|극동|595":{"city_code":"51110","dong":"후평동","name":"극동","addr":"595","lat":37.8900305305863,"lng":127.740517267139,"road":"강원특별자치도 춘천시 후석로 459","region":"강원특별자치도 춘천시 후평동 595","building":"극동늘푸른아파트","query":"강원특별자치도 춘천시 후평동 595","method":"address"},"51110|후평동|대우아파트|867":{"city_code":"51110","dong":"후평동","name":"대우아파트","addr":"867","lat":37.8761337622602,"lng":127.759388743107,"road":"강원특별자치도 춘천시 후만로126번길 31","region":"강원특별자치도 춘천시 후평동 867","building":"대우아파트","query":"강원특별자치도 춘천시 후평동 867","method":"address"},"51110|후평동|동산|575-4":{"city_code":"51110","dong":"후평동","name":"동산","addr":"575-4","lat":37.8876797576808,"lng":127.742416692546,"road":"강원특별자치도 춘천시 후석로441번길 7","region":"강원특별자치도 춘천시 후평동 575-4","building":"동산아파트","query":"강원특별자치도 춘천시 후평동 575-4","method":"address"},"51110|후평동|동신빌라|738-1":{"city_code":"51110","dong":"후평동","name":"동신빌라","addr":"738-1","lat":37.8864358833819,"lng":127.753892944878,"road":"강원특별자치도 춘천시 만천로199번길 10","region":"강원특별자치도 춘천시 후평동 738-1","building":"동신아파트","query":"강원특별자치도 춘천시 후평동 738-1","method":"address"},"51110|후평동|동아|893":{"city_code":"51110","dong":"후평동","name":"동아","addr":"893","lat":37.8709169677783,"lng":127.753507926866,"road":"강원특별자치도 춘천시 서부대성로 327","region":"강원특별자치도 춘천시 후평동 893","building":"동아아파트","query":"강원특별자치도 춘천시 후평동 893","method":"address"},"51110|후평동|봉의|542-3":{"city_code":"51110","dong":"후평동","name":"봉의","addr":"542-3","lat":37.8863652411481,"lng":127.742926401281,"road":"강원특별자치도 춘천시 후석로441번길 40","region":"강원특별자치도 춘천시 후평동 542-3","building":"봉의아파트","query":"강원특별자치도 춘천시 후평동 542-3","method":"address"},"51110|후평동|석사2|899":{"city_code":"51110","dong":"후평동","name":"석사2","addr":"899","lat":37.8716534612229,"lng":127.756432783756,"road":"강원특별자치도 춘천시 후석로228번길 24","region":"강원특별자치도 춘천시 후평동 899","building":"석사2아파트","query":"강원특별자치도 춘천시 후평동 899","method":"address"},"51110|후평동|세경1|67-12":{"city_code":"51110","dong":"후평동","name":"세경1","addr":"67-12","lat":37.8772068983987,"lng":127.748777419907,"road":"강원특별자치도 춘천시 백령로 202","region":"강원특별자치도 춘천시 후평동 67-12","building":"세경아파트","query":"강원특별자치도 춘천시 후평동 67-12","method":"address"},"51110|후평동|세경2|81-1":{"city_code":"51110","dong":"후평동","name":"세경2","addr":"81-1","lat":37.8803888782166,"lng":127.753115087787,"road":"강원특별자치도 춘천시 후석로326번길 36-7","region":"강원특별자치도 춘천시 후평동 81-1","building":"세경2차아파트","query":"강원특별자치도 춘천시 후평동 81-1","method":"address"},"51110|후평동|세경3차아파트|845-1":{"city_code":"51110","dong":"후평동","name":"세경3차아파트","addr":"845-1","lat":37.8852022776636,"lng":127.744402478924,"road":"강원특별자치도 춘천시 삭주로 125","region":"강원특별자치도 춘천시 후평동 845-1","building":"세경3차아파트,상가","query":"강원특별자치도 춘천시 후평동 845-1","method":"address"},"51110|후평동|세경4차|885-1":{"city_code":"51110","dong":"후평동","name":"세경4차","addr":"885-1","lat":37.8728412718866,"lng":127.757325753087,"road":"강원특별자치도 춘천시 세실로 173","region":"강원특별자치도 춘천시 후평동 885-1","building":"세경4차아파트","query":"강원특별자치도 춘천시 후평동 885-1","method":"address"},"51110|후평동|소망|477-8":{"city_code":"51110","dong":"후평동","name":"소망","addr":"477-8","lat":37.875195160503,"lng":127.749564370603,"road":"강원특별자치도 춘천시 후만로 39","region":"강원특별자치도 춘천시 후평동 477-8","building":"소망아파트","query":"강원특별자치도 춘천시 후평동 477-8","method":"address"},"51110|후평동|신아|731-18":{"city_code":"51110","dong":"후평동","name":"신아","addr":"731-18","lat":37.8853245634045,"lng":127.751797971684,"road":"강원특별자치도 춘천시 삭주로194번길 14","region":"강원특별자치도 춘천시 후평동 731-18","building":"신아아파트","query":"강원특별자치도 춘천시 후평동 731-18","method":"address"},"51110|후평동|에리트|529-4":{"city_code":"51110","dong":"후평동","name":"에리트","addr":"529-4","lat":37.8848501748822,"lng":127.740921215374,"road":"강원특별자치도 춘천시 삭주로 89-7","region":"강원특별자치도 춘천시 후평동 529-4","building":"에리트아파트","query":"강원특별자치도 춘천시 후평동 529-4","method":"address"},"51110|후평동|우미린뉴시티|43":{"city_code":"51110","dong":"후평동","name":"우미린뉴시티","addr":"43","lat":37.8795773817712,"lng":127.751865374484,"road":"","region":"강원특별자치도 춘천시 후평동 43","building":"","query":"강원특별자치도 춘천시 후평동 43","method":"address"},"51110|후평동|주공4|808-1":{"city_code":"51110","dong":"후평동","name":"주공4","addr":"808-1","lat":37.8774108338665,"lng":127.755902210756,"road":"강원특별자치도 춘천시 대양당길 4","region":"강원특별자치도 춘천시 후평동 808-1","building":"후평4단지아파트","query":"강원특별자치도 춘천시 후평동 808-1","method":"address"},"51110|후평동|주공5|481":{"city_code":"51110","dong":"후평동","name":"주공5","addr":"481","lat":37.8749188523099,"lng":127.747820785867,"road":"강원특별자치도 춘천시 후만로 15","region":"강원특별자치도 춘천시 후평동 481","building":"주공5단지아파트","query":"강원특별자치도 춘천시 후평동 481","method":"address"},"51110|후평동|청실|885":{"city_code":"51110","dong":"후평동","name":"청실","addr":"885","lat":37.873640055587,"lng":127.757756730652,"road":"강원특별자치도 춘천시 세실로 187","region":"강원특별자치도 춘천시 후평동 885","building":"청실아파트","query":"강원특별자치도 춘천시 후평동 885","method":"address"},"51110|후평동|초록지붕6차|903":{"city_code":"51110","dong":"후평동","name":"초록지붕6차","addr":"903","lat":37.8802775804485,"lng":127.754231974509,"road":"강원특별자치도 춘천시 세실로 261","region":"강원특별자치도 춘천시 후평동 903","building":"초록지붕6차아파트","query":"강원특별자치도 춘천시 후평동 903","method":"address"},"51110|후평동|초록지붕8차|908":{"city_code":"51110","dong":"후평동","name":"초록지붕8차","addr":"908","lat":37.8801668514269,"lng":127.755595518725,"road":"강원특별자치도 춘천시 세실로 260","region":"강원특별자치도 춘천시 후평동 908","building":"초록지붕아파트","query":"강원특별자치도 춘천시 후평동 908","method":"address"},"51110|후평동|춘천더샵|904":{"city_code":"51110","dong":"후평동","name":"춘천더샵","addr":"904","lat":37.8798764191708,"lng":127.748270786516,"road":"강원특별자치도 춘천시 후석로 325","region":"강원특별자치도 춘천시 후평동 904","building":"춘천더샾아파트","query":"강원특별자치도 춘천시 후평동 904","method":"address"},"51110|후평동|춘천일성트루엘더퍼스트|910":{"city_code":"51110","dong":"후평동","name":"춘천일성트루엘더퍼스트","addr":"910","lat":37.877697575295,"lng":127.747411507438,"road":"강원특별자치도 춘천시 백령로 215","region":"강원특별자치도 춘천시 후평동 910","building":"춘천일성트루엘더퍼스트아파트","query":"강원특별자치도 춘천시 후평동 910","method":"address"},"51110|후평동|춘천후평우미린뉴시티|912":{"city_code":"51110","dong":"후평동","name":"춘천후평우미린뉴시티","addr":"912","lat":37.8785195499648,"lng":127.753930115187,"road":"강원특별자치도 춘천시 보안길 36","region":"강원특별자치도 춘천시 후평동 912","building":"우미린뉴시티","query":"강원특별자치도 춘천시 후평동 912","method":"address"},"51110|후평동|크로바아파트|511-5":{"city_code":"51110","dong":"후평동","name":"크로바아파트","addr":"511-5","lat":37.8815305760157,"lng":127.743056857679,"road":"강원특별자치도 춘천시 춘천로281번길 15","region":"강원특별자치도 춘천시 후평동 511-5","building":"크로바아파트","query":"강원특별자치도 춘천시 후평동 511-5","method":"address"},"51110|후평동|한신|864":{"city_code":"51110","dong":"후평동","name":"한신","addr":"864","lat":37.8729713829489,"lng":127.751050720478,"road":"강원특별자치도 춘천시 부평길 7","region":"강원특별자치도 춘천시 후평동 864","building":"한신아파트","query":"강원특별자치도 춘천시 후평동 864","method":"address"},"51110|후평동|현대1차|845":{"city_code":"51110","dong":"후평동","name":"현대1차","addr":"845","lat":37.8850654746788,"lng":127.743339845386,"road":"강원특별자치도 춘천시 삭주로 113","region":"강원특별자치도 춘천시 후평동 845","building":"현대아파트","query":"강원특별자치도 춘천시 후평동 845","method":"address"},"51110|후평동|현대3|87":{"city_code":"51110","dong":"후평동","name":"현대3","addr":"87","lat":37.8819520785297,"lng":127.752917991624,"road":"강원특별자치도 춘천시 후석로326번길 31","region":"강원특별자치도 춘천시 후평동 87","building":"현대3차아파트","query":"강원특별자치도 춘천시 후평동 87","method":"address"},"51110|후평동|현대4|901":{"city_code":"51110","dong":"후평동","name":"현대4","addr":"901","lat":37.8813332859405,"lng":127.754162037052,"road":"강원특별자치도 춘천시 후석로326번길 44","region":"강원특별자치도 춘천시 후평동 901","building":"현대4차아파트","query":"강원특별자치도 춘천시 후평동 901","method":"address"},"51110|후평동|후평2|67-3":{"city_code":"51110","dong":"후평동","name":"후평2","addr":"67-3","lat":37.8751249576339,"lng":127.752800986589,"road":"강원특별자치도 춘천시 후석로 266","region":"강원특별자치도 춘천시 후평동 836-14","building":"블란도헤어 후평2호점","query":"춘천시 후평동 후평2","method":"keyword"},"51110|후평동|후평3단지|43":{"city_code":"51110","dong":"후평동","name":"후평3단지","addr":"43","lat":37.8795773817712,"lng":127.751865374484,"road":"","region":"강원특별자치도 춘천시 후평동 43","building":"","query":"강원특별자치도 춘천시 후평동 43","method":"address"},"51110|후평동|후평주공6단지|481":{"city_code":"51110","dong":"후평동","name":"후평주공6단지","addr":"481","lat":37.8749188523099,"lng":127.747820785867,"road":"강원특별자치도 춘천시 후만로 15","region":"강원특별자치도 춘천시 후평동 481","building":"주공5단지아파트","query":"강원특별자치도 춘천시 후평동 481","method":"address"},"51110|후평동|후평주공7단지|477":{"city_code":"51110","dong":"후평동","name":"후평주공7단지","addr":"477","lat":37.8744509908943,"lng":127.749805170851,"road":"강원특별자치도 춘천시 후만로 53","region":"강원특별자치도 춘천시 후평동 477","building":"주공7단지아파트","query":"강원특별자치도 춘천시 후평동 477","method":"address"},"51110|후평동|후평현대2차|427":{"city_code":"51110","dong":"후평동","name":"후평현대2차","addr":"427","lat":37.8815155686102,"lng":127.75101551846,"road":"강원특별자치도 춘천시 후석로326번길 13","region":"강원특별자치도 춘천시 후평동 427","building":"현대2차아파트","query":"강원특별자치도 춘천시 후평동 427","method":"address"},"51110|후평동|후평현대5차|902":{"city_code":"51110","dong":"후평동","name":"후평현대5차","addr":"902","lat":37.8737986942785,"lng":127.749879595976,"road":"강원특별자치도 춘천시 후만로24번길 13","region":"강원특별자치도 춘천시 후평동 902","building":"현대5차아파트","query":"강원특별자치도 춘천시 후평동 902","method":"address"},"51130|개운동|개운동원흥3차아파트|328-1":{"city_code":"51130","dong":"개운동","name":"개운동원흥3차아파트","addr":"328-1","lat":37.334878206935,"lng":127.953843674139,"road":"강원특별자치도 원주시 구만이길 9-11","region":"강원특별자치도 원주시 개운동 328-1","building":"","query":"강원특별자치도 원주시 개운동 328-1","method":"address"},"51130|개운동|개운한신휴플러스1차|441":{"city_code":"51130","dong":"개운동","name":"개운한신휴플러스1차","addr":"441","lat":37.332159426223,"lng":127.950263168577,"road":"강원특별자치도 원주시 서원대로 389","region":"강원특별자치도 원주시 개운동 441","building":"개운1차한신휴플러스아파트","query":"강원특별자치도 원주시 개운동 441","method":"address"},"51130|개운동|개운현대|322":{"city_code":"51130","dong":"개운동","name":"개운현대","addr":"322","lat":37.3367492110957,"lng":127.95189827274,"road":"강원특별자치도 원주시 남원로606번길 2","region":"강원특별자치도 원주시 개운동 322","building":"개운현대아파트","query":"강원특별자치도 원주시 개운동 322","method":"address"},"51130|개운동|길우엘린|555-34":{"city_code":"51130","dong":"개운동","name":"길우엘린","addr":"555-34","lat":37.339114730604,"lng":127.959721682789,"road":"강원특별자치도 원주시 개운로 90","region":"강원특별자치도 원주시 개운동 555-34","building":"","query":"강원특별자치도 원주시 개운동 555-34","method":"address"},"51130|개운동|덕산|118-26":{"city_code":"51130","dong":"개운동","name":"덕산","addr":"118-26","lat":37.3407833873611,"lng":127.954854757277,"road":"강원특별자치도 원주시 치악로 1777","region":"강원특별자치도 원주시 개운동 118-26","building":"덕산아파트","query":"강원특별자치도 원주시 개운동 118-26","method":"address"},"51130|개운동|서초|546-3":{"city_code":"51130","dong":"개운동","name":"서초","addr":"546-3","lat":37.3371460562277,"lng":127.961130612396,"road":"강원특별자치도 원주시 개운4길 75","region":"강원특별자치도 원주시 개운동 546-3","building":"서초아파트","query":"강원특별자치도 원주시 개운동 546-3","method":"address"},"51130|개운동|세경|203-70":{"city_code":"51130","dong":"개운동","name":"세경","addr":"203-70","lat":37.3388226439938,"lng":127.962303882399,"road":"강원특별자치도 원주시 강변로 347","region":"강원특별자치도 원주시 개운동 203-70","building":"세경아파트","query":"강원특별자치도 원주시 개운동 203-70","method":"address"},"51130|개운동|원주개운휴먼시아1단지|581-1":{"city_code":"51130","dong":"개운동","name":"원주개운휴먼시아1단지","addr":"581-1","lat":37.3381851922629,"lng":127.954641314268,"road":"강원특별자치도 원주시 개운로 30","region":"강원특별자치도 원주시 개운동 581-1","building":"휴먼시아 원주개운1단지","query":"강원특별자치도 원주시 개운동 581-1","method":"address"},"51130|개운동|원주힐스테이트|28-1":{"city_code":"51130","dong":"개운동","name":"원주힐스테이트","addr":"28-1","lat":37.3406338429263,"lng":127.962268764896,"road":"강원특별자치도 원주시 행구로 54","region":"강원특별자치도 원주시 개운동 28-1","building":"원주힐스테이트아파트","query":"강원특별자치도 원주시 개운동 28-1","method":"address"},"51130|개운동|원흥아파트1차|433-9":{"city_code":"51130","dong":"개운동","name":"원흥아파트1차","addr":"433-9","lat":37.3347377371229,"lng":127.949487170063,"road":"강원특별자치도 원주시 송림길 3","region":"강원특별자치도 원주시 개운동 433-9","building":"원흥아파트","query":"강원특별자치도 원주시 개운동 433-9","method":"address"},"51130|관설동|반도유보라마크브릿지|1805":{"city_code":"51130","dong":"관설동","name":"반도유보라마크브릿지","addr":"1805","lat":37.3162042966308,"lng":127.968228874749,"road":"강원특별자치도 원주시 치악로 1469","region":"강원특별자치도 원주시 관설동 1805","building":"반도유보라 마크브릿지","query":"강원특별자치도 원주시 관설동 1805","method":"address"},"51130|관설동|원주동문디이스트|1820":{"city_code":"51130","dong":"관설동","name":"원주동문디이스트","addr":"1820","lat":37.3122091261427,"lng":127.973647918913,"road":"강원특별자치도 원주시 치악로 1405","region":"강원특별자치도 원주시 관설동 1820","building":"원주 동문 디 이스트","query":"강원특별자치도 원주시 관설동 1820","method":"address"},"51130|관설동|청솔5차|1774-3":{"city_code":"51130","dong":"관설동","name":"청솔5차","addr":"1774-3","lat":37.3146849662667,"lng":127.963877592533,"road":"강원특별자치도 원주시 시청로 524","region":"강원특별자치도 원주시 관설동 1774-3","building":"원주단관 청솔5차아파트","query":"강원특별자치도 원주시 관설동 1774-3","method":"address"},"51130|관설동|청솔6차|1713-1":{"city_code":"51130","dong":"관설동","name":"청솔6차","addr":"1713-1","lat":37.3174541740884,"lng":127.96552615673,"road":"강원특별자치도 원주시 단관초교길 7","region":"강원특별자치도 원주시 관설동 1713-1","building":"청솔6차아파트","query":"강원특별자치도 원주시 관설동 1713-1","method":"address"},"51130|관설동|청솔8차|1713-2":{"city_code":"51130","dong":"관설동","name":"청솔8차","addr":"1713-2","lat":37.3167531632645,"lng":127.966302799721,"road":"강원특별자치도 원주시 나비허리길 188","region":"강원특별자치도 원주시 관설동 1713-2","building":"원주단관8차청솔아파트","query":"강원특별자치도 원주시 관설동 1713-2","method":"address"},"51130|관설동|코아루|1774-4":{"city_code":"51130","dong":"관설동","name":"코아루","addr":"1774-4","lat":37.3139742746863,"lng":127.962170560458,"road":"강원특별자치도 원주시 시청로 496","region":"강원특별자치도 원주시 관설동 1774-4","building":"단관 코아루 아파트","query":"강원특별자치도 원주시 관설동 1774-4","method":"address"},"51130|관설동|현진에버빌4차|1774-2":{"city_code":"51130","dong":"관설동","name":"현진에버빌4차","addr":"1774-2","lat":37.3150727985363,"lng":127.962632860823,"road":"강원특별자치도 원주시 시청로 494","region":"강원특별자치도 원주시 관설동 1774-2","building":"현진에버빌4차아파트","query":"강원특별자치도 원주시 관설동 1774-2","method":"address"},"51130|관설동|힐스테이트원주레스티지|1819":{"city_code":"51130","dong":"관설동","name":"힐스테이트원주레스티지","addr":"1819","lat":37.3122250547597,"lng":127.968567120567,"road":"강원특별자치도 원주시 시청로 526-35","region":"강원특별자치도 원주시 관설동 1819","building":"힐스테이트 원주 레스티지","query":"강원특별자치도 원주시 관설동 1819","method":"address"},"51130|단계동|단계롯데|807":{"city_code":"51130","dong":"단계동","name":"단계롯데","addr":"807","lat":37.3529937076257,"lng":127.928964306652,"road":"강원특별자치도 원주시 백간길 49","region":"강원특별자치도 원주시 단계동 807","building":"단계롯데아파트","query":"강원특별자치도 원주시 단계동 807","method":"address"},"51130|단계동|단계삼익|808":{"city_code":"51130","dong":"단계동","name":"단계삼익","addr":"808","lat":37.351183296298,"lng":127.929519624698,"road":"강원특별자치도 원주시 봉화로 74","region":"강원특별자치도 원주시 단계동 808","building":"단계삼익아파트","query":"강원특별자치도 원주시 단계동 808","method":"address"},"51130|단계동|단계은행|806":{"city_code":"51130","dong":"단계동","name":"단계은행","addr":"806","lat":37.3557381823035,"lng":127.93017467616,"road":"강원특별자치도 원주시 원문로 175","region":"강원특별자치도 원주시 단계동 806","building":"단계 은행아파트","query":"강원특별자치도 원주시 단계동 806","method":"address"},"51130|단계동|단계이안1단지|1166":{"city_code":"51130","dong":"단계동","name":"단계이안1단지","addr":"1166","lat":37.3603999369572,"lng":127.934483794596,"road":"강원특별자치도 원주시 모란1길 47","region":"강원특별자치도 원주시 단계동 1166","building":"이안1단지","query":"강원특별자치도 원주시 단계동 1166","method":"address"},"51130|단계동|단계이안2단지|1165":{"city_code":"51130","dong":"단계동","name":"단계이안2단지","addr":"1165","lat":37.3618301656524,"lng":127.934804494871,"road":"강원특별자치도 원주시 모란1길 52","region":"강원특별자치도 원주시 단계동 1165","building":"단계 이안아파트","query":"강원특별자치도 원주시 단계동 1165","method":"address"},"51130|단계동|단계주공|792":{"city_code":"51130","dong":"단계동","name":"단계주공","addr":"792","lat":37.3443502384923,"lng":127.934822479158,"road":"강원특별자치도 원주시 서원대로 205","region":"강원특별자치도 원주시 단계동 792","building":"단계주공아파트","query":"강원특별자치도 원주시 단계동 792","method":"address"},"51130|단계동|동보렉스3|111-4":{"city_code":"51130","dong":"단계동","name":"동보렉스3","addr":"111-4","lat":37.3565900377188,"lng":127.933176247616,"road":"강원특별자치도 원주시 원문로 122","region":"강원특별자치도 원주시 단계동 111-4","building":"","query":"강원특별자치도 원주시 단계동 111-4","method":"address"},"51130|단계동|동보렉스4|111-47":{"city_code":"51130","dong":"단계동","name":"동보렉스4","addr":"111-47","lat":37.3571836905814,"lng":127.932229612058,"road":"강원특별자치도 원주시 원문로 160","region":"강원특별자치도 원주시 단계동 111-47","building":"동보렉스아파트4차","query":"강원특별자치도 원주시 단계동 111-47","method":"address"},"51130|단계동|라이프타운|808-1":{"city_code":"51130","dong":"단계동","name":"라이프타운","addr":"808-1","lat":37.3512517268042,"lng":127.93086589815,"road":"강원특별자치도 원주시 백간길 72","region":"강원특별자치도 원주시 단계동 808-1","building":"라이프타운","query":"강원특별자치도 원주시 단계동 808-1","method":"address"},"51130|단계동|벽산|809":{"city_code":"51130","dong":"단계동","name":"벽산","addr":"809","lat":37.3513670802446,"lng":127.932772664046,"road":"강원특별자치도 원주시 백간길 80","region":"강원특별자치도 원주시 단계동 809","building":"벽산아파트","query":"강원특별자치도 원주시 단계동 809","method":"address"},"51130|단계동|봉화산e-편한세상|1095-1":{"city_code":"51130","dong":"단계동","name":"봉화산e-편한세상","addr":"1095-1","lat":37.3509690142652,"lng":127.927008404607,"road":"강원특별자치도 원주시 봉화로 65","region":"강원특별자치도 원주시 단계동 1095-1","building":"봉화산이편한세상아파트 상가","query":"강원특별자치도 원주시 단계동 1095-1","method":"address"},"51130|단계동|봉화산벨라시티|1215":{"city_code":"51130","dong":"단계동","name":"봉화산벨라시티","addr":"1215","lat":37.3526719316123,"lng":127.92428708173,"road":"강원특별자치도 원주시 백간길 17","region":"강원특별자치도 원주시 단계동 1215","building":"원주 봉화산 벨라시티 아파트","query":"강원특별자치도 원주시 단계동 1215","method":"address"},"51130|단계동|성일|1084-1":{"city_code":"51130","dong":"단계동","name":"성일","addr":"1084-1","lat":37.3524980496201,"lng":127.932904939946,"road":"강원특별자치도 원주시 모래내길 48","region":"강원특별자치도 원주시 단계동 1084-1","building":"","query":"강원특별자치도 원주시 단계동 1084-1","method":"address"},"51130|단계동|세경3차|807-1":{"city_code":"51130","dong":"단계동","name":"세경3차","addr":"807-1","lat":37.3525625301764,"lng":127.930243273805,"road":"강원특별자치도 원주시 백간길 55","region":"강원특별자치도 원주시 단계동 807-1","building":"세경3차아파트","query":"강원특별자치도 원주시 단계동 807-1","method":"address"},"51130|단계동|원주봉화산벨라시티2차아파트|1218":{"city_code":"51130","dong":"단계동","name":"원주봉화산벨라시티2차아파트","addr":"1218","lat":37.3530994868679,"lng":127.926310123974,"road":"강원특별자치도 원주시 백간길 17-12","region":"강원특별자치도 원주시 단계동 1218","building":"원주봉화산벨라시티2차아파트 상가동","query":"강원특별자치도 원주시 단계동 1218","method":"address"},"51130|단계동|원주봉화산벨라시티3차아파트|1221":{"city_code":"51130","dong":"단계동","name":"원주봉화산벨라시티3차아파트","addr":"1221","lat":37.35475355413,"lng":127.92628496528,"road":"강원특별자치도 원주시 서원대로 35","region":"강원특별자치도 원주시 단계동 1221","building":"원주 봉화산 벨라시티 3차 아파트","query":"강원특별자치도 원주시 단계동 1221","method":"address"},"51130|단계동|원주봉화산푸르지오|1184":{"city_code":"51130","dong":"단계동","name":"원주봉화산푸르지오","addr":"1184","lat":37.3549025767449,"lng":127.920398828594,"road":"강원특별자치도 원주시 봉화서부로 11","region":"강원특별자치도 원주시 단계동 1184","building":"원주봉화산푸르지오아파트","query":"강원특별자치도 원주시 단계동 1184","method":"address"},"51130|단계동|이끌린|1115-2":{"city_code":"51130","dong":"단계동","name":"이끌린","addr":"1115-2","lat":37.347713627879,"lng":127.92657033066,"road":"강원특별자치도 원주시 천사로 10","region":"강원특별자치도 원주시 단계동 1115-2","building":"","query":"강원특별자치도 원주시 단계동 1115-2","method":"address"},"51130|단계동|장미|1084-2":{"city_code":"51130","dong":"단계동","name":"장미","addr":"1084-2","lat":37.3524806333118,"lng":127.932108356232,"road":"강원특별자치도 원주시 백간길 75","region":"강원특별자치도 원주시 단계동 1084-2","building":"장미아파트","query":"강원특별자치도 원주시 단계동 1084-2","method":"address"},"51130|단계동|코오롱|880":{"city_code":"51130","dong":"단계동","name":"코오롱","addr":"880","lat":37.3429392380102,"lng":127.928259704674,"road":"강원특별자치도 원주시 로아노크로 15","region":"강원특별자치도 원주시 단계동 880","building":"코오롱아파트","query":"강원특별자치도 원주시 단계동 880","method":"address"},"51130|단계동|현대3차|507":{"city_code":"51130","dong":"단계동","name":"현대3차","addr":"507","lat":37.3570346356416,"lng":127.929428459575,"road":"강원특별자치도 원주시 원문로 176","region":"강원특별자치도 원주시 단계동 507","building":"현대아파트","query":"강원특별자치도 원주시 단계동 507","method":"address"},"51130|단계동|현진|806-1":{"city_code":"51130","dong":"단계동","name":"현진","addr":"806-1","lat":37.3553453581846,"lng":127.928900737364,"road":"강원특별자치도 원주시 봉화로 122","region":"강원특별자치도 원주시 단계동 806-1","building":"현진아파트","query":"강원특별자치도 원주시 단계동 806-1","method":"address"},"51130|단구동|구곡2현대|1589-1":{"city_code":"51130","dong":"단구동","name":"구곡2현대","addr":"1589-1","lat":37.3214886521033,"lng":127.950550724097,"road":"강원특별자치도 원주시 늘품로 16","region":"강원특별자치도 원주시 단구동 1589-1","building":"현대2차아파트","query":"강원특별자치도 원주시 단구동 1589-1","method":"address"},"51130|단구동|노빌리티타워골드|1026-26":{"city_code":"51130","dong":"단구동","name":"노빌리티타워골드","addr":"1026-26","lat":37.3285295024963,"lng":127.952244063213,"road":"강원특별자치도 원주시 서원대로 434","region":"강원특별자치도 원주시 단구동 1026-26","building":"노빌리티타워 골드","query":"강원특별자치도 원주시 단구동 1026-26","method":"address"},"51130|단구동|단구동한신더휴|1451":{"city_code":"51130","dong":"단구동","name":"단구동한신더휴","addr":"1451","lat":37.3313271831774,"lng":127.954168863027,"road":"강원특별자치도 원주시 단구로 250","region":"강원특별자치도 원주시 단구동 1451","building":"단구동 한신더휴","query":"강원특별자치도 원주시 단구동 1451","method":"address"},"51130|단구동|대림|1517-1":{"city_code":"51130","dong":"단구동","name":"대림","addr":"1517-1","lat":37.3299137080418,"lng":127.947373172758,"road":"강원특별자치도 원주시 남원로 524","region":"강원특별자치도 원주시 단구동 1517-1","building":"대림아파트","query":"강원특별자치도 원주시 단구동 1517-1","method":"address"},"51130|단구동|대흥|1467":{"city_code":"51130","dong":"단구동","name":"대흥","addr":"1467","lat":37.3229959372432,"lng":127.9645557338,"road":"강원특별자치도 원주시 단구초교길 11","region":"강원특별자치도 원주시 단구동 1467","building":"대흥아파트","query":"강원특별자치도 원주시 단구동 1467","method":"address"},"51130|단구동|동보노빌리티타워|1510-1":{"city_code":"51130","dong":"단구동","name":"동보노빌리티타워","addr":"1510-1","lat":37.3317090083611,"lng":127.947489482124,"road":"강원특별자치도 원주시 서원대로 380","region":"강원특별자치도 원주시 단구동 1510-1","building":"노빌리티타워","query":"강원특별자치도 원주시 단구동 1510-1","method":"address"},"51130|단구동|동보렉스5|1026-18":{"city_code":"51130","dong":"단구동","name":"동보렉스5","addr":"1026-18","lat":37.3284911039273,"lng":127.950733602779,"road":"강원특별자치도 원주시 남원로534번길 50","region":"강원특별자치도 원주시 단구동 1026-18","building":"동보렉스아파트 5차","query":"강원특별자치도 원주시 단구동 1026-18","method":"address"},"51130|단구동|동주|186-13":{"city_code":"51130","dong":"단구동","name":"동주","addr":"186-13","lat":37.3306269467869,"lng":127.959491612022,"road":"강원특별자치도 원주시 치악로 1652","region":"강원특별자치도 원주시 단구동 186-13","building":"동주아파트","query":"강원특별자치도 원주시 단구동 186-13","method":"address"},"51130|단구동|두산|1520":{"city_code":"51130","dong":"단구동","name":"두산","addr":"1520","lat":37.3259291602792,"lng":127.947852851202,"road":"강원특별자치도 원주시 남원로 496","region":"강원특별자치도 원주시 단구동 1520","building":"두산아파트","query":"강원특별자치도 원주시 단구동 1520","method":"address"},"51130|단구동|선아|186-11":{"city_code":"51130","dong":"단구동","name":"선아","addr":"186-11","lat":37.3304387537748,"lng":127.960354630293,"road":"강원특별자치도 원주시 치악로 1648","region":"강원특별자치도 원주시 단구동 186-11","building":"선아아파트","query":"강원특별자치도 원주시 단구동 186-11","method":"address"},"51130|단구동|성일|1589-4":{"city_code":"51130","dong":"단구동","name":"성일","addr":"1589-4","lat":37.3203478680145,"lng":127.952570761436,"road":"강원특별자치도 원주시 단구로 418","region":"강원특별자치도 원주시 단구동 1589-4","building":"성일아파트","query":"강원특별자치도 원주시 단구동 1589-4","method":"address"},"51130|단구동|세경5차|1588-3":{"city_code":"51130","dong":"단구동","name":"세경5차","addr":"1588-3","lat":37.3225645911251,"lng":127.952347832815,"road":"강원특별자치도 원주시 단구로 410","region":"강원특별자치도 원주시 단구동 1588-3","building":"세경5차아파트","query":"강원특별자치도 원주시 단구동 1588-3","method":"address"},"51130|단구동|세경웰러스|1589-3":{"city_code":"51130","dong":"단구동","name":"세경웰러스","addr":"1589-3","lat":37.320712122089,"lng":127.951498302221,"road":"강원특별자치도 원주시 단구로 422","region":"강원특별자치도 원주시 단구동 1589-3","building":"세경웰러스아파트","query":"강원특별자치도 원주시 단구동 1589-3","method":"address"},"51130|단구동|신성미소지움|1604-1":{"city_code":"51130","dong":"단구동","name":"신성미소지움","addr":"1604-1","lat":37.3237883034234,"lng":127.959654886592,"road":"강원특별자치도 원주시 나비허리길 57","region":"강원특별자치도 원주시 단구동 1604-1","building":"단구 신성 미소지움","query":"강원특별자치도 원주시 단구동 1604-1","method":"address"},"51130|단구동|원주단구내안애카운티에듀파크1단지|1721":{"city_code":"51130","dong":"단구동","name":"원주단구내안애카운티에듀파크1단지","addr":"1721","lat":37.3169177910187,"lng":127.948472945014,"road":"강원특별자치도 원주시 오성마을길 63-25","region":"강원특별자치도 원주시 단구동 1721","building":"원주단구 내안애카운티 에듀파크 1단지","query":"강원특별자치도 원주시 단구동 1721","method":"address"},"51130|단구동|원주단구내안애카운티에듀파크2단지|1711":{"city_code":"51130","dong":"단구동","name":"원주단구내안애카운티에듀파크2단지","addr":"1711","lat":37.3177034890596,"lng":127.947255087528,"road":"강원특별자치도 원주시 오성마을길 63-30","region":"강원특별자치도 원주시 단구동 1711","building":"원주단구 내안애카운티 에듀파크 2단지","query":"강원특별자치도 원주시 단구동 1711","method":"address"},"51130|단구동|원흥4|186-2":{"city_code":"51130","dong":"단구동","name":"원흥4","addr":"186-2","lat":37.3294276663303,"lng":127.960264246029,"road":"강원특별자치도 원주시 치악로 1634","region":"강원특별자치도 원주시 단구동 186-2","building":"원흥아파트","query":"강원특별자치도 원주시 단구동 186-2","method":"address"},"51130|단구동|유승|1478-4":{"city_code":"51130","dong":"단구동","name":"유승","addr":"1478-4","lat":37.3202562065923,"lng":127.967432709491,"road":"강원특별자치도 원주시 강변로 117","region":"강원특별자치도 원주시 단구동 1478-4","building":"유승아파트","query":"강원특별자치도 원주시 단구동 1478-4","method":"address"},"51130|단구동|중앙하이츠아파트|1702":{"city_code":"51130","dong":"단구동","name":"중앙하이츠아파트","addr":"1702","lat":37.314008737731,"lng":127.958657200454,"road":"강원특별자치도 원주시 단관공원길 111","region":"강원특별자치도 원주시 단구동 1702","building":"중앙하이츠아파트","query":"강원특별자치도 원주시 단구동 1702","method":"address"},"51130|단구동|청솔1차(1589-2)|1589-2":{"city_code":"51130","dong":"단구동","name":"청솔1차(1589-2)","addr":"1589-2","lat":37.3206518436562,"lng":127.950141830175,"road":"강원특별자치도 원주시 늘품로 6","region":"강원특별자치도 원주시 단구동 1589-2","building":"청솔1차아파트","query":"강원특별자치도 원주시 단구동 1589-2","method":"address"},"51130|단구동|청솔2차|1588-4":{"city_code":"51130","dong":"단구동","name":"청솔2차","addr":"1588-4","lat":37.3221192128095,"lng":127.953524210136,"road":"강원특별자치도 원주시 단구로 408","region":"강원특별자치도 원주시 단구동 1588-4","building":"구곡청솔2차아파트","query":"강원특별자치도 원주시 단구동 1588-4","method":"address"},"51130|단구동|청솔3차|1679":{"city_code":"51130","dong":"단구동","name":"청솔3차","addr":"1679","lat":37.3213736304622,"lng":127.954664510003,"road":"강원특별자치도 원주시 단구로 398","region":"강원특별자치도 원주시 단구동 1679","building":"단관 청솔3차아파트 상가동","query":"강원특별자치도 원주시 단구동 1679","method":"address"},"51130|단구동|청솔4차|1684-1":{"city_code":"51130","dong":"단구동","name":"청솔4차","addr":"1684-1","lat":37.3199876098514,"lng":127.953872839594,"road":"강원특별자치도 원주시 단구로 414","region":"강원특별자치도 원주시 단구동 1684-1","building":"단관 청솔4차아파트 상가동","query":"강원특별자치도 원주시 단구동 1684-1","method":"address"},"51130|단구동|청솔7차|1517-3":{"city_code":"51130","dong":"단구동","name":"청솔7차","addr":"1517-3","lat":37.3278325879019,"lng":127.947180846496,"road":"강원특별자치도 원주시 남원로 494","region":"강원특별자치도 원주시 단구동 1517-3","building":"원주구곡청솔7차아파트","query":"강원특별자치도 원주시 단구동 1517-3","method":"address"},"51130|단구동|한신휴플러스2차아파트|1461":{"city_code":"51130","dong":"단구동","name":"한신휴플러스2차아파트","addr":"1461","lat":37.3296635974748,"lng":127.953115882737,"road":"강원특별자치도 원주시 서원대로 427","region":"강원특별자치도 원주시 단구동 1461","building":"한신휴플러스2차아파트","query":"강원특별자치도 원주시 단구동 1461","method":"address"},"51130|단구동|한일|1517-2":{"city_code":"51130","dong":"단구동","name":"한일","addr":"1517-2","lat":37.3289685743702,"lng":127.948630739678,"road":"강원특별자치도 원주시 남원로 526","region":"강원특별자치도 원주시 단구동 1517-2","building":"한일아파트","query":"강원특별자치도 원주시 단구동 1517-2","method":"address"},"51130|단구동|해청|587-1":{"city_code":"51130","dong":"단구동","name":"해청","addr":"587-1","lat":37.3291895714741,"lng":127.956912228644,"road":"강원특별자치도 원주시 늘품로 120","region":"강원특별자치도 원주시 단구동 587-1","building":"해청아파트","query":"강원특별자치도 원주시 단구동 587-1","method":"address"},"51130|단구동|현대1|1517-4":{"city_code":"51130","dong":"단구동","name":"현대1","addr":"1517-4","lat":37.3287401292626,"lng":127.946261970506,"road":"강원특별자치도 원주시 남원로 492","region":"강원특별자치도 원주시 단구동 1517-4","building":"현대아파트","query":"강원특별자치도 원주시 단구동 1517-4","method":"address"},"51130|단구동|현진에버빌|1612":{"city_code":"51130","dong":"단구동","name":"현진에버빌","addr":"1612","lat":37.3244835035467,"lng":127.955949971029,"road":"강원특별자치도 원주시 나비허리길 20","region":"강원특별자치도 원주시 단구동 1612","building":"단구동 현진에버빌(1)","query":"강원특별자치도 원주시 단구동 1612","method":"address"},"51130|단구동|현진에버빌2|1588-1":{"city_code":"51130","dong":"단구동","name":"현진에버빌2","addr":"1588-1","lat":37.3234170647505,"lng":127.951447228819,"road":"강원특별자치도 원주시 늘품로 36","region":"강원특별자치도 원주시 단구동 1588-1","building":"현진에버빌2차아파트","query":"강원특별자치도 원주시 단구동 1588-1","method":"address"},"51130|단구동|현진에버빌5차|1682-1":{"city_code":"51130","dong":"단구동","name":"현진에버빌5차","addr":"1682-1","lat":37.3196187714839,"lng":127.955845140965,"road":"강원특별자치도 원주시 단구로 413","region":"강원특별자치도 원주시 단구동 1682-1","building":"현진에버빌5차","query":"강원특별자치도 원주시 단구동 1682-1","method":"address"},"51130|단구동|현진에버빌6차|1682-3":{"city_code":"51130","dong":"단구동","name":"현진에버빌6차","addr":"1682-3","lat":37.3187789424295,"lng":127.957272536286,"road":"강원특별자치도 원주시 단구로 411","region":"강원특별자치도 원주시 단구동 1682-3","building":"현진에버빌6차","query":"강원특별자치도 원주시 단구동 1682-3","method":"address"},"51130|명륜동|구곡청구1단지|847-1":{"city_code":"51130","dong":"명륜동","name":"구곡청구1단지","addr":"847-1","lat":37.3256559908477,"lng":127.937617660707,"road":"강원특별자치도 원주시 남원로469번길 81","region":"강원특별자치도 원주시 명륜동 847-1","building":"구곡청구아파트","query":"강원특별자치도 원주시 명륜동 847-1","method":"address"},"51130|명륜동|구곡청구2단지|847-3":{"city_code":"51130","dong":"명륜동","name":"구곡청구2단지","addr":"847-3","lat":37.3252628972511,"lng":127.939739718756,"road":"강원특별자치도 원주시 남원로 441","region":"강원특별자치도 원주시 명륜동 847-3","building":"구곡청구아파트","query":"강원특별자치도 원주시 명륜동 847-3","method":"address"},"51130|명륜동|단구1단지|376":{"city_code":"51130","dong":"명륜동","name":"단구1단지","addr":"376","lat":37.3345332046431,"lng":127.941574045349,"road":"강원특별자치도 원주시 남원로527번길 61","region":"강원특별자치도 원주시 명륜동 376","building":"단구아파트","query":"강원특별자치도 원주시 명륜동 376","method":"address"},"51130|명륜동|단구2단지|480":{"city_code":"51130","dong":"명륜동","name":"단구2단지","addr":"480","lat":37.3317881454494,"lng":127.945075175482,"road":"강원특별자치도 원주시 남원로527번길 23","region":"강원특별자치도 원주시 명륜동 480","building":"단구2단지아파트","query":"강원특별자치도 원주시 명륜동 480","method":"address"},"51130|명륜동|대성현대|124":{"city_code":"51130","dong":"명륜동","name":"대성현대","addr":"124","lat":37.3396187402749,"lng":127.950224443976,"road":"강원특별자치도 원주시 향교길 53","region":"강원특별자치도 원주시 명륜동 124","building":"대성현대아파트","query":"강원특별자치도 원주시 명륜동 124","method":"address"},"51130|명륜동|더샵원주센트럴파크2단지|856":{"city_code":"51130","dong":"명륜동","name":"더샵원주센트럴파크2단지","addr":"856","lat":37.3370866574924,"lng":127.939032021224,"road":"강원특별자치도 원주시 서원대로 290","region":"강원특별자치도 원주시 명륜동 856","building":"더샵 원주센트럴파크 2단지","query":"강원특별자치도 원주시 명륜동 856","method":"address"},"51130|명륜동|더샵원주센트럴파크3단지|857":{"city_code":"51130","dong":"명륜동","name":"더샵원주센트럴파크3단지","addr":"857","lat":37.3290033434035,"lng":127.942035322691,"road":"강원특별자치도 원주시 한지공원길 25-2","region":"강원특별자치도 원주시 명륜동 857","building":"더샵 원주센트럴파크 3단지","query":"강원특별자치도 원주시 명륜동 857","method":"address"},"51130|명륜동|동보노빌리티1|847-5":{"city_code":"51130","dong":"명륜동","name":"동보노빌리티1","addr":"847-5","lat":37.3245564536991,"lng":127.938339485526,"road":"강원특별자치도 원주시 시청로 255","region":"강원특별자치도 원주시 명륜동 847-5","building":"동보노빌리티-1","query":"강원특별자치도 원주시 명륜동 847-5","method":"address"},"51130|명륜동|동보노빌리티2|847-4":{"city_code":"51130","dong":"명륜동","name":"동보노빌리티2","addr":"847-4","lat":37.3238339783062,"lng":127.939334044725,"road":"강원특별자치도 원주시 시청로 267","region":"강원특별자치도 원주시 명륜동 847-4","building":"동보노빌리티2아파트","query":"강원특별자치도 원주시 명륜동 847-4","method":"address"},"51130|명륜동|동보렉스9차|848-1":{"city_code":"51130","dong":"명륜동","name":"동보렉스9차","addr":"848-1","lat":37.3270646713504,"lng":127.936802962053,"road":"강원특별자치도 원주시 남원로469번길 80","region":"강원특별자치도 원주시 명륜동 848-1","building":"구곡동보렉스9차아파트","query":"강원특별자치도 원주시 명륜동 848-1","method":"address"},"51130|명륜동|동성|147-1":{"city_code":"51130","dong":"명륜동","name":"동성","addr":"147-1","lat":37.3420932830583,"lng":127.94875970761,"road":"강원특별자치도 원주시 무실로55번길 65","region":"강원특별자치도 원주시 명륜동 147-1","building":"동성아파트","query":"강원특별자치도 원주시 명륜동 147-1","method":"address"},"51130|명륜동|동현맨션|205-151":{"city_code":"51130","dong":"명륜동","name":"동현맨션","addr":"205-151","lat":37.3403987414877,"lng":127.946717321462,"road":"강원특별자치도 원주시 남산로48번길 50","region":"강원특별자치도 원주시 명륜동 205-151","building":"동현맨션","query":"강원특별자치도 원주시 명륜동 205-151","method":"address"},"51130|명륜동|명륜은행|549":{"city_code":"51130","dong":"명륜동","name":"명륜은행","addr":"549","lat":37.3326394096285,"lng":127.943799756341,"road":"강원특별자치도 원주시 남원로527번길 35","region":"강원특별자치도 원주시 명륜동 549","building":"명륜은행아파트","query":"강원특별자치도 원주시 명륜동 549","method":"address"},"51130|명륜동|명륜행운주공|710":{"city_code":"51130","dong":"명륜동","name":"명륜행운주공","addr":"710","lat":37.3328723767061,"lng":127.940398001772,"road":"강원특별자치도 원주시 예술관길 32","region":"강원특별자치도 원주시 명륜동 710","building":"행운아파트","query":"강원특별자치도 원주시 명륜동 710","method":"address"},"51130|명륜동|성원|802":{"city_code":"51130","dong":"명륜동","name":"성원","addr":"802","lat":37.3412387945665,"lng":127.941687328633,"road":"강원특별자치도 원주시 무실로 153","region":"강원특별자치도 원주시 명륜동 802","building":"성원아파트 상가 나동","query":"강원특별자치도 원주시 명륜동 802","method":"address"},"51130|명륜동|세경1|90-1":{"city_code":"51130","dong":"명륜동","name":"세경1","addr":"90-1","lat":37.3421376266871,"lng":127.953196220319,"road":"강원특별자치도 원주시 남원로 661","region":"강원특별자치도 원주시 명륜동 90-1","building":"세경아파트(1차)","query":"강원특별자치도 원주시 명륜동 90-1","method":"address"},"51130|명륜동|영진3|774":{"city_code":"51130","dong":"명륜동","name":"영진3","addr":"774","lat":37.3361770034566,"lng":127.939134889791,"road":"강원특별자치도 원주시 서원대로 306","region":"강원특별자치도 원주시 명륜동 774","building":"영진아파트","query":"강원특별자치도 원주시 명륜동 774","method":"address"},"51130|명륜동|원주삼성|547":{"city_code":"51130","dong":"명륜동","name":"원주삼성","addr":"547","lat":37.3330658609015,"lng":127.943154711984,"road":"강원특별자치도 원주시 예술관길 13","region":"강원특별자치도 원주시 명륜동 547","building":"원주 삼성아파트","query":"강원특별자치도 원주시 명륜동 547","method":"address"},"51130|명륜동|치악맨숀|26":{"city_code":"51130","dong":"명륜동","name":"치악맨숀","addr":"26","lat":37.3430270358996,"lng":127.954443392068,"road":"강원특별자치도 원주시 치악로 1803","region":"강원특별자치도 원주시 명륜동 26","building":"남부시장","query":"강원특별자치도 원주시 명륜동 26","method":"address"},"51130|명륜동|한솔솔파크|765":{"city_code":"51130","dong":"명륜동","name":"한솔솔파크","addr":"765","lat":37.3339031159658,"lng":127.939150810882,"road":"강원특별자치도 원주시 한지공원길 102","region":"강원특별자치도 원주시 명륜동 765","building":"한솔솔파크","query":"강원특별자치도 원주시 명륜동 765","method":"address"},"51130|명륜동|해동아파트|6-5":{"city_code":"51130","dong":"명륜동","name":"해동아파트","addr":"6-5","lat":37.3440355414622,"lng":127.95442975006,"road":"강원특별자치도 원주시 남부시장길 2","region":"강원특별자치도 원주시 명륜동 6-5","building":"해동아파트","query":"강원특별자치도 원주시 명륜동 6-5","method":"address"},"51130|명륜동|행운|710":{"city_code":"51130","dong":"명륜동","name":"행운","addr":"710","lat":37.3328723767061,"lng":127.940398001772,"road":"강원특별자치도 원주시 예술관길 32","region":"강원특별자치도 원주시 명륜동 710","building":"행운아파트","query":"강원특별자치도 원주시 명륜동 710","method":"address"},"51130|명륜동|현대1|205-37":{"city_code":"51130","dong":"명륜동","name":"현대1","addr":"205-37","lat":37.3402511411963,"lng":127.945615450214,"road":"강원특별자치도 원주시 남산로 24","region":"강원특별자치도 원주시 명륜동 205-37","building":"현대아파트","query":"강원특별자치도 원주시 명륜동 205-37","method":"address"},"51130|명륜동|현대2차|764":{"city_code":"51130","dong":"명륜동","name":"현대2차","addr":"764","lat":37.3352003801582,"lng":127.940669739624,"road":"강원특별자치도 원주시 서원대로 308","region":"강원특별자치도 원주시 명륜동 764","building":"현대아파트","query":"강원특별자치도 원주시 명륜동 764","method":"address"},"51130|명륜동|현진에버빌3차|847-2":{"city_code":"51130","dong":"명륜동","name":"현진에버빌3차","addr":"847-2","lat":37.3261060093372,"lng":127.938735137715,"road":"강원특별자치도 원주시 남원로 441-15","region":"강원특별자치도 원주시 명륜동 847-2","building":"현진에버빌3차","query":"강원특별자치도 원주시 명륜동 847-2","method":"address"},"51130|무실동|더샵원주센트럴파크1단지|1921":{"city_code":"51130","dong":"무실동","name":"더샵원주센트럴파크1단지","addr":"1921","lat":37.3352875805718,"lng":127.937618667283,"road":"강원특별자치도 원주시 한지공원길 120","region":"강원특별자치도 원주시 무실동 1921","building":"더샵 원주센트럴파크 1단지","query":"강원특별자치도 원주시 무실동 1921","method":"address"},"51130|무실동|더샵원주센트럴파크4단지|1922":{"city_code":"51130","dong":"무실동","name":"더샵원주센트럴파크4단지","addr":"1922","lat":37.3321756892255,"lng":127.936062376697,"road":"강원특별자치도 원주시 무실새골길 66","region":"강원특별자치도 원주시 무실동 1922","building":"더샵 원주센트럴파크 4단지","query":"강원특별자치도 원주시 무실동 1922","method":"address"},"51130|무실동|뜨란채|1651":{"city_code":"51130","dong":"무실동","name":"뜨란채","addr":"1651","lat":37.3345113442795,"lng":127.924939896575,"road":"강원특별자치도 원주시 시청로 90","region":"강원특별자치도 원주시 무실동 1651","building":"뜨란채아파트","query":"강원특별자치도 원주시 무실동 1651","method":"address"},"51130|무실동|무실e-편한세상|1714":{"city_code":"51130","dong":"무실동","name":"무실e-편한세상","addr":"1714","lat":37.3377528252448,"lng":127.918945420457,"road":"강원특별자치도 원주시 만대로 89","region":"강원특별자치도 원주시 무실동 1714","building":"무실 이-편한세상","query":"강원특별자치도 원주시 무실동 1714","method":"address"},"51130|무실동|무실우미린|1868-6":{"city_code":"51130","dong":"무실동","name":"무실우미린","addr":"1868-6","lat":37.3270066058266,"lng":127.932256827025,"road":"강원특별자치도 원주시 무실로 455","region":"강원특별자치도 원주시 무실동 1868-6","building":"무실우미린","query":"강원특별자치도 원주시 무실동 1868-6","method":"address"},"51130|무실동|무실주공3단지|1645":{"city_code":"51130","dong":"무실동","name":"무실주공3단지","addr":"1645","lat":37.333720475589,"lng":127.926605700035,"road":"강원특별자치도 원주시 시청로 92","region":"강원특별자치도 원주시 무실동 1645","building":"무실주공3단지아파트","query":"강원특별자치도 원주시 무실동 1645","method":"address"},"51130|무실동|무실주공4단지|1644":{"city_code":"51130","dong":"무실동","name":"무실주공4단지","addr":"1644","lat":37.3358815722486,"lng":127.926265859141,"road":"강원특별자치도 원주시 시청로 88","region":"강원특별자치도 원주시 무실동 1644","building":"무실주공4단지아파트","query":"강원특별자치도 원주시 무실동 1644","method":"address"},"51130|무실동|사랑으로부영|1846-5":{"city_code":"51130","dong":"무실동","name":"사랑으로부영","addr":"1846-5","lat":37.3313510102062,"lng":127.927470002566,"road":"강원특별자치도 원주시 무실로 380","region":"강원특별자치도 원주시 무실동 1846-5","building":"사랑으로부영아파트","query":"강원특별자치도 원주시 무실동 1846-5","method":"address"},"51130|무실동|요진보네르카운티|1640":{"city_code":"51130","dong":"무실동","name":"요진보네르카운티","addr":"1640","lat":37.3374530357435,"lng":127.924418984579,"road":"강원특별자치도 원주시 시청로 64","region":"강원특별자치도 원주시 무실동 1640","building":"요진보네르카운티","query":"강원특별자치도 원주시 무실동 1640","method":"address"},"51130|무실동|원주무실6단지휴먼시아|1715-1":{"city_code":"51130","dong":"무실동","name":"원주무실6단지휴먼시아","addr":"1715-1","lat":37.3363927039505,"lng":127.920216804994,"road":"강원특별자치도 원주시 만대로 119","region":"강원특별자치도 원주시 무실동 1715-1","building":"원주무실6단지휴먼시아","query":"강원특별자치도 원주시 무실동 1715-1","method":"address"},"51130|무실동|원주시무실세영리첼1차|1861-1":{"city_code":"51130","dong":"무실동","name":"원주시무실세영리첼1차","addr":"1861-1","lat":37.3297939329226,"lng":127.927259049183,"road":"강원특별자치도 원주시 무실로 382","region":"강원특별자치도 원주시 무실동 1861-1","building":"원주시 무실 세영리첼 1차 아파트","query":"강원특별자치도 원주시 무실동 1861-1","method":"address"},"51130|무실동|원주시무실세영리첼2차|1868-1":{"city_code":"51130","dong":"무실동","name":"원주시무실세영리첼2차","addr":"1868-1","lat":37.3284046715709,"lng":127.93092016641,"road":"강원특별자치도 원주시 무실로 415","region":"강원특별자치도 원주시 무실동 1868-1","building":"세영리첼2차아파트","query":"강원특별자치도 원주시 무실동 1868-1","method":"address"},"51130|무실동|제일풍경채원주무실|2025":{"city_code":"51130","dong":"무실동","name":"제일풍경채원주무실","addr":"2025","lat":37.3302236141347,"lng":127.931995546439,"road":"강원특별자치도 원주시 무실로 353","region":"강원특별자치도 원주시 무실동 2025","building":"제일풍경채 원주무실","query":"강원특별자치도 원주시 무실동 2025","method":"address"},"51130|무실동|호반써밋원주역|1923":{"city_code":"51130","dong":"무실동","name":"호반써밋원주역","addr":"1923","lat":37.3195027079412,"lng":127.918965374524,"road":"강원특별자치도 원주시 마재1로 1","region":"강원특별자치도 원주시 무실동 1923","building":"호반써밋 원주역","query":"강원특별자치도 원주시 무실동 1923","method":"address"},"51130|문막읍 건등리|극동스타클래스|1741-1":{"city_code":"51130","dong":"문막읍 건등리","name":"극동스타클래스","addr":"1741-1","lat":37.3156012888372,"lng":127.822063306288,"road":"강원특별자치도 원주시 문막읍 건등로 67","region":"강원특별자치도 원주시 문막읍 건등리 1741-1","building":"원주문막극동스타클래스","query":"강원특별자치도 원주시 문막읍 건등리 1741-1","method":"address"},"51130|문막읍 건등리|대보|194-1":{"city_code":"51130","dong":"문막읍 건등리","name":"대보","addr":"194-1","lat":37.3194230327321,"lng":127.832255041402,"road":"강원특별자치도 원주시 문막읍 원문로 1603","region":"강원특별자치도 원주시 문막읍 건등리 194-1","building":"","query":"강원특별자치도 원주시 문막읍 건등리 194-1","method":"address"},"51130|문막읍 건등리|덕원|193-2":{"city_code":"51130","dong":"문막읍 건등리","name":"덕원","addr":"193-2","lat":37.3188214614101,"lng":127.832237690543,"road":"강원특별자치도 원주시 문막읍 원문로 1627","region":"강원특별자치도 원주시 문막읍 건등리 193-2","building":"덕원아파트","query":"강원특별자치도 원주시 문막읍 건등리 193-2","method":"address"},"51130|문막읍 건등리|삼익|1697-1":{"city_code":"51130","dong":"문막읍 건등리","name":"삼익","addr":"1697-1","lat":37.3136469811414,"lng":127.818699897608,"road":"강원특별자치도 원주시 문막읍 건등로 27","region":"강원특별자치도 원주시 문막읍 건등리 1697-1","building":"삼익아파트","query":"강원특별자치도 원주시 문막읍 건등리 1697-1","method":"address"},"51130|문막읍 건등리|서원주코아루아너스|1743":{"city_code":"51130","dong":"문막읍 건등리","name":"서원주코아루아너스","addr":"1743","lat":37.3161803020167,"lng":127.8253086282,"road":"강원특별자치도 원주시 문막읍 원문로 1700","region":"강원특별자치도 원주시 문막읍 건등리 1743","building":"서원주 코아루 아너스","query":"강원특별자치도 원주시 문막읍 건등리 1743","method":"address"},"51130|문막읍 건등리|신한|1697-2":{"city_code":"51130","dong":"문막읍 건등리","name":"신한","addr":"1697-2","lat":37.3141411321978,"lng":127.81935841239,"road":"강원특별자치도 원주시 문막읍 건등로 39","region":"강원특별자치도 원주시 문막읍 건등리 1697-2","building":"신한아파트","query":"강원특별자치도 원주시 문막읍 건등리 1697-2","method":"address"},"51130|문막읍 동화리|금광포란재|1544-3":{"city_code":"51130","dong":"문막읍 동화리","name":"금광포란재","addr":"1544-3","lat":37.327382617435,"lng":127.827747940683,"road":"강원특별자치도 원주시 문막읍 동화초교길 15","region":"강원특별자치도 원주시 문막읍 동화리 1544-3","building":"금광포란재아파트","query":"강원특별자치도 원주시 문막읍 동화리 1544-3","method":"address"},"51130|문막읍 동화리|동보렉스6차|1264-3":{"city_code":"51130","dong":"문막읍 동화리","name":"동보렉스6차","addr":"1264-3","lat":37.3216968517236,"lng":127.833133477193,"road":"강원특별자치도 원주시 문막읍 원문로 1578","region":"강원특별자치도 원주시 문막읍 동화리 1264-3","building":"문막동보렉스6차아파트","query":"강원특별자치도 원주시 문막읍 동화리 1264-3","method":"address"},"51130|문막읍 동화리|문막미소채아파트|1530-3":{"city_code":"51130","dong":"문막읍 동화리","name":"문막미소채아파트","addr":"1530-3","lat":37.3284026184006,"lng":127.827842285743,"road":"강원특별자치도 원주시 문막읍 동화초교길 25","region":"강원특별자치도 원주시 문막읍 동화리 1530-3","building":"대광미소채아파트","query":"강원특별자치도 원주시 문막읍 동화리 1530-3","method":"address"},"51130|문막읍 동화리|문막이화|1530-2":{"city_code":"51130","dong":"문막읍 동화리","name":"문막이화","addr":"1530-2","lat":37.328851709125,"lng":127.827954062801,"road":"강원특별자치도 원주시 문막읍 동화초교길 31","region":"강원특별자치도 원주시 문막읍 동화리 1530-2","building":"문막이화아파트","query":"강원특별자치도 원주시 문막읍 동화리 1530-2","method":"address"},"51130|문막읍 동화리|문막현진|1543":{"city_code":"51130","dong":"문막읍 동화리","name":"문막현진","addr":"1543","lat":37.3258202533804,"lng":127.828445547191,"road":"강원특별자치도 원주시 문막읍 왕건로 75","region":"강원특별자치도 원주시 문막읍 동화리 1543","building":"문막현진아파트","query":"강원특별자치도 원주시 문막읍 동화리 1543","method":"address"},"51130|문막읍 동화리|성우아파트|1534-1":{"city_code":"51130","dong":"문막읍 동화리","name":"성우아파트","addr":"1534-1","lat":37.3285387783781,"lng":127.82938355676,"road":"강원특별자치도 원주시 문막읍 왕건로 99","region":"강원특별자치도 원주시 문막읍 동화리 1534-1","building":"성우아파트","query":"강원특별자치도 원주시 문막읍 동화리 1534-1","method":"address"},"51130|문막읍 동화리|오트리브사원아파트|1532-3":{"city_code":"51130","dong":"문막읍 동화리","name":"오트리브사원아파트","addr":"1532-3","lat":37.3283255402432,"lng":127.83036835055,"road":"강원특별자치도 원주시 문막읍 왕건로 102","region":"강원특별자치도 원주시 문막읍 동화리 1532-3","building":"오토리브(주) 사원임대 아파트","query":"강원특별자치도 원주시 문막읍 동화리 1532-3","method":"address"},"51130|문막읍 동화리|원주문막신원아침도시|1690":{"city_code":"51130","dong":"문막읍 동화리","name":"원주문막신원아침도시","addr":"1690","lat":37.3222583466098,"lng":127.832533722177,"road":"강원특별자치도 원주시 문막읍 왕건로 20","region":"강원특별자치도 원주시 문막읍 동화리 1690","building":"원주문막신원아침도시","query":"강원특별자치도 원주시 문막읍 동화리 1690","method":"address"},"51130|문막읍 동화리|토다이수사원아파트|1530":{"city_code":"51130","dong":"문막읍 동화리","name":"토다이수사원아파트","addr":"1530","lat":37.3296303163939,"lng":127.828565122762,"road":"강원특별자치도 원주시 문막읍 동화초교길 37","region":"강원특별자치도 원주시 문막읍 동화리 1530","building":"이수세라믹(주)근로자임대아파트","query":"강원특별자치도 원주시 문막읍 동화리 1530","method":"address"},"51130|문막읍 반계리|남서울|1114-1":{"city_code":"51130","dong":"문막읍 반계리","name":"남서울","addr":"1114-1","lat":37.291823794398,"lng":127.791838354592,"road":"강원특별자치도 원주시 문막읍 쪽섬길 4","region":"강원특별자치도 원주시 문막읍 반계리 1114-1","building":"남서울아파트","query":"강원특별자치도 원주시 문막읍 반계리 1114-1","method":"address"},"51130|문막읍 포진리|그린아파트|85":{"city_code":"51130","dong":"문막읍 포진리","name":"그린아파트","addr":"85","lat":37.2847137936393,"lng":127.819009016702,"road":"강원특별자치도 원주시 문막읍 삼괴정길 6","region":"강원특별자치도 원주시 문막읍 포진리 85","building":"그린사원아파트","query":"강원특별자치도 원주시 문막읍 포진리 85","method":"address"},"51130|문막읍 포진리|남정|300-10":{"city_code":"51130","dong":"문막읍 포진리","name":"남정","addr":"300-10","lat":37.3025048146019,"lng":127.815149143461,"road":"강원특별자치도 원주시 문막읍 문막시장3길 119","region":"강원특별자치도 원주시 문막읍 포진리 300-10","building":"남정아파트","query":"강원특별자치도 원주시 문막읍 포진리 300-10","method":"address"},"51130|반곡동|반곡모아엘가|1964-7":{"city_code":"51130","dong":"반곡동","name":"반곡모아엘가","addr":"1964-7","lat":37.3328665260641,"lng":127.990758820092,"road":"강원특별자치도 원주시 세계로 111","region":"강원특별자치도 원주시 반곡동 1964-7","building":"모아엘가아파트","query":"강원특별자치도 원주시 반곡동 1964-7","method":"address"},"51130|반곡동|반곡벽산2차아파트|1802":{"city_code":"51130","dong":"반곡동","name":"반곡벽산2차아파트","addr":"1802","lat":37.3390193086007,"lng":127.966693974228,"road":"강원특별자치도 원주시 반곡길 45","region":"강원특별자치도 원주시 반곡동 1802","building":"반곡벽산블루밍2차아파트","query":"강원특별자치도 원주시 반곡동 1802","method":"address"},"51130|반곡동|반곡벽산블루밍1차|1800":{"city_code":"51130","dong":"반곡동","name":"반곡벽산블루밍1차","addr":"1800","lat":37.3388041667852,"lng":127.964915177388,"road":"강원특별자치도 원주시 반곡길 46","region":"강원특별자치도 원주시 반곡동 1800","building":"반곡벽산블루밍1차아파트 상가","query":"강원특별자치도 원주시 반곡동 1800","method":"address"},"51130|반곡동|반곡퍼스트힐|1816-3":{"city_code":"51130","dong":"반곡동","name":"반곡퍼스트힐","addr":"1816-3","lat":37.3363364648161,"lng":127.975402954351,"road":"강원특별자치도 원주시 혁신로 400","region":"강원특별자치도 원주시 반곡동 1816-3","building":"반곡퍼스트힐","query":"강원특별자치도 원주시 반곡동 1816-3","method":"address"},"51130|반곡동|엘에이치센트럴파크|1993-3":{"city_code":"51130","dong":"반곡동","name":"엘에이치센트럴파크","addr":"1993-3","lat":37.3284896523564,"lng":127.995472703658,"road":"강원특별자치도 원주시 혁신로 224","region":"강원특별자치도 원주시 반곡동 1993-3","building":"엘에이치센트럴파크","query":"강원특별자치도 원주시 반곡동 1993-3","method":"address"},"51130|반곡동|원주반곡아이파크|1805":{"city_code":"51130","dong":"반곡동","name":"원주반곡아이파크","addr":"1805","lat":37.3347930958753,"lng":127.963988360429,"road":"강원특별자치도 원주시 늘품로 199","region":"강원특별자치도 원주시 반곡동 1805","building":"원주반곡아이파크","query":"강원특별자치도 원주시 반곡동 1805","method":"address"},"51130|반곡동|원주혁신도시제일풍경채센텀포레|1822-11":{"city_code":"51130","dong":"반곡동","name":"원주혁신도시제일풍경채센텀포레","addr":"1822-11","lat":37.3313268470678,"lng":127.981730105095,"road":"강원특별자치도 원주시 배울로 154","region":"강원특별자치도 원주시 반곡동 1822-11","building":"원주혁신도시 제일풍경채 센텀포레","query":"강원특별자치도 원주시 반곡동 1822-11","method":"address"},"51130|반곡동|유승한내들더스카이|1833":{"city_code":"51130","dong":"반곡동","name":"유승한내들더스카이","addr":"1833","lat":37.3180440794464,"lng":127.973769551687,"road":"강원특별자치도 원주시 배울로 10","region":"강원특별자치도 원주시 반곡동 1833","building":"유승한내들 더스카이","query":"강원특별자치도 원주시 반곡동 1833","method":"address"},"51130|반곡동|이편한세상반곡|2069":{"city_code":"51130","dong":"반곡동","name":"이편한세상반곡","addr":"2069","lat":37.3376988850696,"lng":127.971611722425,"road":"강원특별자치도 원주시 오리현길 62","region":"강원특별자치도 원주시 반곡동 2069","building":"이편한세상 반곡","query":"강원특별자치도 원주시 반곡동 2069","method":"address"},"51130|반곡동|중흥에스-클래스프라디움|2047-5":{"city_code":"51130","dong":"반곡동","name":"중흥에스-클래스프라디움","addr":"2047-5","lat":37.319190358325,"lng":127.976346454997,"road":"강원특별자치도 원주시 배울로 24","region":"강원특별자치도 원주시 반곡동 2047-5","building":"중흥S클래스 프라디움 아파트","query":"강원특별자치도 원주시 반곡동 2047-5","method":"address"},"51130|반곡동|중흥에스클래스|1812-1":{"city_code":"51130","dong":"반곡동","name":"중흥에스클래스","addr":"1812-1","lat":37.3343652441482,"lng":127.975908020786,"road":"강원특별자치도 원주시 혁신로 405","region":"강원특별자치도 원주시 반곡동 1812-1","building":"중흥에스클래스","query":"강원특별자치도 원주시 반곡동 1812-1","method":"address"},"51130|반곡동|푸른숨 휴브레스|2042-4":{"city_code":"51130","dong":"반곡동","name":"푸른숨 휴브레스","addr":"2042-4","lat":37.3212503074351,"lng":127.984718503023,"road":"강원특별자치도 원주시 혁신로 92","region":"강원특별자치도 원주시 반곡동 2042-4","building":"푸른숨 휴브레스","query":"강원특별자치도 원주시 반곡동 2042-4","method":"address"},"51130|반곡동|푸른숨엘에이치3단지|2047-4":{"city_code":"51130","dong":"반곡동","name":"푸른숨엘에이치3단지","addr":"2047-4","lat":37.3211315542778,"lng":127.977798248058,"road":"강원특별자치도 원주시 배울로 50","region":"강원특별자치도 원주시 반곡동 2047-4","building":"현대프라힐스 원주혁신","query":"강원특별자치도 원주시 반곡동 2047-4","method":"address"},"51130|반곡동|푸른숨엘에이치9단지|1818-10":{"city_code":"51130","dong":"반곡동","name":"푸른숨엘에이치9단지","addr":"1818-10","lat":37.3356570898736,"lng":127.984076742948,"road":"강원특별자치도 원주시 혁신로 346","region":"강원특별자치도 원주시 반곡동 1818-10","building":"원주 혁신 푸른숨 LH 9단지","query":"강원특별자치도 원주시 반곡동 1818-10","method":"address"},"51130|반곡동|힐데스하임5단지|1894-2":{"city_code":"51130","dong":"반곡동","name":"힐데스하임5단지","addr":"1894-2","lat":37.3230592101975,"lng":127.984256532364,"road":"강원특별자치도 원주시 혁신로 91","region":"강원특별자치도 원주시 반곡동 1894-2","building":"힐데스하임아파트","query":"강원특별자치도 원주시 반곡동 1894-2","method":"address"},"51130|봉산동|동신|1201-2":{"city_code":"51130","dong":"봉산동","name":"동신","addr":"1201-2","lat":37.3415410742295,"lng":127.968702594252,"road":"강원특별자치도 원주시 행구로 102","region":"강원특별자치도 원주시 봉산동 1201-2","building":"동신아파트","query":"강원특별자치도 원주시 봉산동 1201-2","method":"address"},"51130|봉산동|삼익|1201":{"city_code":"51130","dong":"봉산동","name":"삼익","addr":"1201","lat":37.3411696261141,"lng":127.966208762466,"road":"강원특별자치도 원주시 행구로 68","region":"강원특별자치도 원주시 봉산동 1201","building":"삼익아파트 유치원","query":"강원특별자치도 원주시 봉산동 1201","method":"address"},"51130|봉산동|아포리배말타운|1203-1":{"city_code":"51130","dong":"봉산동","name":"아포리배말타운","addr":"1203-1","lat":37.349395214651,"lng":127.956024357569,"road":"강원특별자치도 원주시 치악로 1883","region":"강원특별자치도 원주시 봉산동 1203-1","building":"아포리 배말타운","query":"강원특별자치도 원주시 봉산동 1203-1","method":"address"},"51130|봉산동|현대|1182":{"city_code":"51130","dong":"봉산동","name":"현대","addr":"1182","lat":37.3455075378722,"lng":127.963317184801,"road":"강원특별자치도 원주시 봉산로 74","region":"강원특별자치도 원주시 봉산동 1182","building":"현대아파트","query":"강원특별자치도 원주시 봉산동 1182","method":"address"},"51130|소초면 장양리|백운|1293-37":{"city_code":"51130","dong":"소초면 장양리","name":"백운","addr":"1293-37","lat":37.4120854094951,"lng":127.9546023994,"road":"강원특별자치도 원주시 소초면 장막1길 62","region":"강원특별자치도 원주시 소초면 장양리 1293-37","building":"백운임대아파트","query":"강원특별자치도 원주시 소초면 장양리 1293-37","method":"address"},"51130|소초면 장양리|영진1차|816":{"city_code":"51130","dong":"소초면 장양리","name":"영진1차","addr":"816","lat":37.4115106256738,"lng":127.95778261879,"road":"강원특별자치도 원주시 소초면 장막2길 12","region":"강원특별자치도 원주시 소초면 장양리 816","building":"영진아파트","query":"강원특별자치도 원주시 소초면 장양리 816","method":"address"},"51130|소초면 장양리|영진4차|816-2":{"city_code":"51130","dong":"소초면 장양리","name":"영진4차","addr":"816-2","lat":37.4119153824268,"lng":127.958478818428,"road":"강원특별자치도 원주시 소초면 장막2길 10","region":"강원특별자치도 원주시 소초면 장양리 816-2","building":"영진4차아파트","query":"강원특별자치도 원주시 소초면 장양리 816-2","method":"address"},"51130|우산동|덕원|157":{"city_code":"51130","dong":"우산동","name":"덕원","addr":"157","lat":37.3628443597555,"lng":127.936053332384,"road":"강원특별자치도 원주시 원문로100번길 88","region":"강원특별자치도 원주시 우산동 157","building":"덕원아파트","query":"강원특별자치도 원주시 우산동 157","method":"address"},"51130|우산동|동보렉스1|333-9":{"city_code":"51130","dong":"우산동","name":"동보렉스1","addr":"333-9","lat":37.3729451542715,"lng":127.939403220177,"road":"강원특별자치도 원주시 진광길 24","region":"강원특별자치도 원주시 우산동 333-9","building":"동보렉스아파트(1차)","query":"강원특별자치도 원주시 우산동 333-9","method":"address"},"51130|우산동|동보렉스2|333-48":{"city_code":"51130","dong":"우산동","name":"동보렉스2","addr":"333-48","lat":37.3739510549844,"lng":127.939637380317,"road":"강원특별자치도 원주시 우산공단길 25","region":"강원특별자치도 원주시 우산동 333-48","building":"동보렉스아파트(2차)","query":"강원특별자치도 원주시 우산동 333-48","method":"address"},"51130|우산동|동우|221-3":{"city_code":"51130","dong":"우산동","name":"동우","addr":"221-3","lat":37.3660910076026,"lng":127.933853250646,"road":"강원특별자치도 원주시 북원로2475번길 75","region":"강원특별자치도 원주시 우산동 221-3","building":"동우아파트","query":"강원특별자치도 원주시 우산동 221-3","method":"address"},"51130|우산동|삼호|130-1":{"city_code":"51130","dong":"우산동","name":"삼호","addr":"130-1","lat":37.3624119163887,"lng":127.937641470705,"road":"강원특별자치도 원주시 북원로2425번길 39","region":"강원특별자치도 원주시 우산동 130-1","building":"삼호1차아파트","query":"강원특별자치도 원주시 우산동 130-1","method":"address"},"51130|우산동|원주신일유토빌|821":{"city_code":"51130","dong":"우산동","name":"원주신일유토빌","addr":"821","lat":37.3731607535816,"lng":127.940719102365,"road":"강원특별자치도 원주시 우산공단길 23","region":"강원특별자치도 원주시 우산동 821","building":"신일유토빌","query":"강원특별자치도 원주시 우산동 821","method":"address"},"51130|우산동|한라비발디|818":{"city_code":"51130","dong":"우산동","name":"한라비발디","addr":"818","lat":37.3633998938756,"lng":127.932828470134,"road":"강원특별자치도 원주시 모란1길 82","region":"강원특별자치도 원주시 우산동 818","building":"한라비발디","query":"강원특별자치도 원주시 우산동 818","method":"address"},"51130|우산동|한라비발디2차|823":{"city_code":"51130","dong":"우산동","name":"한라비발디2차","addr":"823","lat":37.3633576207459,"lng":127.930726229057,"road":"강원특별자치도 원주시 봉화로 231","region":"강원특별자치도 원주시 우산동 823","building":"한라비발디2차아파트","query":"강원특별자치도 원주시 우산동 823","method":"address"},"51130|원동|원동주공1|295":{"city_code":"51130","dong":"원동","name":"원동주공1","addr":"295","lat":37.3424777388232,"lng":127.943623037014,"road":"강원특별자치도 원주시 무실로 119-1","region":"강원특별자치도 원주시 원동 295","building":"원동아파트 상가동","query":"강원특별자치도 원주시 원동 295","method":"address"},"51130|원동|원동주공2|295":{"city_code":"51130","dong":"원동","name":"원동주공2","addr":"295","lat":37.3424777388232,"lng":127.943623037014,"road":"강원특별자치도 원주시 무실로 119-1","region":"강원특별자치도 원주시 원동 295","building":"원동아파트 상가동","query":"강원특별자치도 원주시 원동 295","method":"address"},"51130|원동|원동진로|113-1":{"city_code":"51130","dong":"원동","name":"원동진로","addr":"113-1","lat":37.3414761991095,"lng":127.946970648359,"road":"강원특별자치도 원주시 남산로48번길 26","region":"강원특별자치도 원주시 원동 113-1","building":"원동진로아파트","query":"강원특별자치도 원주시 원동 113-1","method":"address"},"51130|원동|원동현진|274-4":{"city_code":"51130","dong":"원동","name":"원동현진","addr":"274-4","lat":37.3442098149302,"lng":127.94705068252,"road":"강원특별자치도 원주시 무실로47번길 34","region":"강원특별자치도 원주시 원동 274-4","building":"원동현진아파트","query":"강원특별자치도 원주시 원동 274-4","method":"address"},"51130|원동|한주|273-1":{"city_code":"51130","dong":"원동","name":"한주","addr":"273-1","lat":37.3445276318191,"lng":127.944747641878,"road":"강원특별자치도 원주시 무실로 91","region":"강원특별자치도 원주시 원동 273-1","building":"한주아파트","query":"강원특별자치도 원주시 원동 273-1","method":"address"},"51130|일산동|두진하트리움시티|365":{"city_code":"51130","dong":"일산동","name":"두진하트리움시티","addr":"365","lat":37.3509540844697,"lng":127.944905145014,"road":"강원특별자치도 원주시 천사로 189","region":"강원특별자치도 원주시 일산동 365","building":"두진하트리움시티","query":"강원특별자치도 원주시 일산동 365","method":"address"},"51130|일산동|스카이빌라트|154-335":{"city_code":"51130","dong":"일산동","name":"스카이빌라트","addr":"154-335","lat":37.3465518028248,"lng":127.946293048251,"road":"강원특별자치도 원주시 일산로36번길 31","region":"강원특별자치도 원주시 일산동 154-335","building":"스카이빌라트","query":"강원특별자치도 원주시 일산동 154-335","method":"address"},"51130|일산동|신진빌리지|272-3":{"city_code":"51130","dong":"일산동","name":"신진빌리지","addr":"272-3","lat":37.3477808190604,"lng":127.939016002944,"road":"강원특별자치도 원주시 천사로 130","region":"강원특별자치도 원주시 일산동 272-3","building":"신진빌리지(1차)","query":"강원특별자치도 원주시 일산동 272-3","method":"address"},"51130|일산동|우보삼성|333-3":{"city_code":"51130","dong":"일산동","name":"우보삼성","addr":"333-3","lat":37.3459023612419,"lng":127.940384437496,"road":"강원특별자치도 원주시 남산로 103","region":"강원특별자치도 원주시 일산동 333-3","building":"우보삼성아파트","query":"강원특별자치도 원주시 일산동 333-3","method":"address"},"51130|일산동|원흥2|355-1":{"city_code":"51130","dong":"일산동","name":"원흥2","addr":"355-1","lat":37.3438033856646,"lng":127.942242870483,"road":"강원특별자치도 원주시 무실로 122-2","region":"강원특별자치도 원주시 일산동 355-1","building":"원흥2차아파트","query":"강원특별자치도 원주시 일산동 355-1","method":"address"},"51130|일산동|일산국제|247-162":{"city_code":"51130","dong":"일산동","name":"일산국제","addr":"247-162","lat":37.3492738036014,"lng":127.938739471735,"road":"강원특별자치도 원주시 남산로 141","region":"강원특별자치도 원주시 일산동 247-162","building":"일산국제아파트","query":"강원특별자치도 원주시 일산동 247-162","method":"address"},"51130|중앙동|자유시장|56-44":{"city_code":"51130","dong":"중앙동","name":"자유시장","addr":"56-44","lat":37.3505808468207,"lng":127.949220785869,"road":"강원특별자치도 원주시 중앙시장길 11","region":"강원특별자치도 원주시 중앙동 56-44","building":"자유시장","query":"강원특별자치도 원주시 중앙동 56-44","method":"address"},"51130|지정면 가곡리|EG-the1아파트|1453":{"city_code":"51130","dong":"지정면 가곡리","name":"EG-the1아파트","addr":"1453","lat":37.3830785101437,"lng":127.870470900614,"road":"강원특별자치도 원주시 지정면 신지정로 325","region":"강원특별자치도 원주시 지정면 가곡리 1453","building":"EG-the1 아파트","query":"강원특별자치도 원주시 지정면 가곡리 1453","method":"address"},"51130|지정면 가곡리|원주기업도시8단지호반베르디움|1525":{"city_code":"51130","dong":"지정면 가곡리","name":"원주기업도시8단지호반베르디움","addr":"1525","lat":37.3813075348902,"lng":127.875423107974,"road":"강원특별자치도 원주시 지정면 가곡로 118","region":"강원특별자치도 원주시 지정면 가곡리 1525","building":"원주 호반 베르디움 상가동","query":"강원특별자치도 원주시 지정면 가곡리 1525","method":"address"},"51130|지정면 가곡리|원주기업도시라온프라이빗|1493":{"city_code":"51130","dong":"지정면 가곡리","name":"원주기업도시라온프라이빗","addr":"1493","lat":37.3835220404648,"lng":127.874626635876,"road":"강원특별자치도 원주시 지정면 가곡로 132","region":"강원특별자치도 원주시 지정면 가곡리 1493","building":"원주기업도시 라온프라이빗","query":"강원특별자치도 원주시 지정면 가곡리 1493","method":"address"},"51130|지정면 가곡리|원주기업도시유보라아이비파크1단지(1-2블록)|1476":{"city_code":"51130","dong":"지정면 가곡리","name":"원주기업도시유보라아이비파크1단지(1-2블록)","addr":"1476","lat":37.3737380806113,"lng":127.868776303128,"road":"강원특별자치도 원주시 지정면 조엄로 393","region":"강원특별자치도 원주시 지정면 가곡리 1476","building":"원주기업도시 유보라 아이비파크 1단지","query":"강원특별자치도 원주시 지정면 가곡리 1476","method":"address"},"51130|지정면 가곡리|원주기업도시유보라아이비파크2단지(2-2블록)|1470-1":{"city_code":"51130","dong":"지정면 가곡리","name":"원주기업도시유보라아이비파크2단지(2-2블록)","addr":"1470-1","lat":37.3756654152998,"lng":127.869559474493,"road":"강원특별자치도 원주시 지정면 조엄로 397","region":"강원특별자치도 원주시 지정면 가곡리 1470-1","building":"원주기업도시 유보라 아이비파크 2단지","query":"강원특별자치도 원주시 지정면 가곡리 1470-1","method":"address"},"51130|지정면 가곡리|원주롯데캐슬골드파크1차(5단지)|1512":{"city_code":"51130","dong":"지정면 가곡리","name":"원주롯데캐슬골드파크1차(5단지)","addr":"1512","lat":37.3771134644889,"lng":127.871730238478,"road":"강원특별자치도 원주시 지정면 신지정로 250","region":"강원특별자치도 원주시 지정면 가곡리 1512","building":"원주 롯데캐슬 골드파크 1차","query":"강원특별자치도 원주시 지정면 가곡리 1512","method":"address"},"51130|지정면 가곡리|원주롯데캐슬골드파크2차(6단지)|1501":{"city_code":"51130","dong":"지정면 가곡리","name":"원주롯데캐슬골드파크2차(6단지)","addr":"1501","lat":37.3810492530784,"lng":127.871686261954,"road":"강원특별자치도 원주시 지정면 신지정로 300","region":"강원특별자치도 원주시 지정면 가곡리 1501","building":"원주 롯데캐슬 골드파크 2차","query":"강원특별자치도 원주시 지정면 가곡리 1501","method":"address"},"51130|지정면 가곡리|원주롯데캐슬더퍼스트1차|1537":{"city_code":"51130","dong":"지정면 가곡리","name":"원주롯데캐슬더퍼스트1차","addr":"1537","lat":37.3782161906417,"lng":127.879651857787,"road":"강원특별자치도 원주시 지정면 가곡로 50","region":"강원특별자치도 원주시 지정면 가곡리 1537","building":"원주 롯데캐슬 더퍼스트","query":"강원특별자치도 원주시 지정면 가곡리 1537","method":"address"},"51130|지정면 가곡리|원주롯데캐슬더퍼스트2차|1534":{"city_code":"51130","dong":"지정면 가곡리","name":"원주롯데캐슬더퍼스트2차","addr":"1534","lat":37.378945053621,"lng":127.87686735005,"road":"강원특별자치도 원주시 지정면 가곡로 70","region":"강원특별자치도 원주시 지정면 가곡리 1534","building":"원주 롯데캐슬 더퍼스트 2차","query":"강원특별자치도 원주시 지정면 가곡리 1534","method":"address"},"51130|지정면 가곡리|이지더원더그레이스아파트|1468":{"city_code":"51130","dong":"지정면 가곡리","name":"이지더원더그레이스아파트","addr":"1468","lat":37.3769776450045,"lng":127.869030102188,"road":"강원특별자치도 원주시 지정면 신지정로 255","region":"강원특별자치도 원주시 지정면 가곡리 1468","building":"이지더원 더 그레이스 아파트","query":"강원특별자치도 원주시 지정면 가곡리 1468","method":"address"},"51130|지정면 가곡리|이지더원어반포레|1473":{"city_code":"51130","dong":"지정면 가곡리","name":"이지더원어반포레","addr":"1473","lat":37.3745973998754,"lng":127.866228631298,"road":"강원특별자치도 원주시 지정면 조엄로 391","region":"강원특별자치도 원주시 지정면 가곡리 1473","building":"이지더원 어반포레","query":"강원특별자치도 원주시 지정면 가곡리 1473","method":"address"},"51130|지정면 가곡리|호반베르디움더리버|1464":{"city_code":"51130","dong":"지정면 가곡리","name":"호반베르디움더리버","addr":"1464","lat":37.3787869346482,"lng":127.868184103362,"road":"강원특별자치도 원주시 지정면 신지정로 265","region":"강원특별자치도 원주시 지정면 가곡리 1464","building":"원주기업도시 3-2블럭 호반베르디움","query":"강원특별자치도 원주시 지정면 가곡리 1464","method":"address"},"51130|지정면 가곡리|호반베르디움더힐|1461":{"city_code":"51130","dong":"지정면 가곡리","name":"호반베르디움더힐","addr":"1461","lat":37.3807390915103,"lng":127.868630348386,"road":"강원특별자치도 원주시 지정면 신지정로 295","region":"강원특별자치도 원주시 지정면 가곡리 1461","building":"원주기업도시 3-1블럭 호반베르디움","query":"강원특별자치도 원주시 지정면 가곡리 1461","method":"address"},"51130|태장동|e편한세상원주태장|2731":{"city_code":"51130","dong":"태장동","name":"e편한세상원주태장","addr":"2731","lat":37.370795566654,"lng":127.952973041027,"road":"강원특별자치도 원주시 현충로232번길 42","region":"강원특별자치도 원주시 태장동 2731","building":"e편한세상 원주태장","query":"강원특별자치도 원주시 태장동 2731","method":"address"},"51130|태장동|광희|1156-2":{"city_code":"51130","dong":"태장동","name":"광희","addr":"1156-2","lat":37.3876269612308,"lng":127.951667553349,"road":"강원특별자치도 원주시 북원로2738번길 35","region":"강원특별자치도 원주시 태장동 1156-2","building":"광희아파트","query":"강원특별자치도 원주시 태장동 1156-2","method":"address"},"51130|태장동|구룡|544-2":{"city_code":"51130","dong":"태장동","name":"구룡","addr":"544-2","lat":37.3823760751458,"lng":127.958250372913,"road":"강원특별자치도 원주시 흥양로102번길 12","region":"강원특별자치도 원주시 태장동 544-2","building":"구룡맨션","query":"강원특별자치도 원주시 태장동 544-2","method":"address"},"51130|태장동|금광포란재1단지|580":{"city_code":"51130","dong":"태장동","name":"금광포란재1단지","addr":"580","lat":37.3745887661515,"lng":127.956229674116,"road":"강원특별자치도 원주시 포란재로 36","region":"강원특별자치도 원주시 태장동 580","building":"금광포란재아파트1단지","query":"강원특별자치도 원주시 태장동 580","method":"address"},"51130|태장동|뉴스테이아파트|1720-48":{"city_code":"51130","dong":"태장동","name":"뉴스테이아파트","addr":"1720-48","lat":37.4071598599774,"lng":127.945885649223,"road":"강원특별자치도 원주시 태장공단길 54-14","region":"강원특별자치도 원주시 태장동 1720-48","building":"뉴스테이 아파트","query":"강원특별자치도 원주시 태장동 1720-48","method":"address"},"51130|태장동|대흥2|1040-8":{"city_code":"51130","dong":"태장동","name":"대흥2","addr":"1040-8","lat":37.3797992809034,"lng":127.950396785901,"road":"강원특별자치도 원주시 흥양로 30","region":"강원특별자치도 원주시 태장동 1040-8","building":"대흥아파트","query":"강원특별자치도 원주시 태장동 1040-8","method":"address"},"51130|태장동|두진백로|546":{"city_code":"51130","dong":"태장동","name":"두진백로","addr":"546","lat":37.3821615703244,"lng":127.955675932137,"road":"강원특별자치도 원주시 흥양로 64","region":"강원특별자치도 원주시 태장동 546","building":"두진백로아파트","query":"강원특별자치도 원주시 태장동 546","method":"address"},"51130|태장동|백운2차|2252":{"city_code":"51130","dong":"태장동","name":"백운2차","addr":"2252","lat":37.3949087065511,"lng":127.954915034501,"road":"강원특별자치도 원주시 적동1길 31","region":"강원특별자치도 원주시 태장동 2252","building":"백운2차아파트","query":"강원특별자치도 원주시 태장동 2252","method":"address"},"51130|태장동|백운3차|1836":{"city_code":"51130","dong":"태장동","name":"백운3차","addr":"1836","lat":37.4018737694849,"lng":127.952237569681,"road":"강원특별자치도 원주시 태장공단길 10","region":"강원특별자치도 원주시 태장동 1836","building":"백운3차아파트","query":"강원특별자치도 원주시 태장동 1836","method":"address"},"51130|태장동|북원상가|1379-4":{"city_code":"51130","dong":"태장동","name":"북원상가","addr":"1379-4","lat":37.38442929927479,"lng":127.9489714522935,"road":"강원특별자치도 원주시 북원상가길 13","region":"강원특별자치도 원주시 태장동 1379-23","building":"북원상가아파트","query":"원주시 태장동 북원상가","method":"keyword"},"51130|태장동|삼정백조|551":{"city_code":"51130","dong":"태장동","name":"삼정백조","addr":"551","lat":37.3812118600797,"lng":127.957888933824,"road":"강원특별자치도 원주시 흥양로102번길 20","region":"강원특별자치도 원주시 태장동 551","building":"삼정백조아파트","query":"강원특별자치도 원주시 태장동 551","method":"address"},"51130|태장동|상록|549":{"city_code":"51130","dong":"태장동","name":"상록","addr":"549","lat":37.3820239505092,"lng":127.957518425446,"road":"강원특별자치도 원주시 흥양로102번길 18","region":"강원특별자치도 원주시 태장동 549","building":"상록아파트","query":"강원특별자치도 원주시 태장동 549","method":"address"},"51130|태장동|상록아파트|971":{"city_code":"51130","dong":"태장동","name":"상록아파트","addr":"971","lat":37.3751281241009,"lng":127.953548652821,"road":"강원특별자치도 원주시 현충로 234","region":"강원특별자치도 원주시 태장동 971","building":"상록아파트","query":"강원특별자치도 원주시 태장동 971","method":"address"},"51130|태장동|성호2차샤인힐즈|128-9":{"city_code":"51130","dong":"태장동","name":"성호2차샤인힐즈","addr":"128-9","lat":37.3636167458128,"lng":127.960133343191,"road":"강원특별자치도 원주시 현충로58번길 71","region":"강원특별자치도 원주시 태장동 128-9","building":"성호2차 샤인힐즈","query":"강원특별자치도 원주시 태장동 128-9","method":"address"},"51130|태장동|세인트파크아파트|129-10":{"city_code":"51130","dong":"태장동","name":"세인트파크아파트","addr":"129-10","lat":37.3634094054033,"lng":127.962231399773,"road":"강원특별자치도 원주시 현충로58번길 79","region":"강원특별자치도 원주시 태장동 129-10","building":"세인트파크아파트","query":"강원특별자치도 원주시 태장동 129-10","method":"address"},"51130|태장동|영진2|891-1":{"city_code":"51130","dong":"태장동","name":"영진2","addr":"891-1","lat":37.3682742325418,"lng":127.950128104253,"road":"강원특별자치도 원주시 현충로 155","region":"강원특별자치도 원주시 태장동 891-1","building":"영진2차아파트","query":"강원특별자치도 원주시 태장동 891-1","method":"address"},"51130|태장동|요진보네르카운티2차|2717":{"city_code":"51130","dong":"태장동","name":"요진보네르카운티2차","addr":"2717","lat":37.3793153345283,"lng":127.947806530687,"road":"강원특별자치도 원주시 현충로 295","region":"강원특별자치도 원주시 태장동 2717","building":"요진보네르카운티 2차","query":"강원특별자치도 원주시 태장동 2717","method":"address"},"51130|태장동|우성1|2210":{"city_code":"51130","dong":"태장동","name":"우성1","addr":"2210","lat":37.3957836687065,"lng":127.953115775574,"road":"강원특별자치도 원주시 적동1길 11","region":"강원특별자치도 원주시 태장동 2210","building":"우성1차아파트","query":"강원특별자치도 원주시 태장동 2210","method":"address"},"51130|태장동|원주칸타빌더포레스트|2737":{"city_code":"51130","dong":"태장동","name":"원주칸타빌더포레스트","addr":"2737","lat":37.3701827956034,"lng":127.960225263539,"road":"강원특별자치도 원주시 소일마을2길 11","region":"강원특별자치도 원주시 태장동 2737","building":"원주 칸타빌 더 포레스트","query":"강원특별자치도 원주시 태장동 2737","method":"address"},"51130|태장동|이안원주태장|2793":{"city_code":"51130","dong":"태장동","name":"이안원주태장","addr":"2793","lat":37.388171959058,"lng":127.956437180762,"road":"강원특별자치도 원주시 흥양로51번길 40","region":"강원특별자치도 원주시 태장동 2793","building":"이안원주어반파크아파트","query":"강원특별자치도 원주시 태장동 2793","method":"address"},"51130|태장동|정암|548":{"city_code":"51130","dong":"태장동","name":"정암","addr":"548","lat":37.3819929631239,"lng":127.956794065395,"road":"강원특별자치도 원주시 흥양로 98","region":"강원특별자치도 원주시 태장동 548","building":"정암아파트","query":"강원특별자치도 원주시 태장동 548","method":"address"},"51130|태장동|진우|1037-2":{"city_code":"51130","dong":"태장동","name":"진우","addr":"1037-2","lat":37.3787091782575,"lng":127.950250141828,"road":"강원특별자치도 원주시 현충로 280","region":"강원특별자치도 원주시 태장동 1037-2","building":"진우아파트","query":"강원특별자치도 원주시 태장동 1037-2","method":"address"},"51130|태장동|태봉우성2|1266-6":{"city_code":"51130","dong":"태장동","name":"태봉우성2","addr":"1266-6","lat":37.3805441995577,"lng":127.948985831234,"road":"강원특별자치도 원주시 현충로 304","region":"강원특별자치도 원주시 태장동 1266-6","building":"태봉우성2차아파트","query":"강원특별자치도 원주시 태장동 1266-6","method":"address"},"51130|태장동|태장동보렉스(7차)|128-1":{"city_code":"51130","dong":"태장동","name":"태장동보렉스(7차)","addr":"128-1","lat":37.3613441924672,"lng":127.960452387366,"road":"강원특별자치도 원주시 치악로 2031-1","region":"강원특별자치도 원주시 태장동 128-1","building":"","query":"강원특별자치도 원주시 태장동 128-1","method":"address"},"51130|태장동|태장동보렉스(8차)|128-1":{"city_code":"51130","dong":"태장동","name":"태장동보렉스(8차)","addr":"128-1","lat":37.3613441924672,"lng":127.960452387366,"road":"강원특별자치도 원주시 치악로 2031-1","region":"강원특별자치도 원주시 태장동 128-1","building":"","query":"강원특별자치도 원주시 태장동 128-1","method":"address"},"51130|태장동|태장동성호아파트|129":{"city_code":"51130","dong":"태장동","name":"태장동성호아파트","addr":"129","lat":37.3624057250514,"lng":127.961541311669,"road":"강원특별자치도 원주시 치악로 2047","region":"강원특별자치도 원주시 태장동 129","building":"성호아파트","query":"강원특별자치도 원주시 태장동 129","method":"address"},"51130|태장동|태장주공1단지|2705":{"city_code":"51130","dong":"태장동","name":"태장주공1단지","addr":"2705","lat":37.3857378201982,"lng":127.954656210103,"road":"강원특별자치도 원주시 흥양로51번길 22","region":"강원특별자치도 원주시 태장동 2705","building":"태장주공1단지아파트","query":"강원특별자치도 원주시 태장동 2705","method":"address"},"51130|태장동|태장주공2|2708":{"city_code":"51130","dong":"태장동","name":"태장주공2","addr":"2708","lat":37.3845710585778,"lng":127.95457547587,"road":"강원특별자치도 원주시 흥양로51번길 16","region":"강원특별자치도 원주시 태장동 2708","building":"태장주공3단지아파트","query":"강원특별자치도 원주시 태장동 2708","method":"address"},"51130|태장동|태장주공3|2708":{"city_code":"51130","dong":"태장동","name":"태장주공3","addr":"2708","lat":37.3845710585778,"lng":127.95457547587,"road":"강원특별자치도 원주시 흥양로51번길 16","region":"강원특별자치도 원주시 태장동 2708","building":"태장주공3단지아파트","query":"강원특별자치도 원주시 태장동 2708","method":"address"},"51130|태장동|현대|682":{"city_code":"51130","dong":"태장동","name":"현대","addr":"682","lat":37.3626404387288,"lng":127.958110077439,"road":"강원특별자치도 원주시 현충로58번길 29","region":"강원특별자치도 원주시 태장동 682","building":"현대아파트","query":"강원특별자치도 원주시 태장동 682","method":"address"},"51130|태장동|흥화브라운빌|2716":{"city_code":"51130","dong":"태장동","name":"흥화브라운빌","addr":"2716","lat":37.3618837907256,"lng":127.956328049065,"road":"강원특별자치도 원주시 현충로58번길 21","region":"강원특별자치도 원주시 태장동 2716","building":"흥화브라운빌아파트","query":"강원특별자치도 원주시 태장동 2716","method":"address"},